{
  "AAAS": {
    "AvailableFormats": "2D|3D",
    "City": "Mumbai",
    "Latitude": "19.2289",
    "Longitude": "72.8542",
    "RegionCode": "MUMBAI",
    "State": "Maharashtra",
    "SubRegionCode": "MWEST",
    "VenueAddress": "4th Floor, Ajanta Square Mall, Lokmanya Tilak Road, Borivali West, Mumbai, Maharashtra 400092, India",
    "VenueCode": "AAAS",
    "VenueName": "Ajanta Cinema Cinex: Borivali (W) Newly Renovated"
  },
  "AANS": {
    "AvailableFormats": "2D",
    "City": "Sawantwadi",
    "Latitude": "15.9241",
    "Longitude": "73.8362",
    "RegionCode": "ZARA",
    "State": "Maharashtra",
    "SubRegionCode": "ZAEA",
    "VenueAddress": "Survey No.45, 1A-14/15/16, Vengurla-Belgaum Road, Nirukhe, Kolgaon, Taluka Sawantwadi, District Sindudurga, Sawantwadi, Maharashtra 416510, India",
    "VenueCode": "AANS",
    "VenueName": "Arya Nova Cinemaz: Sawantwadi"
  },
  "ABCC": {
    "AvailableFormats": "2D",
    "City": "Chandrapur",
    "Latitude": "19.9469",
    "Longitude": "79.2949",
    "RegionCode": "CHAN",
    "State": "Maharashtra",
    "SubRegionCode": "CHAN",
    "VenueAddress": "Ekori Ward, Near Gandhi Chowk, Chandrapur, Maharashtra 442402, India",
    "VenueCode": "ABCC",
    "VenueName": "Cinejoy Cinema: Chandrapur"
  },
  "ABND": {
    "AvailableFormats": "2D",
    "City": "Nandyal",
    "Latitude": "15.4858",
    "Longitude": "78.4861",
    "RegionCode": "NADY",
    "State": "Andhra Pradesh",
    "SubRegionCode": "NADY",
    "VenueAddress": "Ramnath Cine Complex, Telugu Peta, Nandyal, Andhra Pradesh 518501, India",
    "VenueCode": "ABND",
    "VenueName": "Abhiram Theater: Nandyal"
  },
  "ACBD": {
    "AvailableFormats": "",
    "City": "Basantpur",
    "Latitude": "26.1698",
    "Longitude": "84.6684",
    "RegionCode": "BABA",
    "State": "Bihar",
    "SubRegionCode": "BABA",
    "VenueAddress": "Abhishek Cineplex, Basant Pur, Siwan, Basantpur, Bihar 841406, India",
    "VenueCode": "ACBD",
    "VenueName": "Abhishek Cineplex: Basantpur"
  },
  "ACHP": {
    "AvailableFormats": "2D",
    "City": "Pasighat",
    "Latitude": "28.0594",
    "Longitude": "95.3313",
    "RegionCode": "PSHG",
    "State": "Arunachal Pradesh",
    "SubRegionCode": "PSHG",
    "VenueAddress": "Aarun Tamuk Complex, Main Market Pasighat, Near Arunachal Pradesh Rural Bank,Pasighat, Arunachal Pradesh 791102, India",
    "VenueCode": "ACHP",
    "VenueName": "Abor Cinema Hall: Pasighat"
  },
  "ACKZ": {
    "AvailableFormats": "2D",
    "City": "Kozhikode",
    "Latitude": "11.2554",
    "Longitude": "75.7847",
    "RegionCode": "KOZH",
    "State": "Kerala",
    "SubRegionCode": "KOZH",
    "VenueAddress": "No 17/256, Pavamani Road, Kozhikode, Kerala 673001, India",
    "VenueCode": "ACKZ",
    "VenueName": "ARC Coronation 4K Dolby Atmos"
  },
  "ACON": {
    "AvailableFormats": "2D",
    "City": "Chennai",
    "Latitude": "12.8505",
    "Longitude": "80.2257",
    "RegionCode": "CHEN",
    "State": "Tamil Nadu",
    "SubRegionCode": "CHEN",
    "VenueAddress": "Vivira Mall, 5th Floor, Navalur, Old Mahabalipuram Road, Near ETA Techno Park Entrance, Chennai, Tamil Nadu 603103, India",
    "VenueCode": "ACON",
    "VenueName": "AGS Cinemas OMR: Navlur"
  },
  "ACTN": {
    "AvailableFormats": "2D",
    "City": "Chennai",
    "Latitude": "13.0474",
    "Longitude": "80.2449",
    "RegionCode": "CHEN",
    "State": "Tamil Nadu",
    "SubRegionCode": "CHEN",
    "VenueAddress": "No: 24/1, GN Chetty Road, T. Nagar, Opposite Dr. M.G.R. Educational and Research Institute, Chennai, Tamil Nadu 600017, India",
    "VenueCode": "ACTN",
    "VenueName": "AGS Cinemas: T. Nagar"
  },
  "ADCM": {
    "AvailableFormats": "2D|3D",
    "City": "Mangalore",
    "Latitude": "12.887",
    "Longitude": "74.8412",
    "RegionCode": "MLR",
    "State": "Karnataka",
    "SubRegionCode": "MLR",
    "VenueAddress": "Bharath Mall, Opp K.S.R.T.C, Bejai Kavoor Road, Mangalore, Karnataka 575013, India",
    "VenueCode": "ADCM",
    "VenueName": "Bharath Cinemas: Bharath Mall, Bejai, Mangaluru"
  },
  "AETE": {
    "AvailableFormats": "2D|3D",
    "City": "Thane",
    "Latitude": "19.1848",
    "Longitude": "72.9749",
    "RegionCode": "MUMBAI",
    "State": "Maharashtra",
    "SubRegionCode": "THNE",
    "VenueAddress": "Kopri Colony, Gidwani Road, Near Railway Station, Thane, Maharashtra 400603, India",
    "VenueCode": "AETE",
    "VenueName": "Anand Cinema: Thane"
  },
  "AICP": {
    "AvailableFormats": "2D",
    "City": "Pallickathodu",
    "Latitude": "9.60499",
    "Longitude": "76.681",
    "RegionCode": "PKTU",
    "State": "Kerala",
    "SubRegionCode": "PKTU",
    "VenueAddress": "Kodungoor Road, Mutholy Pallickathodu, Near Federal Bank Pallikathodu, Pallickathodu, Kerala 686503, India",
    "VenueCode": "AICP",
    "VenueName": "Anchani Cinemas 4K Dolby Atmos: Pallickathodu"
  },
  "AKRF": {
    "AvailableFormats": "2D",
    "City": "Faridabad",
    "Latitude": "28.4553",
    "Longitude": "77.316",
    "RegionCode": "NCR",
    "State": "NCR",
    "SubRegionCode": "FARI",
    "VenueAddress": "SLF Mall St, Indraprastha Colony, Sector 32, Faridabad, NCR 121003, India",
    "VenueCode": "AKRF",
    "VenueName": "AKR Cinemas: SLF Mall, Faridabad"
  },
  "ALPC": {
    "AvailableFormats": "2D",
    "City": "Bhopal",
    "Latitude": "23.2648",
    "Longitude": "77.4101",
    "RegionCode": "BHOP",
    "State": "Madhya Pradesh",
    "SubRegionCode": "BHOP",
    "VenueAddress": "Hamidia Road, Railway Colony, Near Railway Station, Bhopal, Madhya Pradesh 460160, India",
    "VenueCode": "ALPC",
    "VenueName": "Alpana Air-Cooled Cineplex: Bhopal"
  },
  "AMCD": {
    "AvailableFormats": "2D",
    "City": "Delhi",
    "Latitude": "28.6774",
    "Longitude": "77.2012",
    "RegionCode": "NCR",
    "State": "NCR",
    "SubRegionCode": "DELHI",
    "VenueAddress": "GT Road, Ghanta Ghar, Subzi Mandi, Block 40, Shakti Nagar, Near Clock Tower, Delhi, NCR 110007, India",
    "VenueCode": "AMCD",
    "VenueName": "Amba Cinema: Delhi"
  },
  "AMLC": {
    "AvailableFormats": "2D",
    "City": "Barrackpore",
    "Latitude": "22.7672",
    "Longitude": "88.3832",
    "RegionCode": "BARR",
    "State": "West Bengal",
    "SubRegionCode": "BARR",
    "VenueAddress": "82, Barrackpore - Barasat Road, Barrackpore, Barrackpore, West Bengal 700122, India",
    "VenueCode": "AMLC",
    "VenueName": "Amala Cinema: Barrackpore"
  },
  "AMTI": {
    "AvailableFormats": "2D",
    "City": "Kosamba",
    "Latitude": "21.4683",
    "Longitude": "72.9535",
    "RegionCode": "KOSA",
    "State": "Gujarat",
    "SubRegionCode": "KOSA",
    "VenueAddress": "V S Patel Road, Shraddha, Opposite Ambedkar Statue, Tarsadi, Kosamba, Gujarat 394120, India",
    "VenueCode": "AMTI",
    "VenueName": "Amisha Miniplex: Tarsadi"
  },
  "ANCN": {
    "AvailableFormats": "2D",
    "City": "Khategaon",
    "Latitude": "22.5896",
    "Longitude": "76.9259",
    "RegionCode": "KTEG",
    "State": "Madhya Pradesh",
    "SubRegionCode": "KTEG",
    "VenueAddress": "Hotel Shri Sundaram and Marriage Garden, Anjana Cinema Parisar, Nemawar Road, In Front of Petrol Pump, Khategaon, Madhya Pradesh 455336, India",
    "VenueCode": "ANCN",
    "VenueName": "Anjana Cinema: Khategaon"
  },
  "ANST": {
    "AvailableFormats": "2D",
    "City": "Sangareddy",
    "Latitude": "17.3712",
    "Longitude": "78.0502",
    "RegionCode": "SARE",
    "State": "Telangana",
    "SubRegionCode": "SARE",
    "VenueAddress": "Sitara Theatre Road, Veerabhadra Nagar, Near Bismilla Masjid, Sangareddy, Telangana 502001, India",
    "VenueCode": "ANST",
    "VenueName": "Asian Nithin Sitara: Sangareddy"
  },
  "APAS": {
    "AvailableFormats": "",
    "City": "Agra",
    "Latitude": "27.1653",
    "Longitude": "78.0149",
    "RegionCode": "AGRA",
    "State": "Uttar Pradesh",
    "SubRegionCode": "AGRA",
    "VenueAddress": "1 Gwalior Road, Baluganj, Agra Cantt, Near Dasaprakash Hotel, Opposite St George`s School, Agra, Uttar Pradesh 282001, India",
    "VenueCode": "APAS",
    "VenueName": "Meher Theatre: Agra (Laser 4K)"
  },
  "APPX": {
    "AvailableFormats": "2D",
    "City": "Ahmedabad",
    "Latitude": "23.0025",
    "Longitude": "72.5901",
    "RegionCode": "AHD",
    "State": "Gujarat",
    "SubRegionCode": "AHD",
    "VenueAddress": "4, Jyoti Colony, Kankaria, Maninagar, Gita Mandir Road, Near Bhakta Vallabh Dhola Vidya Vihar, Ahmedabad, Gujarat 380002, India",
    "VenueCode": "APPX",
    "VenueName": "Apple Multiplex: Maninagar, Ahmedabad"
  },
  "APVE": {
    "AvailableFormats": "2D",
    "City": "Vellore",
    "Latitude": "12.911",
    "Longitude": "79.1317",
    "RegionCode": "RANI",
    "State": "Tamil Nadu",
    "SubRegionCode": "RANI",
    "VenueAddress": "Anna Salai, Vasantapuram, Kosapet, Vellore, Near Sri Vinayaga Temple, Vellore, Tamil Nadu 632001, India",
    "VenueCode": "APVE",
    "VenueName": "Apsara Cinemas 4K AC 7.1 Dolby: Vellore"
  },
  "ARED": {
    "AvailableFormats": "2D|3D",
    "City": "Ahmedabad",
    "Latitude": "23.0685",
    "Longitude": "72.576",
    "RegionCode": "AHD",
    "State": "Gujarat",
    "SubRegionCode": "AHD",
    "VenueAddress": "Arved Transcube Plaza, Bandhu Nagar, Vijay Nagar, 132 Feet Ring Road, Ranip, Ahmedabad, Gujarat 382480, India",
    "VenueCode": "ARED",
    "VenueName": "PVR: Arved Transcube, Ahmedabad"
  },
  "ARVB": {
    "AvailableFormats": "2D",
    "City": "Bhadrachalam",
    "Latitude": "17.6734",
    "Longitude": "80.8894",
    "RegionCode": "BHDR",
    "State": "Telangana",
    "SubRegionCode": "BHDR",
    "VenueAddress": "Bhadrachalam Road, Ashok Nagar Colony, Bhadrachalam, Telangana 507111, India",
    "VenueCode": "ARVB",
    "VenueName": "AMR Vijay Bhaskar: Bhadrachalam"
  },
  "ASHC": {
    "AvailableFormats": "2D",
    "City": "Pune",
    "Latitude": "18.6148",
    "Longitude": "73.8039",
    "RegionCode": "PUNE",
    "State": "Maharashtra",
    "SubRegionCode": "PUNE",
    "VenueAddress": "Shastri Nagar, Pimpri Colony, Pune, Maharashtra 411017, India",
    "VenueCode": "ASHC",
    "VenueName": "Ashok Theatre: Pimpri"
  },
  "ASMR": {
    "AvailableFormats": "2D",
    "City": "Miryalaguda",
    "Latitude": "16.8703",
    "Longitude": "79.5631",
    "RegionCode": "MRGD",
    "State": "Telangana",
    "SubRegionCode": "MRGD",
    "VenueAddress": "Islampura Road, Beside Madhusudhan Reddy Hospital, Miryalaguda, Telangana 508207, India",
    "VenueCode": "ASMR",
    "VenueName": "Asian Srinivasa Theater: Miryalaguda"
  },
  "ASSK": {
    "AvailableFormats": "2D",
    "City": "Khammam",
    "Latitude": "17.25",
    "Longitude": "80.1403",
    "RegionCode": "KHAM",
    "State": "Telangana",
    "SubRegionCode": "KHAM",
    "VenueAddress": "9-2-15/A, Station Road, Braman Bazar, Khammam, Telangana 507001, India",
    "VenueCode": "ASSK",
    "VenueName": "Asian Srinivasa: Khammam"
  },
  "ASWN": {
    "AvailableFormats": "2D",
    "City": "Piduguralla",
    "Latitude": "16.4806",
    "Longitude": "79.8909",
    "RegionCode": "PIDU",
    "State": "Andhra Pradesh",
    "SubRegionCode": "PIDU",
    "VenueAddress": "Tangeda Road, Near Bharat Petrol Bunk, Piduguralla, Andhra Pradesh 522413, India",
    "VenueCode": "ASWN",
    "VenueName": "Aswini Deluxe A/C Dolby Atmos: Piduguralla"
  },
  "ATGN": {
    "AvailableFormats": "2D",
    "City": "Bengaluru",
    "Latitude": "12.9737",
    "Longitude": "77.5776",
    "RegionCode": "HOKT",
    "State": "Karnataka",
    "SubRegionCode": "HOKT",
    "VenueAddress": "B.V.K. Ayengar Road, Gandhi Nagar, Near TNB Bank, Bengaluru, Karnataka 560009, India",
    "VenueCode": "ATGN",
    "VenueName": "Abhinay Theatre 4K A/C: Gandhinagar"
  },
  "ATTK": {
    "AvailableFormats": "",
    "City": "Narsapur",
    "Latitude": "16.4412",
    "Longitude": "81.7032",
    "RegionCode": "NARP",
    "State": "Andhra Pradesh",
    "SubRegionCode": "NARP",
    "VenueAddress": "NH216, Near Narsapur Bus Depot, Narsapur, Andhra Pradesh 534275, India",
    "VenueCode": "ATTK",
    "VenueName": "Annapurna Picture Palace: Narsapur"
  },
  "AVCH": {
    "AvailableFormats": "2D",
    "City": "Khandwa",
    "Latitude": "21.8169",
    "Longitude": "76.3434",
    "RegionCode": "KHDW",
    "State": "Madhya Pradesh",
    "SubRegionCode": "KHDW",
    "VenueAddress": "Burhanpur - Pandhana Road, Plot No.106, Kunbi, East Nimar, Khandwa, Madhya Pradesh 450001, India",
    "VenueCode": "AVCH",
    "VenueName": "Abhishek Veer Cinemas: Khandwa"
  },
  "AWCT": {
    "AvailableFormats": "2D",
    "City": "Thodupuzha",
    "Latitude": "9.90285",
    "Longitude": "76.7153",
    "RegionCode": "THOD",
    "State": "Kerala",
    "SubRegionCode": "THOD",
    "VenueAddress": "Silver Hills, Mount Sinai Road, Near Mount Senai Hospital, Thodupuzha, Kerala 685584, India",
    "VenueCode": "AWCT",
    "VenueName": "Silver Hills Naxa Cinemas 4K Dolby ATMOS"
  },
  "AYYA": {
    "AvailableFormats": "2D",
    "City": "Pattukkottai",
    "Latitude": "10.4238",
    "Longitude": "79.3149",
    "RegionCode": "PATU",
    "State": "Tamil Nadu",
    "SubRegionCode": "PATU",
    "VenueAddress": "54 South Kali, Amman Mobil st, Nadimuthu Nagar, Pattukkottai, Tamil Nadu 614601, India",
    "VenueCode": "AYYA",
    "VenueName": "Ayya A/C theatre 2K Dolby 7.1: Pattukkottai"
  },
  "BATG": {
    "AvailableFormats": "2D",
    "City": "Pondicherry",
    "Latitude": "11.9378",
    "Longitude": "79.8199",
    "RegionCode": "AURV",
    "State": "Tamil Nadu",
    "SubRegionCode": "AURV",
    "VenueAddress": "118,Brindavanam, Kamaraj Salai, Near Thanthai Periyar Statue, Pondicherry, Tamil Nadu 605013, India",
    "VenueCode": "BATG",
    "VenueName": "Balaji Theatre 70MM: Pondicherry"
  },
  "BCBP": {
    "AvailableFormats": "2D",
    "City": "Bhopal",
    "Latitude": "23.2601",
    "Longitude": "77.4104",
    "RegionCode": "BHOP",
    "State": "Madhya Pradesh",
    "SubRegionCode": "BHOP",
    "VenueAddress": "Near Shakir Ali Khan Hospital, Opposite Capital Hotel, Hamidia Road, Near Shakir Ali Khan Hospital, Bhopal, Madhya Pradesh 462001, India",
    "VenueCode": "BCBP",
    "VenueName": "Bharat Cineplex: Bhopal"
  },
  "BEMR": {
    "AvailableFormats": "2D",
    "City": "Malur",
    "Latitude": "13.0176",
    "Longitude": "77.938",
    "RegionCode": "MLLR",
    "State": "Karnataka",
    "SubRegionCode": "MLLR",
    "VenueAddress": "Harohalli Road, Malur Taluk, Kolar District, Malur, Karnataka 563130, India",
    "VenueCode": "BEMR",
    "VenueName": "Benaka Theatre: Malur"
  },
  "BICJ": {
    "AvailableFormats": "2D",
    "City": "Jaipur",
    "Latitude": "26.965",
    "Longitude": "75.7812",
    "RegionCode": "JAIP",
    "State": "Rajasthan",
    "SubRegionCode": "JAIP",
    "VenueAddress": "B-6, Central Spine Road, Vidyadhar Nagar, Near Delhi Public School, Jaipur, Rajasthan 302039, India",
    "VenueCode": "BICJ",
    "VenueName": "Cinestar Multiplex: Vidhyadhar Nagar"
  },
  "BJNG": {
    "AvailableFormats": "2D",
    "City": "Hyderabad",
    "Latitude": "17.5122",
    "Longitude": "78.4486",
    "RegionCode": "HYD",
    "State": "Telangana",
    "SubRegionCode": "HYD",
    "VenueAddress": "Pipe Line Road, Phase 1, Shapur Nagar, Jeedimetla, Near Ranga Theatre, Hyderabad, Telangana 500055, India",
    "VenueCode": "BJNG",
    "VenueName": "Bhujanga 70MM: Jeedimetla"
  },
  "BLMT": {
    "AvailableFormats": "2D",
    "City": "Pulpally",
    "Latitude": "11.7962",
    "Longitude": "76.1647",
    "RegionCode": "PULP",
    "State": "Kerala",
    "SubRegionCode": "PULP",
    "VenueAddress": "Pulpally Mullenkolly, kerala, Near Town Church (Sacred Heart Church), Pulpally, Kerala 673579, India",
    "VenueCode": "BLMT",
    "VenueName": "Blue Moon Theatre: Pulpally"
  },
  "BNBA": {
    "AvailableFormats": "2D",
    "City": "Dehradun",
    "Latitude": "30.3329",
    "Longitude": "78.054",
    "RegionCode": "DEH",
    "State": "Uttarakhand",
    "SubRegionCode": "DEH",
    "VenueAddress": "1 Old Survey Road, Crossroads Mall, Dehradun, Uttarakhand 248001, India",
    "VenueCode": "BNBA",
    "VenueName": "Movie Lounge: Crossroads Mall, Dehradun"
  },
  "BSCN": {
    "AvailableFormats": "2D",
    "City": "Nabha",
    "Latitude": "30.3918",
    "Longitude": "76.1195",
    "RegionCode": "NABH",
    "State": "Punjab",
    "SubRegionCode": "NABH",
    "VenueAddress": "Gulldi Gate, Nabha, Nabha-Malerkotla Road, Nabha, Punjab 147201, India",
    "VenueCode": "BSCN",
    "VenueName": "Balraj Cinemas: Nabha"
  },
  "BTDA": {
    "AvailableFormats": "2D",
    "City": "Acharapakkam",
    "Latitude": "12.4071",
    "Longitude": "79.8161",
    "RegionCode": "ACHA",
    "State": "Tamil Nadu",
    "SubRegionCode": "ACHA",
    "VenueAddress": "Periyar Nagar, Acharapakam, Near Abhiram Honda Showroom, Acharapakkam, Tamil Nadu 603301, India",
    "VenueCode": "BTDA",
    "VenueName": "Balaji Theatre A/C Dolby 7.1: Acharapakkam"
  },
  "BWCM": {
    "AvailableFormats": "2D",
    "City": "Georai",
    "Latitude": "19.2639",
    "Longitude": "75.7489",
    "RegionCode": "GEOR",
    "State": "Maharashtra",
    "SubRegionCode": "GEOR",
    "VenueAddress": "S No. 59, Shivaji Complex, Georai Main Road, Shastri Chowk Bus Stand Road, Dist-Beed, Georai, Maharashtra 431127, India",
    "VenueCode": "BWCM",
    "VenueName": "Bhagwati Chitra Mandir: Georai"
  },
  "CBMC": {
    "AvailableFormats": "3D|2D",
    "City": "Chennai",
    "Latitude": "12.9496",
    "Longitude": "80.2403",
    "RegionCode": "CHEN",
    "State": "Tamil Nadu",
    "SubRegionCode": "CHEN",
    "VenueAddress": "BSR Mall, Thoraipakkam, Seevaram, Oggiyamduraipakkam, Chennai, Tamil Nadu 600097, India",
    "VenueCode": "CBMC",
    "VenueName": "Cinepolis: BSR Mall, OMR, Thoraipakkam"
  },
  "CCAZ": {
    "AvailableFormats": "",
    "City": "Kakinada",
    "Latitude": "16.9573",
    "Longitude": "82.2365",
    "RegionCode": "KAKI",
    "State": "Andhra Pradesh",
    "SubRegionCode": "KAKI",
    "VenueAddress": "Cinema Hall Road, Surya Rao Peta, Opposite Municipal office, Kakinada, Andhra Pradesh 533001, India",
    "VenueCode": "CCAZ",
    "VenueName": "Chanakya Complex Screen 1: Kakinada"
  },
  "CCJD": {
    "AvailableFormats": "2D",
    "City": "Jind",
    "Latitude": "29.3152",
    "Longitude": "76.3186",
    "RegionCode": "JIND",
    "State": "Haryana",
    "SubRegionCode": "JIND",
    "VenueAddress": "CSR Cinemas, CSR Mall, Near Rani Talab, Jind, Haryana 126110, India",
    "VenueCode": "CCJD",
    "VenueName": "CSR Cinemas: Jind"
  },
  "CCMH": {
    "AvailableFormats": "2D",
    "City": "Bettiah",
    "Latitude": "26.7985",
    "Longitude": "84.5065",
    "RegionCode": "BETA",
    "State": "Bihar",
    "SubRegionCode": "BETA",
    "VenueAddress": "Citi Centre Mall, 4th Floor, Town Hall Road, Meena Bazar, Bettiah, Bihar 845438, India",
    "VenueCode": "CCMH",
    "VenueName": "Mukta A2 Cinemas: Citi Centre, Bettiah"
  },
  "CCPN": {
    "AvailableFormats": "2D",
    "City": "Pathalgaon",
    "Latitude": "22.5576",
    "Longitude": "83.4644",
    "RegionCode": "PAHT",
    "State": "Chhattisgarh",
    "SubRegionCode": "PAHT",
    "VenueAddress": "C2 Cinemas, 3rd Floor HM Tower, Jashpur Road, Pathalgaon, Chhattisgarh 496118, India",
    "VenueCode": "CCPN",
    "VenueName": "C2 Cinema: Pathalgaon"
  },
  "CCVZ": {
    "AvailableFormats": "2D",
    "City": "Naharlagun",
    "Latitude": "27.0996",
    "Longitude": "93.6858",
    "RegionCode": "NAHA",
    "State": "Arunachal Pradesh",
    "SubRegionCode": "NAHA",
    "VenueAddress": "Carnival Chakang Cinemas, Barapani, Naharlagun, Arunachal Pradesh 791110, India",
    "VenueCode": "CCVZ",
    "VenueName": "C3: Naharlagun"
  },
  "CDTK": {
    "AvailableFormats": "2D",
    "City": "Komarapalayam",
    "Latitude": "11.4349",
    "Longitude": "77.6952",
    "RegionCode": "KOMA",
    "State": "Tamil Nadu",
    "SubRegionCode": "KOMA",
    "VenueAddress": "State Highway 39, KON Theatre Road, Komarapalayam, Tamil Nadu 638183, India",
    "VenueCode": "CDTK",
    "VenueName": "CSM DNC Theatres: Komarapalayam"
  },
  "CETA": {
    "AvailableFormats": "2D",
    "City": "Kochi",
    "Latitude": "9.94854",
    "Longitude": "76.3478",
    "RegionCode": "PALY",
    "State": "Kerala",
    "SubRegionCode": "PALY",
    "VenueAddress": "Central Talkies, Near Old Bus Stand, Tripunithura, Kochi, Kerala 682301, India",
    "VenueCode": "CETA",
    "VenueName": "Central Talkies RGB Laser 4K  3D Dolby Atmos"
  },
  "CGGM": {
    "AvailableFormats": "2D",
    "City": "Kozhikode",
    "Latitude": "11.2581",
    "Longitude": "75.7931",
    "RegionCode": "KOZH",
    "State": "Kerala",
    "SubRegionCode": "KOZH",
    "VenueAddress": "97, Mavoor Road, Arayidathupalam, Near Federal Tower, Kozhikode, Kerala 673016, India",
    "VenueCode": "CGGM",
    "VenueName": "Cinepolis: Gokulam Galleria Mall"
  },
  "CHAL": {
    "AvailableFormats": "",
    "City": "Tadepalligudem",
    "Latitude": "16.8128",
    "Longitude": "81.5303",
    "RegionCode": "TANK",
    "State": "Andhra Pradesh",
    "SubRegionCode": "TANK",
    "VenueAddress": "Sheshamahal Road, Karri Satyavathi Nagar, Tadepalligudem, Andhra Pradesh 534101, India",
    "VenueCode": "CHAL",
    "VenueName": "Star Cinemas Chalapathi Theatre: Tadepalligudem"
  },
  "CHTM": {
    "AvailableFormats": "2D",
    "City": "Chhibramau",
    "Latitude": "27.1475",
    "Longitude": "79.5114",
    "RegionCode": "CHHI",
    "State": "Uttar Pradesh",
    "SubRegionCode": "CHHI",
    "VenueAddress": "100 Bed Hospital Road, Kannauj, Behind Janta Cold, Chhibramau, Uttar Pradesh 209721, India",
    "VenueCode": "CHTM",
    "VenueName": "Chhotu Maharaj: Chhibramau, UP"
  },
  "CIMA": {
    "AvailableFormats": "2D",
    "City": "Rohtak",
    "Latitude": "28.8954",
    "Longitude": "76.5825",
    "RegionCode": "ROH",
    "State": "Haryana",
    "SubRegionCode": "ROH",
    "VenueAddress": "City Centre Mall, HUDA Complex, Old Gym Khana Club, Rohtak, Haryana 124001, India",
    "VenueCode": "CIMA",
    "VenueName": "Citi Max Cinemas: Rohtak"
  },
  "CKPP": {
    "AvailableFormats": "",
    "City": "Pune",
    "Latitude": "18.6373",
    "Longitude": "73.847",
    "RegionCode": "PUNE",
    "State": "Maharashtra",
    "SubRegionCode": "PUNE",
    "VenueAddress": "Plot No-87/1/5, Sector-1, 24 Proxima, Lakshmi Road Indrayani Nagar, Pune, Maharashtra 411039, India",
    "VenueCode": "CKPP",
    "VenueName": "Cinemark 24 Proxima: Indryani Nagar, Bhosari-Pune"
  },
  "CLKN": {
    "AvailableFormats": "2D",
    "City": "Gandhinagar",
    "Latitude": "23.1845",
    "Longitude": "72.6303",
    "RegionCode": "GNAGAR",
    "State": "Gujarat",
    "SubRegionCode": "GNAGAR",
    "VenueAddress": "6th Floor, F- Block, Pramukh Anand Mall, Gandhinagar, Gujarat 382421, India",
    "VenueCode": "CLKN",
    "VenueName": "Classic Cinema, Kudasan: Gandhinagar"
  },
  "CMAR": {
    "AvailableFormats": "2D",
    "City": "Vadodara",
    "Latitude": "22.3008",
    "Longitude": "73.169",
    "RegionCode": "VAD",
    "State": "Gujarat",
    "SubRegionCode": "VAD",
    "VenueAddress": "3rd Floor, Galleria Mall, Ajit Nagar Society, Opposite D Mart,Sayajirao Nagar Gruh, Vadodara, Gujarat 390020, India",
    "VenueCode": "CMAR",
    "VenueName": "Cinemarc: Akota, Vadodara"
  },
  "CMKR": {
    "AvailableFormats": "2D",
    "City": "Sikar",
    "Latitude": "27.6219",
    "Longitude": "75.1464",
    "RegionCode": "SIKR",
    "State": "Rajasthan",
    "SubRegionCode": "SIKR",
    "VenueAddress": "04th Floor, Shiv Mandir Cinemall, Fatehpur Road, Sikar, Rajasthan 332001, India",
    "VenueCode": "CMKR",
    "VenueName": "Cine Square Cinemas: Sikar"
  },
  "CMMX": {
    "AvailableFormats": "2D",
    "City": "Lakhimpur Kheri",
    "Latitude": "27.946",
    "Longitude": "80.2186",
    "RegionCode": "LKPK",
    "State": "Uttar Pradesh",
    "SubRegionCode": "LKPK",
    "VenueAddress": "Shiv Sagar Cineplex and Cafe. 2.Gata no.536, Ishlamabad, (Gureaila Chauraha Se Ramlila Maidan Road), Mohammadi, Lakhimpur Kheri, Uttar Pradesh 262804, India",
    "VenueCode": "CMMX",
    "VenueName": "Chhotu Maharaj Cine Cafe: Mohammadi, Kheri"
  },
  "CMVA": {
    "AvailableFormats": "2D|3D",
    "City": "Vadodara",
    "Latitude": "22.2945",
    "Longitude": "73.238",
    "RegionCode": "VAD",
    "State": "Gujarat",
    "SubRegionCode": "VAD",
    "VenueAddress": "2nd Floor, Vrundavan Mall, Vaghodia Dabhoi Ring Road, Near Parivar Char Rasta,Kendranagar, Above Sales India, Sarthi Nagar 2, Vadodara, Gujarat 390019, India",
    "VenueCode": "CMVA",
    "VenueName": "Cinemera Multiplex: Vadodara"
  },
  "CMZX": {
    "AvailableFormats": "2D",
    "City": "Chandausi",
    "Latitude": "28.4381",
    "Longitude": "78.7893",
    "RegionCode": "CHDN",
    "State": "Uttar Pradesh",
    "SubRegionCode": "CHDN",
    "VenueAddress": "Gata No 562, Vill Pathra, Shiv Ji Muchon Wala Temple, Shree Krishna Garden Colony, Sambhal, Chandausi, Uttar Pradesh 244412, India",
    "VenueCode": "CMZX",
    "VenueName": "Chhotu Maharaj Cine Cafe: Chandausi ,UP"
  },
  "CNEV": {
    "AvailableFormats": "",
    "City": "Noida",
    "Latitude": "28.5727",
    "Longitude": "77.3794",
    "RegionCode": "NCR",
    "State": "NCR",
    "SubRegionCode": "NOIDA",
    "VenueAddress": "3rd floor, Spectrum Metro Mall Phase 1, B Block, Sector 75, Noida, Noida, NCR 201301, India",
    "VenueCode": "CNEV",
    "VenueName": "1 Cinemas: Spectrum Metro Mall, Noida"
  },
  "CNPR": {
    "AvailableFormats": "2D",
    "City": "Guntur",
    "Latitude": "16.2916",
    "Longitude": "80.4375",
    "RegionCode": "GUNT",
    "State": "Andhra Pradesh",
    "SubRegionCode": "GUNT",
    "VenueAddress": "Nagarjuna Sagar Road, Srinivasarao Pet, Guntur, Andhra Pradesh 522003, India",
    "VenueCode": "CNPR",
    "VenueName": "Cine Prime: Guntur"
  },
  "CNVS": {
    "AvailableFormats": "2D",
    "City": "Surat",
    "Latitude": "21.1484",
    "Longitude": "72.7747",
    "RegionCode": "SURT",
    "State": "Gujarat",
    "SubRegionCode": "SURT",
    "VenueAddress": "4th Floor, Atlanta Shoppers, Vesu, Near Reliance Market, Surat, Gujarat 395007, India",
    "VenueCode": "CNVS",
    "VenueName": "Cineverse Cinema: Vesu"
  },
  "COOC": {
    "AvailableFormats": "2D|3D",
    "City": "Chandannagar",
    "Latitude": "22.8606",
    "Longitude": "88.3693",
    "RegionCode": "CHDD",
    "State": "West Bengal",
    "SubRegionCode": "CHDD",
    "VenueAddress": "Barabazar, Burabazar Main Road, Chandannagar, West Bengal 712136, India",
    "VenueCode": "COOC",
    "VenueName": "Cinema Hut: Chandannagar"
  },
  "CPCL": {
    "AvailableFormats": "2D|3D",
    "City": "Hyderabad",
    "Latitude": "17.4572",
    "Longitude": "78.5369",
    "RegionCode": "HYD",
    "State": "Telangana",
    "SubRegionCode": "HYD",
    "VenueAddress": "CCPL Mall, Malkajgiri Road, Vimala Devi Nagar Colony, Malkajgiri, Hyderabad, Telangana 500047, India",
    "VenueCode": "CPCL",
    "VenueName": "Cinepolis: CCPL Mall Malkajgiri, Hyderabad"
  },
  "CPHY": {
    "AvailableFormats": "2D",
    "City": "Hyderabad",
    "Latitude": "17.5296",
    "Longitude": "78.4858",
    "RegionCode": "HYD",
    "State": "Telangana",
    "SubRegionCode": "HYD",
    "VenueAddress": "Satyam Enclave, Medchal Road, Kompally, Hyderabad, Telangana 500014, India",
    "VenueCode": "CPHY",
    "VenueName": "Asian Cineplanet Multiplex: Kompally"
  },
  "CPLK": {
    "AvailableFormats": "2D",
    "City": "Hyderabad",
    "Latitude": "17.4251",
    "Longitude": "78.4482",
    "RegionCode": "HYD",
    "State": "Telangana",
    "SubRegionCode": "HYD",
    "VenueAddress": "4th Floor, MPM Timesquare Mall, Nagarjuna Circle, Road No.1 and 3, Banjara Hills, Hyderabad, Telangana 5000345, India",
    "VenueCode": "CPLK",
    "VenueName": "Connplex Cinemas: MPM Mall, Banjara Hills"
  },
  "CPNS": {
    "AvailableFormats": "2D|3D",
    "City": "Delhi",
    "Latitude": "28.6947",
    "Longitude": "77.1542",
    "RegionCode": "NCR",
    "State": "NCR",
    "SubRegionCode": "DELHI",
    "VenueAddress": "NSP Pacific Mall, NSP Metro Station, Pitampura, Delhi, NCR 110034, India",
    "VenueCode": "CPNS",
    "VenueName": "Cinepolis: Pacific NSP2, Delhi"
  },
  "CPSK": {
    "AvailableFormats": "2D",
    "City": "Kochi",
    "Latitude": "9.97799",
    "Longitude": "76.2833",
    "RegionCode": "KOCH",
    "State": "Kerala",
    "SubRegionCode": "KOCH",
    "VenueAddress": "6th Floor, M.G.Rroad, Ernakulam, Near Abad Plaza Hotel, Kochi, Kerala 682035, India",
    "VenueCode": "CPSK",
    "VenueName": "Cinepolis: VIP Centre Square Mall, Kochi"
  },
  "CRCM": {
    "AvailableFormats": "2D",
    "City": "Moga",
    "Latitude": "30.8188",
    "Longitude": "75.2186",
    "RegionCode": "MOGA",
    "State": "Punjab",
    "SubRegionCode": "MOGA",
    "VenueAddress": "Barnala-Amritsar Bypass Road, Bugipura Chowk, Moga, Punjab 142001, India",
    "VenueCode": "CRCM",
    "VenueName": "Cineroyale Cinemas: Chokha Empire, Moga"
  },
  "CSCI": {
    "AvailableFormats": "2D",
    "City": "Indore",
    "Latitude": "22.7229",
    "Longitude": "75.8304",
    "RegionCode": "IND",
    "State": "Madhya Pradesh",
    "SubRegionCode": "IND",
    "VenueAddress": "2nd Floor, Space Tower, Airport Road, Above Croma, Near Surjeet Hyundai Showroom, Indore, Madhya Pradesh 452005, India",
    "VenueCode": "CSCI",
    "VenueName": "Cine Square Cinemas: Airport Road, Indore"
  },
  "CSQS": {
    "AvailableFormats": "2D|3D",
    "City": "Shirpur",
    "Latitude": "21.3451",
    "Longitude": "74.8847",
    "RegionCode": "SRUR",
    "State": "Maharashtra",
    "SubRegionCode": "SRUR",
    "VenueAddress": "2nd Floor, City Pride Mall, District Dhule, Near Recreation Garden and Next to Saheeba Hotel Mandal, Shirpur, Maharashtra 425405, India",
    "VenueCode": "CSQS",
    "VenueName": "Cine Square Cinemas: Shirpur"
  },
  "CSTP": {
    "AvailableFormats": "2D",
    "City": "Patna",
    "Latitude": "25.6051",
    "Longitude": "85.0788",
    "RegionCode": "PATN",
    "State": "Bihar",
    "SubRegionCode": "PATN",
    "VenueAddress": "3rd Floor, Braj Saroj Complex, Raja Bazar, Khajpura, Opposite Over Bridge Pillar No.29, Patna, Bihar 800014, India",
    "VenueCode": "CSTP",
    "VenueName": "Connplex Cinemas: Raja Bazar, Patna"
  },
  "CTMJ": {
    "AvailableFormats": "2D|3D",
    "City": "Chandigarh",
    "Latitude": "30.7429",
    "Longitude": "76.7851",
    "RegionCode": "CHD",
    "State": "Punjab",
    "SubRegionCode": "CHD",
    "VenueAddress": "Plot No 32, TDI Mall, Sector 17 A, Chandigarh, Punjab 160017, India",
    "VenueCode": "CTMJ",
    "VenueName": "Cinepolis: Jagat Mall, Chandigarh"
  },
  "CTRD": {
    "AvailableFormats": "2D",
    "City": "Pune",
    "Latitude": "18.5165",
    "Longitude": "73.8423",
    "RegionCode": "PUNE",
    "State": "Maharashtra",
    "SubRegionCode": "PUNE",
    "VenueAddress": "2nd Floor, R Deccan Mall, Jangli Maharaj Road, Opp Deccan Bus Stand, Pune, Maharashtra 411004, India",
    "VenueCode": "CTRD",
    "VenueName": "City Pride: R Deccan"
  },
  "CVCT": {
    "AvailableFormats": "2D",
    "City": "Trichy",
    "Latitude": "10.8088",
    "Longitude": "78.6955",
    "RegionCode": "TRIC",
    "State": "Tamil Nadu",
    "SubRegionCode": "TRIC",
    "VenueAddress": "Heber Road, Palakarai, Trichy, Near Corporation Park, Trichy, Tamil Nadu 620001, India",
    "VenueCode": "CVCT",
    "VenueName": "Cauvery Cinemas 4K RGB LASER: Trichy"
  },
  "CWSC": {
    "AvailableFormats": "2D",
    "City": "Kanker",
    "Latitude": "20.2632",
    "Longitude": "81.5017",
    "RegionCode": "KANK",
    "State": "Chhattisgarh",
    "SubRegionCode": "KANK",
    "VenueAddress": "3rd Floor, City Center Kanker, Near New Bus Stand, Kanker, Chhattisgarh 494334, India",
    "VenueCode": "CWSC",
    "VenueName": "Cineworld City Center: Kanker"
  },
  "CXTE": {
    "AvailableFormats": "2D",
    "City": "Umerkote",
    "Latitude": "19.6555",
    "Longitude": "82.2213",
    "RegionCode": "UMEK",
    "State": "Odisha",
    "SubRegionCode": "UMEK",
    "VenueAddress": "JK Plaza, Infront of Reliance Trends, Dongriguda Road, Shanti Nagar, Umerkote, Odisha 764073, India",
    "VenueCode": "CXTE",
    "VenueName": "Connplex Cinemas: Umerkote"
  },
  "DBSC": {
    "AvailableFormats": "2D",
    "City": "Kanpur",
    "Latitude": "26.4526",
    "Longitude": "80.3501",
    "RegionCode": "KANP",
    "State": "Uttar Pradesh",
    "SubRegionCode": "KANP",
    "VenueAddress": "Delite Cinema, 562, Jaipuria Road, 1 No. Station, Rail Bazar, Mirpur Cantonment, Mirpur, Kanpur, Uttar Pradesh 208004, India",
    "VenueCode": "DBSC",
    "VenueName": "Delite Big Screen Cinema: Kanpur"
  },
  "DCGO": {
    "AvailableFormats": "2D",
    "City": "Guruvayur",
    "Latitude": "10.5918",
    "Longitude": "76.0405",
    "RegionCode": "GUVY",
    "State": "Kerala",
    "SubRegionCode": "GUVY",
    "VenueAddress": "Opposite Temple Police Station, South Nada, Guruvayur, Kerala 680101, India",
    "VenueCode": "DCGO",
    "VenueName": "Devaky Cinemas 2K 3D Dolby Atmos: Guruvayoor"
  },
  "DCRP": {
    "AvailableFormats": "2D",
    "City": "Ramanathapuram",
    "Latitude": "9.36634",
    "Longitude": "78.8362",
    "RegionCode": "RAPU",
    "State": "Tamil Nadu",
    "SubRegionCode": "RAPU",
    "VenueAddress": "41, East Coast Road, Chalai Bazar, Ramanathapuram, Near om sakthi temple, Ramanathapuram, Tamil Nadu 623504, India",
    "VenueCode": "DCRP",
    "VenueName": "D Cinema A/C Sony 4K 3D: Ramanathapuram"
  },
  "DDXB": {
    "AvailableFormats": "2D|3D",
    "City": "Bhopal",
    "Latitude": "23.1876",
    "Longitude": "77.4174",
    "RegionCode": "BHOP",
    "State": "Madhya Pradesh",
    "SubRegionCode": "BHOP",
    "VenueAddress": "Kolar Road, Mandakini Colony, Near Vishal Maega Mart, Bhopal, Madhya Pradesh 462042, India",
    "VenueCode": "DDXB",
    "VenueName": "DDX Cinema Kolar: Bhopal"
  },
  "DGCA": {
    "AvailableFormats": "2D",
    "City": "Rangia",
    "Latitude": "26.4422",
    "Longitude": "91.6094",
    "RegionCode": "RAAA",
    "State": "Assam",
    "SubRegionCode": "RAAA",
    "VenueAddress": "Ward No. 2, Station Road, Kamrup, Rangia, Assam 781365, India",
    "VenueCode": "DGCA",
    "VenueName": "Delight Gold Cinema Hall: Rangia"
  },
  "DKTI": {
    "AvailableFormats": "2D",
    "City": "Bengaluru",
    "Latitude": "12.7978",
    "Longitude": "77.3838",
    "RegionCode": "BANG",
    "State": "Karnataka",
    "SubRegionCode": "BANG",
    "VenueAddress": "Nelligudda Tank Road, Next to Karnataka Bank, Behind Bidadi Bus Stand, Ramanagar District, Bengaluru, Karnataka 562109, India",
    "VenueCode": "DKTI",
    "VenueName": "Deepak Talkies: Bidadi"
  },
  "DMHA": {
    "AvailableFormats": "2D",
    "City": "Kalyani",
    "Latitude": "22.9673",
    "Longitude": "88.539",
    "RegionCode": "KALY",
    "State": "West Bengal",
    "SubRegionCode": "KALY",
    "VenueAddress": "2nd, Ward No 6 Balindi, Kalyani Road, Haringhata, Nadia, Kalyani, West Bengal 741246, India",
    "VenueCode": "DMHA",
    "VenueName": "Dolphin Multiplex: Haringhata (Dolby 7.1)"
  },
  "DNRP": {
    "AvailableFormats": "2D",
    "City": "Pathanamthitta",
    "Latitude": "9.26514",
    "Longitude": "76.7891",
    "RegionCode": "PTNM",
    "State": "Kerala",
    "SubRegionCode": "PTNM",
    "VenueAddress": "NH 183A Valanchuzhy, Pathanamthitta - Kadammanitta Road, Near Aananda Bavan Vegetarian Restaurant, Pathanamthitta, Kerala 689645, India",
    "VenueCode": "DNRP",
    "VenueName": "Dhanya Remya: Pathanamthitta"
  },
  "DSCZ": {
    "AvailableFormats": "2D",
    "City": "Nabarangpur",
    "Latitude": "19.2204",
    "Longitude": "82.5404",
    "RegionCode": "NAGU",
    "State": "Odisha",
    "SubRegionCode": "NAGU",
    "VenueAddress": "Plot No. 1910, Katha No.122, Ichabatiguda, Nabarangpur, Odisha 764059, India",
    "VenueCode": "DSCZ",
    "VenueName": "DS3 Cinemas: Nabarangpur"
  },
  "DTVP": {
    "AvailableFormats": "2D",
    "City": "Vijayapura",
    "Latitude": "16.8269",
    "Longitude": "75.7164",
    "RegionCode": "VJPR",
    "State": "Karnataka",
    "SubRegionCode": "VJPR",
    "VenueAddress": "Tippu Sultan Circle, D.C Office Road, Near KSRTC Bus Stand, Vijayapura, Karnataka 586101, India",
    "VenueCode": "DTVP",
    "VenueName": "Dreamland A/C Dolby Theatre: Vijayapura (Bijapur)"
  },
  "DVPM": {
    "AvailableFormats": "2D",
    "City": "Pandharpur",
    "Latitude": "17.6802",
    "Longitude": "75.3231",
    "RegionCode": "PNDH",
    "State": "Maharashtra",
    "SubRegionCode": "PNDH",
    "VenueAddress": "Pune - Pandharpur Road, Market Yard, Gokul Nagar, Isbavi, Near New S.T. Stand, Pandharpur, Maharashtra 413304, India",
    "VenueCode": "DVPM",
    "VenueName": "DVP Square: Pandharpur"
  },
  "ECGN": {
    "AvailableFormats": "2D",
    "City": "Gondia",
    "Latitude": "21.4655",
    "Longitude": "80.1894",
    "RegionCode": "AMGN",
    "State": "Maharashtra",
    "SubRegionCode": "AMGN",
    "VenueAddress": "2nd Floor, Platinum Plaza, Ward No 9, Lohiya Ward, Pal Chowk, Rail Toly, Bhandarkar Road, Near State Bank of India, Gondia, Maharashtra 441614, India",
    "VenueCode": "ECGN",
    "VenueName": "EOS Cinemas: Gondia"
  },
  "EGCA": {
    "AvailableFormats": "2D",
    "City": "Alappuzha",
    "Latitude": "9.70779",
    "Longitude": "76.3178",
    "RegionCode": "CRTL",
    "State": "Kerala",
    "SubRegionCode": "CRTL",
    "VenueAddress": "Kalavamcodam, Cherthala, Kerala, Near Kulakkattu Temple, Alappuzha, Kerala 688524, India",
    "VenueCode": "EGCA",
    "VenueName": "EVM GRAND RGB Laser 4K 3D DOLBY: Cherthala"
  },
  "EOCS": {
    "AvailableFormats": "2D",
    "City": "Sundargarh",
    "Latitude": "22.1043",
    "Longitude": "84.0378",
    "RegionCode": "SUND",
    "State": "Odisha",
    "SubRegionCode": "SUND",
    "VenueAddress": "Sankara City, Mission Road, Sankara Road, Sundargarh, Odisha 770001, India",
    "VenueCode": "EOCS",
    "VenueName": "EOS Cinema: Sundargarh"
  },
  "ESOS": {
    "AvailableFormats": "2D|3D",
    "City": "Solapur",
    "Latitude": "17.6766",
    "Longitude": "75.8985",
    "RegionCode": "SOLA",
    "State": "Maharashtra",
    "SubRegionCode": "SOLA",
    "VenueAddress": "11/A, NH13, Old Police Line, Murarji Peth, Solapur, Maharashtra 413001, India",
    "VenueCode": "ESOS",
    "VenueName": "E-SQUARE Oasis (A.C): Solapur"
  },
  "EVMC": {
    "AvailableFormats": "2D",
    "City": "Muvattupuzha",
    "Latitude": "9.97985",
    "Longitude": "76.5837",
    "RegionCode": "MUVA",
    "State": "Kerala",
    "SubRegionCode": "MUVA",
    "VenueAddress": "SH8, Kizhakkekara, Muvattupuzha, Near Nirmala Shopping Centre, Muvattupuzha, Kerala 686661, India",
    "VenueCode": "EVMC",
    "VenueName": "EVM Latha 4k 3D RGB Pure laser 7.1: Muvattupuzha"
  },
  "FCDH": {
    "AvailableFormats": "2D|3D",
    "City": "Dhanbad(Jharkhand)",
    "Latitude": "23.8206",
    "Longitude": "86.4703",
    "RegionCode": "DHAN",
    "State": "Jharkhand",
    "SubRegionCode": "DHAN",
    "VenueAddress": "Ozone Galleria Mall, Saraidhela, Kolakusma, Above Big Bazaar, Dhanbad(Jharkhand), Jharkhand 828127, India",
    "VenueCode": "FCDH",
    "VenueName": "INOX Cinemas: Dhanbad"
  },
  "FMCB": {
    "AvailableFormats": "2D|3D",
    "City": "Bhagalpur",
    "Latitude": "25.2632",
    "Longitude": "87.0324",
    "RegionCode": "BHAG",
    "State": "Bihar",
    "SubRegionCode": "BHAG",
    "VenueAddress": "Near DAV School, Large Industrial Area, Barari, Bhagalpur, Bihar 812003, India",
    "VenueCode": "FMCB",
    "VenueName": "FM Cineplex: Bhagalpur"
  },
  "FMMA": {
    "AvailableFormats": "2D|MX4D|IMAX 2D|3D",
    "City": "Mumbai",
    "Latitude": "19.1725",
    "Longitude": "72.8355",
    "RegionCode": "MUMBAI",
    "State": "Maharashtra",
    "SubRegionCode": "MWEST",
    "VenueAddress": "Inorbit Mall, Goregaon Malad Link Road, Near Shoppers Stop, Malad West, Mumbai, Maharashtra 400064, India",
    "VenueCode": "FMMA",
    "VenueName": "INOX: Megaplex, Inorbit Mall, Malad"
  },
  "FNBP": {
    "AvailableFormats": "3D|2D",
    "City": "Bhopal",
    "Latitude": "23.2329",
    "Longitude": "77.4298",
    "RegionCode": "BHOP",
    "State": "Madhya Pradesh",
    "SubRegionCode": "BHOP",
    "VenueAddress": "Arera Hills, DB City Mall, Maharana Pratap Nagar, Bhopal, Madhya Pradesh 462011, India",
    "VenueCode": "FNBP",
    "VenueName": "Cinepolis: DB Mall, Bhopal"
  },
  "FNLK": {
    "AvailableFormats": "2D|3D",
    "City": "Lucknow",
    "Latitude": "26.8582",
    "Longitude": "80.9762",
    "RegionCode": "LUCK",
    "State": "Uttar Pradesh",
    "SubRegionCode": "LUCK",
    "VenueAddress": "Near Eldeco Greens, Nehru Enclave, Gomti Nagar, Opposite Lohia Park, Lucknow, Uttar Pradesh 226010, India",
    "VenueCode": "FNLK",
    "VenueName": "Fun Cinemas: Fun Republic Mall, Lucknow"
  },
  "FRGS": {
    "AvailableFormats": "2D|3D",
    "City": "Thanjavur",
    "Latitude": "10.7857",
    "Longitude": "79.1392",
    "RegionCode": "TANJ",
    "State": "Tamil Nadu",
    "SubRegionCode": "TANJ",
    "VenueAddress": "78/3, Abraham Pandither Road, Next to P.K Hospital, Thanjavur, Tamil Nadu 613001, India",
    "VenueCode": "FRGS",
    "VenueName": "Frame Cinemas RGB Laser Atmos: Thanjavur"
  },
  "FUCG": {
    "AvailableFormats": "2D",
    "City": "Guwahati",
    "Latitude": "26.167",
    "Longitude": "91.7669",
    "RegionCode": "GUW",
    "State": "Assam",
    "SubRegionCode": "GUW",
    "VenueAddress": "5th Floor, Hub Mall, Bhangaghar, G. S. Road, Guwahati, Assam 781005, India",
    "VenueCode": "FUCG",
    "VenueName": "Galleria Cinema: HUB Mall, Guwahati"
  },
  "GAHC": {
    "AvailableFormats": "2D",
    "City": "Chennai",
    "Latitude": "13.2499",
    "Longitude": "80.1568",
    "RegionCode": "CHEN",
    "State": "Tamil Nadu",
    "SubRegionCode": "CHEN",
    "VenueAddress": "Sholavaram, Karanodai, Chennai, Tamil Nadu 600067, India",
    "VenueCode": "GAHC",
    "VenueName": "Gopalakrishna A/C 2K DOLBY 7.1-Karanodai(Redhills)"
  },
  "GAUT": {
    "AvailableFormats": "2D",
    "City": "Berhampur",
    "Latitude": "19.3128",
    "Longitude": "84.7861",
    "RegionCode": "BERP",
    "State": "Odisha",
    "SubRegionCode": "BERP",
    "VenueAddress": "Gandhi Nagar, Near Hanuman Temple, Berhampur, Odisha 760001, India",
    "VenueCode": "GAUT",
    "VenueName": "Gautam Cinema A/C Dolby Digital 2K: Berhampur"
  },
  "GCCH": {
    "AvailableFormats": "2D",
    "City": "Raigarh",
    "Latitude": "21.8949",
    "Longitude": "83.3958",
    "RegionCode": "RAIG",
    "State": "Chhattisgarh",
    "SubRegionCode": "RAIG",
    "VenueAddress": "Grand Mall, 4th Floor, Gouri Shankar Mandir Chowk, Raigarh, Chhattisgarh 496001, India",
    "VenueCode": "GCCH",
    "VenueName": "Grand Cinemas: Raigarh"
  },
  "GCGP": {
    "AvailableFormats": "2D|3D",
    "City": "Silchar",
    "Latitude": "24.8229",
    "Longitude": "92.8001",
    "RegionCode": "SIL",
    "State": "Assam",
    "SubRegionCode": "SIL",
    "VenueAddress": "Gold Digital Cinema, Goldighi Municipal Mall, Nazirpatty, Silchar, Assam 788001, India",
    "VenueCode": "GCGP",
    "VenueName": "Gold Cinema: Goldighi Municipal Mall, Silchar"
  },
  "GCMI": {
    "AvailableFormats": "2D",
    "City": "Mangaldoi",
    "Latitude": "26.4506",
    "Longitude": "92.0291",
    "RegionCode": "MANG",
    "State": "Assam",
    "SubRegionCode": "MANG",
    "VenueAddress": "Mangaldai Bhutiachang Road, No.1 Bezpara, Opposite Maa Bhandar, Mangaldoi, Assam 784125, India",
    "VenueCode": "GCMI",
    "VenueName": "Gold Cinema: Mangaldoi"
  },
  "GCSE": {
    "AvailableFormats": "2D",
    "City": "Hooghly",
    "Latitude": "22.7538",
    "Longitude": "88.3401",
    "RegionCode": "CHDD",
    "State": "West Bengal",
    "SubRegionCode": "CHDD",
    "VenueAddress": "180 N.S. Avenue, 3rd Floor Manasi Bazar, Near Bawarchi Biryani, Hooghly, West Bengal 712201, India",
    "VenueCode": "GCSE",
    "VenueName": "Goodwin Cineplex: Serampore"
  },
  "GDAW": {
    "AvailableFormats": "2D",
    "City": "Alwar",
    "Latitude": "27.5806",
    "Longitude": "76.6156",
    "RegionCode": "ALWR",
    "State": "Rajasthan",
    "SubRegionCode": "ALWR",
    "VenueAddress": "Near, Jail Circle, Cross Point Mall, Alwar, Rajasthan 301001, India",
    "VenueCode": "GDAW",
    "VenueName": "Gold Cinema: Alwar Crosspoint Mall"
  },
  "GDDR": {
    "AvailableFormats": "2D",
    "City": "Dausa",
    "Latitude": "26.9013",
    "Longitude": "76.34",
    "RegionCode": "DAUS",
    "State": "Rajasthan",
    "SubRegionCode": "DAUS",
    "VenueAddress": "Sunshine Complex, 1st Tower, Agra - Jaipur Road, Opposite P.G. College, Near Pinky Hotel, Dausa, Rajasthan 303303, India",
    "VenueCode": "GDDR",
    "VenueName": "Gold Cinema: Dausa"
  },
  "GEKR": {
    "AvailableFormats": "2D",
    "City": "Tumakuru (Tumkur)",
    "Latitude": "13.3375",
    "Longitude": "77.1039",
    "RegionCode": "TUMK",
    "State": "Karnataka",
    "SubRegionCode": "TUMK",
    "VenueAddress": "B.H. Road, CSI Layout, Near Shiva Agencies, Tumakuru (Tumkur), Karnataka 572101, India",
    "VenueCode": "GEKR",
    "VenueName": "Gayatri Theater 2K Digital A/C Dolby: Tumakuru"
  },
  "GGGZ": {
    "AvailableFormats": "2D",
    "City": "Jalore",
    "Latitude": "25.339",
    "Longitude": "72.6284",
    "RegionCode": "LALO",
    "State": "Rajasthan",
    "SubRegionCode": "LALO",
    "VenueAddress": "RSS Entertainments, Graveet Tower, Bhinmal by Pass Road, Jalore, Rajasthan 343001, India",
    "VenueCode": "GGGZ",
    "VenueName": "Glitz Cinemas: Jalore"
  },
  "GKDN": {
    "AvailableFormats": "2D",
    "City": "Kondamallepally",
    "Latitude": "16.7125",
    "Longitude": "78.9814",
    "RegionCode": "NALK",
    "State": "Telangana",
    "SubRegionCode": "NALK",
    "VenueAddress": "3rd Floor, Vishnu Shopping Mall, MLG Road, Near AMC, Kondamallepally, Telangana 508243, India",
    "VenueCode": "GKDN",
    "VenueName": "GK Cineplex Dolby Atmos: Kondamallepally"
  },
  "GMDH": {
    "AvailableFormats": "2D",
    "City": "Dharmapuri",
    "Latitude": "12.1229",
    "Longitude": "78.1593",
    "RegionCode": "DMPI",
    "State": "Tamil Nadu",
    "SubRegionCode": "DMPI",
    "VenueAddress": "Dharmapuri-Harur Road, Indhira Nagar, Dharmapuri, Tamil Nadu 636701, India",
    "VenueCode": "GMDH",
    "VenueName": "GM Theatre: Dharmapuri"
  },
  "GOST": {
    "AvailableFormats": "2D",
    "City": "Varadaiahpalem",
    "Latitude": "13.6011",
    "Longitude": "79.9331",
    "RegionCode": "VARA",
    "State": "Andhra Pradesh",
    "SubRegionCode": "VARA",
    "VenueAddress": "Tranku Road, Near APSRTC Bus Stand, Varadaiahpalem, Andhra Pradesh 517541, India",
    "VenueCode": "GOST",
    "VenueName": "Sri Gowrisankar Cinema`s A/C 4K Dolby 7.1 Surround"
  },
  "GPRH": {
    "AvailableFormats": "2D|3D",
    "City": "Hyderabad",
    "Latitude": "17.4993",
    "Longitude": "78.3907",
    "RegionCode": "HYD",
    "State": "Telangana",
    "SubRegionCode": "HYD",
    "VenueAddress": "Nizampet X Roads, Kukatpally, Hyderabad, Telangana 500072, India",
    "VenueCode": "GPRH",
    "VenueName": "GPR Multiplex: Nizampet, Hyderabad"
  },
  "GSEE": {
    "AvailableFormats": "",
    "City": "Baikunthpur",
    "Latitude": "23.2686",
    "Longitude": "82.5548",
    "RegionCode": "BKTH",
    "State": "Chhattisgarh",
    "SubRegionCode": "BKTH",
    "VenueAddress": "Mission School Road, Harratola, Near Hotel Shree Ganga, Baikunthpur, Chhattisgarh 497335, India",
    "VenueCode": "GSEE",
    "VenueName": "Ganga Shree Cineplex: Baikunthpur"
  },
  "GTDN": {
    "AvailableFormats": "2D",
    "City": "Davanagere",
    "Latitude": "14.4664",
    "Longitude": "75.9254",
    "RegionCode": "DAVA",
    "State": "Karnataka",
    "SubRegionCode": "DAVA",
    "VenueAddress": "KB Extension, Near Lingeshwara Temple, Davanagere, Karnataka 577001, India",
    "VenueCode": "GTDN",
    "VenueName": "Geetanjali Theatre: Davangere"
  },
  "GTTT": {
    "AvailableFormats": "2D",
    "City": "Ooty",
    "Latitude": "11.406",
    "Longitude": "76.701",
    "RegionCode": "OOTY",
    "State": "Tamil Nadu",
    "SubRegionCode": "OOTY",
    "VenueAddress": "Ganapathy Theatre Road, Upper Bazar, Ooty, Tamil Nadu 643001, India",
    "VenueCode": "GTTT",
    "VenueName": "Ganapathy Theatre: Ooty"
  },
  "GXYN": {
    "AvailableFormats": "2D",
    "City": "Nawapara",
    "Latitude": "20.9732",
    "Longitude": "81.8549",
    "RegionCode": "NAWA",
    "State": "Chhattisgarh",
    "SubRegionCode": "NAWA",
    "VenueAddress": "Nawapara Nagar, Abhanpur-Rajim Road, Near HP Petrol Pump, Nawapara, Chhattisgarh 493881, India",
    "VenueCode": "GXYN",
    "VenueName": "Galaxy Cinema: Nawapara"
  },
  "HCAD": {
    "AvailableFormats": "2D",
    "City": "Vadodara",
    "Latitude": "22.2669",
    "Longitude": "73.2225",
    "RegionCode": "VAD",
    "State": "Gujarat",
    "SubRegionCode": "VAD",
    "VenueAddress": "4th Floor, Siddharth Magnum Plus, Tarsali Danteshwar Ring Road, Beside Bansal Mall, Tarsali, Vadodara, Gujarat 390009, India",
    "VenueCode": "HCAD",
    "VenueName": "Havelock Cineflix: Tarsali, Vadodara"
  },
  "HHCG": {
    "AvailableFormats": "2D",
    "City": "Guntur",
    "Latitude": "16.3097",
    "Longitude": "80.4342",
    "RegionCode": "GUNT",
    "State": "Andhra Pradesh",
    "SubRegionCode": "GUNT",
    "VenueAddress": "Opp LVR Club, Road Lakshmipuram, Koritepadu Road, Guntur, Andhra Pradesh 522007, India",
    "VenueCode": "HHCG",
    "VenueName": "Harihar Cinemas: Guntur"
  },
  "HRSR": {
    "AvailableFormats": "",
    "City": "Chennai",
    "Latitude": "13.1216",
    "Longitude": "80.0703",
    "RegionCode": "CHEN",
    "State": "Tamil Nadu",
    "SubRegionCode": "CHEN",
    "VenueAddress": "Chennai - Thiruttani, Renigunta Highway, Chennai, Tamil Nadu 600072, India",
    "VenueCode": "HRSR",
    "VenueName": "Sri Hari Theatre Dolby Atmos: Pattabiram"
  },
  "IBYG": {
    "AvailableFormats": "2D",
    "City": "Gurugram (Gurgaon)",
    "Latitude": "28.4038",
    "Longitude": "76.948",
    "RegionCode": "NCR",
    "State": "NCR",
    "SubRegionCode": "GURG",
    "VenueAddress": "2nd Floor, IRIS Broadway, Sector 85, Gurugram (Gurgaon), NCR 122004, India",
    "VenueCode": "IBYG",
    "VenueName": "INOX: IRIS Broadway Gurugram"
  },
  "IFRM": {
    "AvailableFormats": "2D|3D",
    "City": "Kolkata",
    "Latitude": "22.6242",
    "Longitude": "88.3537",
    "RegionCode": "KOLK",
    "State": "West Bengal",
    "SubRegionCode": "KOLK",
    "VenueAddress": "212, Girish Ghosh Road, Belur, Howrah, Kolkata, West Bengal 711202, India",
    "VenueCode": "IFRM",
    "VenueName": "INOX: Forum Rangoli Mall, Belur"
  },
  "IMCH": {
    "AvailableFormats": "2D",
    "City": "Namchi",
    "Latitude": "27.164",
    "Longitude": "88.3619",
    "RegionCode": "NAMI",
    "State": "Sikkim",
    "SubRegionCode": "NAMI",
    "VenueAddress": "NMC Museum Building, Singithang, Shaheed Sanjog Chettri Marg, Namchi, Sikkim 737126, India",
    "VenueCode": "IMCH",
    "VenueName": "Imperial Talkies: Namchi"
  },
  "IMSH": {
    "AvailableFormats": "3D|2D",
    "City": "Shajapur",
    "Latitude": "23.4188",
    "Longitude": "76.2637",
    "RegionCode": "SJUR",
    "State": "Madhya Pradesh",
    "SubRegionCode": "SJUR",
    "VenueAddress": "1st floor, Seva Shree Mall, Dupada Road, Near Vyas Hospital, Shajapur, Madhya Pradesh 465001, India",
    "VenueCode": "IMSH",
    "VenueName": "Imusica Cinema: Shajapur"
  },
  "INBC": {
    "AvailableFormats": "2D",
    "City": "Bengaluru",
    "Latitude": "12.9166",
    "Longitude": "77.5923",
    "RegionCode": "HOKT",
    "State": "Karnataka",
    "SubRegionCode": "HOKT",
    "VenueAddress": "5th Floor Central, 45th Cross, J P Nagar 2nd Phase, Marenhalli Road, Bengaluru, Karnataka 560069, India",
    "VenueCode": "INBC",
    "VenueName": "INOX: Central, JP Nagar, Mantri Junction"
  },
  "INCH": {
    "AvailableFormats": "2D",
    "City": "Chennai",
    "Latitude": "13.0432",
    "Longitude": "80.2738",
    "RegionCode": "CHEN",
    "State": "Tamil Nadu",
    "SubRegionCode": "CHEN",
    "VenueAddress": "3rd Floor, Chennai Citi Center, Doctor Radha Krishnan Salai, Chennai, Tamil Nadu 600004, India",
    "VenueCode": "INCH",
    "VenueName": "INOX: Chennai Citi Centre, Dr. RK Salai"
  },
  "INGA": {
    "AvailableFormats": "2D",
    "City": "Gandhinagar",
    "Latitude": "23.1803",
    "Longitude": "72.5653",
    "RegionCode": "GNAGAR",
    "State": "Gujarat",
    "SubRegionCode": "GNAGAR",
    "VenueAddress": "Near Adalaj, Gandhinagar Sarkhej Highway, Near Tri Mandir, Gandhinagar, Gujarat 380055, India",
    "VenueCode": "INGA",
    "VenueName": "INOX: Gandhinagar, Adalaj"
  },
  "INKM": {
    "AvailableFormats": "2D",
    "City": "Hyderabad",
    "Latitude": "17.3453",
    "Longitude": "78.5316",
    "RegionCode": "HYD",
    "State": "Telangana",
    "SubRegionCode": "HYD",
    "VenueAddress": "10-1-99/7A, Karmanghat Road, Thapovan Colony, Lingojiguda, Saroor Nagar East, Hyderabad, Telangana 500035, India",
    "VenueCode": "INKM",
    "VenueName": "Cine Town Indra Nagendra: Karmanghat"
  },
  "INNP": {
    "AvailableFormats": "3D|2D",
    "City": "Mumbai",
    "Latitude": "18.9266",
    "Longitude": "72.8229",
    "RegionCode": "MUMBAI",
    "State": "Maharashtra",
    "SubRegionCode": "MCENT",
    "VenueAddress": "CR 2 Mall, 2nd Floor, Barrister Rajni Patel Marg, Nariman Point, Opposite Bajaj Bhavan, Mumbai, Maharashtra 400021, India",
    "VenueCode": "INNP",
    "VenueName": "INOX Laserplex: CR2, Nariman Point"
  },
  "INPO": {
    "AvailableFormats": "2D|3D",
    "City": "Goa",
    "Latitude": "15.5259",
    "Longitude": "73.8269",
    "RegionCode": "GOA",
    "State": "Goa",
    "SubRegionCode": "GOA",
    "VenueAddress": "Mall De Goa,Edapally, Nova Cidade Commercial Complex, Alto Porvorim, Bardez, Goa, Goa 403521, India",
    "VenueCode": "INPO",
    "VenueName": "INOX: Porvorim, Goa"
  },
  "INRK": {
    "AvailableFormats": "2D|3D",
    "City": "Kolkata",
    "Latitude": "22.623",
    "Longitude": "88.4505",
    "RegionCode": "KOLK",
    "State": "West Bengal",
    "SubRegionCode": "KOLK",
    "VenueAddress": "3rd Floor,City Center 2 Mall, New Town, Rajarhat, Hatiara, Near Chinar Park, Kolkata, West Bengal 700157, India",
    "VenueCode": "INRK",
    "VenueName": "INOX: City Centre II, Rajarhat"
  },
  "INSO": {
    "AvailableFormats": "2D|3D",
    "City": "Siliguri",
    "Latitude": "26.7523",
    "Longitude": "88.4388",
    "RegionCode": "SILI",
    "State": "West Bengal",
    "SubRegionCode": "SILI",
    "VenueAddress": "Near Jai Service Petrol Pump, Near Bhakti Nagar Thana, Salugara, Sevoke Road, Orbit Mall, Siliguri, West Bengal 734001, India",
    "VenueCode": "INSO",
    "VenueName": "INOX: Vega Circle Mall, Siliguri"
  },
  "INVC": {
    "AvailableFormats": "2D",
    "City": "Vizag (Visakhapatnam)",
    "Latitude": "17.7125",
    "Longitude": "83.3013",
    "RegionCode": "VIZA",
    "State": "Andhra Pradesh",
    "SubRegionCode": "VIZA",
    "VenueAddress": "4th Floor, Chitralayaa, Suryabagh, Chitralaya Road, Vizag, Andhra Pradesh 530020, India",
    "VenueCode": "INVC",
    "VenueName": "INOX: Vizag Chitralaya Mall"
  },
  "INXR": {
    "AvailableFormats": "2D",
    "City": "Surat",
    "Latitude": "21.2293",
    "Longitude": "72.8967",
    "RegionCode": "SURT",
    "State": "Gujarat",
    "SubRegionCode": "SURT",
    "VenueAddress": "RAJ Imperial, 3rd Floor, Deepkamal Mall And Multiplex, Varachha Road, Sarthana Jakat Naka, Near Sarthana Zoo, Surat, Gujarat 395006, India",
    "VenueCode": "INXR",
    "VenueName": "Raj Imperial, INOX: Varachha Road, Surat"
  },
  "IOTG": {
    "AvailableFormats": "3D|2D",
    "City": "Ghaziabad",
    "Latitude": "28.6539",
    "Longitude": "77.4373",
    "RegionCode": "MRDG",
    "State": "NCR",
    "SubRegionCode": "MRDG",
    "VenueAddress": "The Opulent Mall, Grand Trunk Road, New Gandhi Nagar, Nehru Nagar III, Ghaziabad, NCR 201001, India",
    "VenueCode": "IOTG",
    "VenueName": "PVR: Opulent, Ghaziabad"
  },
  "IPSG": {
    "AvailableFormats": "2D",
    "City": "Varanasi",
    "Latitude": "25.3167",
    "Longitude": "82.9901",
    "RegionCode": "VAR",
    "State": "Uttar Pradesh",
    "SubRegionCode": "VAR",
    "VenueAddress": "IP SIGRA Shopping Mall, Vidyapeeth Road, Sigra, Shastri Nagar, Guru Nanak Nagar Colony, IP Mall, Varanasi, Uttar Pradesh 221002, India",
    "VenueCode": "IPSG",
    "VenueName": "IP Cinemas: IP Sigra Mall, Varanasi"
  },
  "ISRM": {
    "AvailableFormats": "2D",
    "City": "Surat",
    "Latitude": "21.1817",
    "Longitude": "72.8313",
    "RegionCode": "SURT",
    "State": "Gujarat",
    "SubRegionCode": "SURT",
    "VenueAddress": "4th Floor, Reliance Mega Mall, Udhna, Nearby Reliance Smart, Surat, Gujarat 395002, India",
    "VenueCode": "ISRM",
    "VenueName": "INOX: Reliance Mall, Surat"
  },
  "JACP": {
    "AvailableFormats": "2D",
    "City": "Jajpur Road",
    "Latitude": "20.9459",
    "Longitude": "86.1311",
    "RegionCode": "JAJP",
    "State": "Odisha",
    "SubRegionCode": "JAJP",
    "VenueAddress": "New Bus Stand, Bypass Road, Umapada, Jajpur Road, Odisha 755019, India",
    "VenueCode": "JACP",
    "VenueName": "Jagannath Cine Palace: Jajpur Road"
  },
  "JBTV": {
    "AvailableFormats": "2D",
    "City": "Vadakkencherry",
    "Latitude": "10.5977",
    "Longitude": "76.4814",
    "RegionCode": "VDCY",
    "State": "Kerala",
    "SubRegionCode": "VDCY",
    "VenueAddress": "Vadakkanchery - Padur Road, Karayankadu, Vadakkencherry, Kerala 678683, India",
    "VenueCode": "JBTV",
    "VenueName": "Jayabharath Theatre: Vadakkencherry"
  },
  "JCPC": {
    "AvailableFormats": "2D",
    "City": "Badaun",
    "Latitude": "28.0354",
    "Longitude": "79.1234",
    "RegionCode": "BADN",
    "State": "Uttar Pradesh",
    "SubRegionCode": "BADN",
    "VenueAddress": "Sotha Mohallah, Opposite Bada Gost Bazaar, Badaun, Uttar Pradesh 243601, India",
    "VenueCode": "JCPC",
    "VenueName": "J C Picture Palace: Budaun"
  },
  "JGTK": {
    "AvailableFormats": "2D",
    "City": "Jayamkondacholapuram",
    "Latitude": "11.2136",
    "Longitude": "79.3569",
    "RegionCode": "JYAM",
    "State": "Tamil Nadu",
    "SubRegionCode": "JYAM",
    "VenueAddress": "National Highway 227, Jayankondam, Near Mangalam mahal, Jayamkondacholapuram, Tamil Nadu 621802, India",
    "VenueCode": "JGTK",
    "VenueName": "JANAGAR CINEMAS A/C DOLBY 7.1"
  },
  "JKCT": {
    "AvailableFormats": "2D",
    "City": "Thrissur",
    "Latitude": "10.4195",
    "Longitude": "76.106",
    "RegionCode": "THAI",
    "State": "Kerala",
    "SubRegionCode": "THAI",
    "VenueAddress": "Ground Floor,Dheehini Shopping Complex, Nattika,Thriprayar, Near Sree Narayana Hall, Thrissur, Kerala 680566, India",
    "VenueCode": "JKCT",
    "VenueName": "JK Cinemas 4K Dolby Atmos: Thriprayar"
  },
  "JMMA": {
    "AvailableFormats": "2D",
    "City": "Angamaly",
    "Latitude": "10.2254",
    "Longitude": "76.4137",
    "RegionCode": "KLDY",
    "State": "Kerala",
    "SubRegionCode": "KLDY",
    "VenueAddress": "Mookkannoor, Ezhattumugham Road, Josh Mall, Angamaly, Kerala 683577, India",
    "VenueCode": "JMMA",
    "VenueName": "JM Movies Josh Mall: Mookkannoor Angamaly"
  },
  "JSAI": {
    "AvailableFormats": "2D",
    "City": "Virudhachalam",
    "Latitude": "11.5248",
    "Longitude": "79.3221",
    "RegionCode": "VIDM",
    "State": "Tamil Nadu",
    "SubRegionCode": "VIDM",
    "VenueAddress": "State Highway 69, Mullai Nagar, Near A to Z Super Market, Virudhachalam, Tamil Nadu 606001, India",
    "VenueCode": "JSAI",
    "VenueName": "Jai Sai Krishna Cinemas A/C: Virudhachalam"
  },
  "JTGT": {
    "AvailableFormats": "2D",
    "City": "Payakaraopeta",
    "Latitude": "17.3622",
    "Longitude": "82.5493",
    "RegionCode": "PATE",
    "State": "Andhra Pradesh",
    "SubRegionCode": "PATE",
    "VenueAddress": "Tuni, Payakaraopeta Town Road, Near Panduranga Swamy Temple, Payakaraopeta, Andhra Pradesh 531126, India",
    "VenueCode": "JTGT",
    "VenueName": "Gautham Theatre: Payakaraopeta"
  },
  "JTNP": {
    "AvailableFormats": "2D",
    "City": "Narsampet",
    "Latitude": "17.9291",
    "Longitude": "79.8887",
    "RegionCode": "NASP",
    "State": "Telangana",
    "SubRegionCode": "NASP",
    "VenueAddress": "Narsampet Main Road, Opposite State Bank Of India, Near Mee Seva Center, Narsampet, Telangana 506132, India",
    "VenueCode": "JTNP",
    "VenueName": "Jayasri Talkies: Narsampet"
  },
  "JTSM": {
    "AvailableFormats": "2D",
    "City": "Nellore",
    "Latitude": "14.4561",
    "Longitude": "79.9816",
    "RegionCode": "NELL",
    "State": "Andhra Pradesh",
    "SubRegionCode": "NELL",
    "VenueAddress": "Ramji Nagar, ., Nellore, Andhra Pradesh 524001, India",
    "VenueCode": "JTSM",
    "VenueName": "Siri Multiplex: Nellore"
  },
  "JUGA": {
    "AvailableFormats": "2D",
    "City": "Kanpur",
    "Latitude": "26.4218",
    "Longitude": "80.3734",
    "RegionCode": "KANP",
    "State": "Uttar Pradesh",
    "SubRegionCode": "KANP",
    "VenueAddress": "GT Road, Krishna Nagar, Near State Bank, Kanpur, Uttar Pradesh 208010, India",
    "VenueCode": "JUGA",
    "VenueName": "Jugul Palace Cinema: Kanpur"
  },
  "JYOE": {
    "AvailableFormats": "2D",
    "City": "Dhule",
    "Latitude": "20.9061",
    "Longitude": "74.7762",
    "RegionCode": "DHLE",
    "State": "Maharashtra",
    "SubRegionCode": "DHLE",
    "VenueAddress": "City Survey No. 3488/3A, Kajwe Road, Dhule, Maharashtra 424001, India",
    "VenueCode": "JYOE",
    "VenueName": "Jyoti Chitra Mandir: Dhule"
  },
  "KANT": {
    "AvailableFormats": "2D|3D",
    "City": "Betul",
    "Latitude": "21.8984",
    "Longitude": "77.9051",
    "RegionCode": "BETU",
    "State": "Madhya Pradesh",
    "SubRegionCode": "BETU",
    "VenueAddress": "Near Railway Station, Betulganj, Near Kantishiva Chowk, Betul, Madhya Pradesh 460001, India",
    "VenueCode": "KANT",
    "VenueName": "Kantishiva Multiplex: Betul"
  },
  "KBTT": {
    "AvailableFormats": "2D",
    "City": "Trivandrum",
    "Latitude": "8.49955",
    "Longitude": "76.958",
    "RegionCode": "VKAL",
    "State": "Kerala",
    "SubRegionCode": "VKAL",
    "VenueAddress": "Womens College Road, Chalachitra Kalabhavan CV Raman Pillai Road, Near Dianby Kids World, Trivandrum, Kerala 695014, India",
    "VenueCode": "KBTT",
    "VenueName": "Kalabhavan Theatre Triple Beam 3D: Trivandrum"
  },
  "KCMA": {
    "AvailableFormats": "2D|3D",
    "City": "Mumbai",
    "Latitude": "19.1879",
    "Longitude": "72.8475",
    "RegionCode": "MUMBAI",
    "State": "Maharashtra",
    "SubRegionCode": "MWEST",
    "VenueAddress": "Above Vasant Plaza Shopping Centre, Station Road, Opposite Natraj Market, Malad West, Mumbai, Maharashtra 400064, India",
    "VenueCode": "KCMA",
    "VenueName": "Kasturba Cinema (Newly Renovated): Malad"
  },
  "KDCG": {
    "AvailableFormats": "",
    "City": "Guwahati",
    "Latitude": "26.1789",
    "Longitude": "91.7423",
    "RegionCode": "GUW",
    "State": "Assam",
    "SubRegionCode": "GUW",
    "VenueAddress": "Shradhanjali Complex, A T Road, Fancy Bazaar, Near Railway Gate No. 3, Guwahati, Assam 781001, India",
    "VenueCode": "KDCG",
    "VenueName": "Kelvin Gold Cinema: Guwahati (Newly Opened)"
  },
  "KICT": {
    "AvailableFormats": "2D",
    "City": "Tirupur",
    "Latitude": "11.142",
    "Longitude": "77.3239",
    "RegionCode": "TIRP",
    "State": "Tamil Nadu",
    "SubRegionCode": "TIRP",
    "VenueAddress": "Kumaran Road No 71, AVP Rd, Periyar Colony, Anupparpalayam Pudur, Near Juki Machinery India Private Limited, Tirupur, Tamil Nadu 641601, India",
    "VenueCode": "KICT",
    "VenueName": "Kalaivani Cinemas A/C DOLBY 9.2 Surround: Tirupur"
  },
  "KKSC": {
    "AvailableFormats": "2D",
    "City": "Memari",
    "Latitude": "23.1691",
    "Longitude": "88.0982",
    "RegionCode": "MMRR",
    "State": "West Bengal",
    "SubRegionCode": "MMRR",
    "VenueAddress": "Memari-Tarkeswar Road, Near Anita Super Market, Memari Auto Stores, Memari, West Bengal 713146, India",
    "VenueCode": "KKSC",
    "VenueName": "Kristi Cinema: Memari"
  },
  "KMAJ": {
    "AvailableFormats": "2D",
    "City": "Lonand",
    "Latitude": "18.038",
    "Longitude": "74.1832",
    "RegionCode": "LONZ",
    "State": "Maharashtra",
    "SubRegionCode": "LONZ",
    "VenueAddress": "Near Kumar Gas Egancy, Gyanaba Mauli Road, Lonand, Maharashtra 415521, India",
    "VenueCode": "KMAJ",
    "VenueName": "K Mahindra Cinema: Lonand"
  },
  "KOMS": {
    "AvailableFormats": "2D",
    "City": "Sahjanwa",
    "Latitude": "26.7594",
    "Longitude": "83.2154",
    "RegionCode": "GRKP",
    "State": "Uttar Pradesh",
    "SubRegionCode": "GRKP",
    "VenueAddress": "Sanichar Bazaar, Mandi Road, Sahjanwa, Uttar Pradesh 273209, India",
    "VenueCode": "KOMS",
    "VenueName": "Hari Om Multiplex: Sahjanwa"
  },
  "KRIC": {
    "AvailableFormats": "2D",
    "City": "Songadh",
    "Latitude": "21.1669",
    "Longitude": "73.5642",
    "RegionCode": "SONG",
    "State": "Gujarat",
    "SubRegionCode": "SONG",
    "VenueAddress": "3rd and 4th Floor Krishna Mall, SBI Road, Navagam Fort Songadh Tapi, Near Vijaya Bank, Songadh, Gujarat 394670, India",
    "VenueCode": "KRIC",
    "VenueName": "Sanskruti Krishna Multiplex: Songadh"
  },
  "KRVM": {
    "AvailableFormats": "2D",
    "City": "Kottayi",
    "Latitude": "10.7651",
    "Longitude": "76.5441",
    "RegionCode": "PLKK",
    "State": "Kerala",
    "SubRegionCode": "PLKK",
    "VenueAddress": "Mankara-Palakkad Road, Ayyappankaavu, Kottayi, Kerala 678572, India",
    "VenueCode": "KRVM",
    "VenueName": "KRV Movies: Kottayi"
  },
  "KSSB": {
    "AvailableFormats": "2D",
    "City": "Durg",
    "Latitude": "21.1646",
    "Longitude": "81.2613",
    "RegionCode": "DURG",
    "State": "Chhattisgarh",
    "SubRegionCode": "DURG",
    "VenueAddress": "Mahalaxmi Market, Mini Mata Chowk, Pulgaon, Near Kapada Market, Durg, Chhattisgarh 491001, India",
    "VenueCode": "KSSB",
    "VenueName": "K Sera Sera Miniplex: Durg"
  },
  "KTEK": {
    "AvailableFormats": "2D",
    "City": "Kochi",
    "Latitude": "9.97858",
    "Longitude": "76.2826",
    "RegionCode": "PALY",
    "State": "Kerala",
    "SubRegionCode": "PALY",
    "VenueAddress": "Paza Hotel, Mahatma Gandhi Road, Shenoys - Ernakulam, Near Abad, Kochi, Kerala 682011, India",
    "VenueCode": "KTEK",
    "VenueName": "Kavitha Theatre 4K 3D Dolby 7.1: Ernakulam"
  },
  "KVCS": {
    "AvailableFormats": "2D",
    "City": "Chennai",
    "Latitude": "13.0345",
    "Longitude": "80.2306",
    "RegionCode": "CHEN",
    "State": "Tamil Nadu",
    "SubRegionCode": "CHEN",
    "VenueAddress": "No 3 Usman Road, T. Nagar, Chennai, Near Mehta Hospitals Pvt Ltd, Chennai, Tamil Nadu 600017, India",
    "VenueCode": "KVCS",
    "VenueName": "KC(KrishnaveniCinemas) RG3 LASER DOLBYATMOS TNAGAR"
  },
  "LBDL": {
    "AvailableFormats": "2D",
    "City": "Delhi",
    "Latitude": "28.6592",
    "Longitude": "77.1897",
    "RegionCode": "NCR",
    "State": "NCR",
    "SubRegionCode": "DELHI",
    "VenueAddress": "19-B, New Rohtak Road Karol Bagh, Near Indian Oil Petrol Pump, Delhi, NCR 110005, India",
    "VenueCode": "LBDL",
    "VenueName": "Liberty Cinema: Karol Bagh"
  },
  "LCSH": {
    "AvailableFormats": "2D|3D",
    "City": "Surat",
    "Latitude": "21.1529",
    "Longitude": "72.7761",
    "RegionCode": "SURT",
    "State": "Gujarat",
    "SubRegionCode": "SURT",
    "VenueAddress": "Second floor, Homeland City, Sai Kutir Society, Piplod, Surat, Gujarat 395007, India",
    "VenueCode": "LCSH",
    "VenueName": "Loop Cinemas Homeland City: Vesu"
  },
  "LHDF": {
    "AvailableFormats": "2D",
    "City": "Ahmedabad",
    "Latitude": "23.1245",
    "Longitude": "72.5837",
    "RegionCode": "GNAGAR",
    "State": "Gujarat",
    "SubRegionCode": "GNAGAR",
    "VenueAddress": "5th Floor,Sai Sapphire Square, BRTS Zundal Chandkheda, Opposite Indian Oil Petrol Pump, Ahmedabad, Gujarat 382424, India",
    "VenueCode": "LHDF",
    "VenueName": "LHD Cinemas: Chandkheda"
  },
  "LKOP": {
    "AvailableFormats": "2D",
    "City": "Chennai",
    "Latitude": "12.6806",
    "Longitude": "79.9805",
    "RegionCode": "CHEN",
    "State": "Tamil Nadu",
    "SubRegionCode": "CHEN",
    "VenueAddress": "56, Alagesan Nagar, Varadharaja Nagar, Chennai, Tamil Nadu 603031, India",
    "VenueCode": "LKOP",
    "VenueName": "Lathaa Cinemas A/C Atmos 2K 3D: Chengalpattu"
  },
  "LMCK": {
    "AvailableFormats": "2D",
    "City": "Kodungallur",
    "Latitude": "10.221",
    "Longitude": "76.2011",
    "RegionCode": "KODU",
    "State": "Kerala",
    "SubRegionCode": "KODU",
    "VenueAddress": "National Highway 66, Padakulam, Sringapuram, Kodungallur, Kerala 680664, India",
    "VenueCode": "LMCK",
    "VenueName": "LAKSHMI CINEMAS 4K LASER DOLBY ATMOS: KODUNGALLUR"
  },
  "LRCM": {
    "AvailableFormats": "2D",
    "City": "Manjeri",
    "Latitude": "11.1204",
    "Longitude": "76.1159",
    "RegionCode": "MAJR",
    "State": "Kerala",
    "SubRegionCode": "MAJR",
    "VenueAddress": "Indian Mall Road, Karuvambram, Manjeri, Kerala 676121, India",
    "VenueCode": "LRCM",
    "VenueName": "Ladder Cinemas: Manjeri"
  },
  "LVCD": {
    "AvailableFormats": "2D",
    "City": "Durg",
    "Latitude": "21.1959",
    "Longitude": "81.2844",
    "RegionCode": "DURG",
    "State": "Chhattisgarh",
    "SubRegionCode": "DURG",
    "VenueAddress": "Guru Nanak Nagar, Station Road, Near Apsara Talkies, Durg, Chhattisgarh 491001, India",
    "VenueCode": "LVCD",
    "VenueName": "Tarun LV Cinemas: Durg"
  },
  "MAAM": {
    "AvailableFormats": "",
    "City": "Ahmedabad",
    "Latitude": "22.9973",
    "Longitude": "72.5927",
    "RegionCode": "AHD",
    "State": "Gujarat",
    "SubRegionCode": "AHD",
    "VenueAddress": "Mira Cinema BRTS Bus Stop, Bhairavnath Road, Maninagar, Ahmedabad, Gujarat 380008, India",
    "VenueCode": "MAAM",
    "VenueName": "Mira Cinema: Ahmedabad"
  },
  "MACZ": {
    "AvailableFormats": "2D|3D",
    "City": "Ahmedabad",
    "Latitude": "22.9929",
    "Longitude": "72.5438",
    "RegionCode": "AHD",
    "State": "Gujarat",
    "SubRegionCode": "AHD",
    "VenueAddress": "Mukta A2 Cinema 7th Floor, Rajyash Rise, Behind Vishala Hotel, Rajyesh City, South Vasana Narol Round, Ahmedabad, Gujarat 380007, India",
    "VenueCode": "MACZ",
    "VenueName": "Mukta A2 Cinemas: Rajyash, South Vasna, Ahmedabad"
  },
  "MAJB": {
    "AvailableFormats": "3D|2D",
    "City": "Mumbai",
    "Latitude": "18.986",
    "Longitude": "72.8359",
    "RegionCode": "MUMBAI",
    "State": "Maharashtra",
    "SubRegionCode": "MCENT",
    "VenueAddress": "Lal Baug, Dr.B.R.Ambedkar Road, Near Voltas Building, Mumbai, Maharashtra 400033, India",
    "VenueCode": "MAJB",
    "VenueName": "Mukta A2 Cinemas: Jai Hind, Lalbaugh"
  },
  "MATE": {
    "AvailableFormats": "2D",
    "City": "Kallakurichi",
    "Latitude": "11.735",
    "Longitude": "78.9649",
    "RegionCode": "KALL",
    "State": "Tamil Nadu",
    "SubRegionCode": "KALL",
    "VenueAddress": "17J,Chidambaram Pillai St, Raja Nagar,Kallakurichi, Near Hotel SR Park, Kallakurichi, Tamil Nadu 606202, India",
    "VenueCode": "MATE",
    "VenueName": "Mahalakshmi Cinemas Dolby Atmos 4K Barco RGB Laser"
  },
  "MBBR": {
    "AvailableFormats": "2D",
    "City": "Rajakumari",
    "Latitude": "9.9686",
    "Longitude": "77.1495",
    "RegionCode": "RAAJ",
    "State": "Kerala",
    "SubRegionCode": "RAAJ",
    "VenueAddress": "X49X+CQX, Murikkumthotti - Senapathy, Vattapara Udumbanchola Road, Rajakumari, Kerala 685619, India",
    "VenueCode": "MBBR",
    "VenueName": "MAR Basil EVM Theatre: Rajakumari"
  },
  "MCAA": {
    "AvailableFormats": "2D|3D",
    "City": "Ulhasnagar",
    "Latitude": "19.2251",
    "Longitude": "73.1642",
    "RegionCode": "MUMBAI",
    "State": "Maharashtra",
    "SubRegionCode": "ULHA",
    "VenueAddress": "Ramayan Nagar, Ulhasnagar No. 3, Kalyan Ambarnath Road, Near Indian Bank, Ulhasnagar, Maharashtra 421002, India",
    "VenueCode": "MCAA",
    "VenueName": "Ashok Anil Multiplex, Miraj Cinemas: Ulhasnagar"
  },
  "MCCZ": {
    "AvailableFormats": "2D",
    "City": "Ambajogai",
    "Latitude": "18.7313",
    "Longitude": "76.391",
    "RegionCode": "AMBG",
    "State": "Maharashtra",
    "SubRegionCode": "AMBG",
    "VenueAddress": "Prashant Nagar, Dr. B.R Ambedkar Road, Ambajogai, Maharashtra 431517, India",
    "VenueCode": "MCCZ",
    "VenueName": "Mohan Cinemark: Ambajogai"
  },
  "MCGP": {
    "AvailableFormats": "2D|3D",
    "City": "Kanpur",
    "Latitude": "26.4907",
    "Longitude": "80.2847",
    "RegionCode": "KANP",
    "State": "Uttar Pradesh",
    "SubRegionCode": "KANP",
    "VenueAddress": "Gurdev Palace Complex, 181-184, Lakhanpur, G. T. Road, Kanpur, Uttar Pradesh 208024, India",
    "VenueCode": "MCGP",
    "VenueName": "Miraj Cinemas: Gurdev Pammi, Kanpur"
  },
  "MCKP": {
    "AvailableFormats": "",
    "City": "Abohar",
    "Latitude": "30.1284",
    "Longitude": "74.2053",
    "RegionCode": "ABOR",
    "State": "Punjab",
    "SubRegionCode": "ABOR",
    "VenueAddress": "Abohar - Hanumangarh Road, Hanumangarh, Abohar, Punjab 152116, India",
    "VenueCode": "MCKP",
    "VenueName": "Miraj Cinemas: Kundan Palace, Abohar"
  },
  "MCNE": {
    "AvailableFormats": "2D|3D",
    "City": "Mumbai",
    "Latitude": "18.9375",
    "Longitude": "72.8336",
    "RegionCode": "MUMBAI",
    "State": "Maharashtra",
    "SubRegionCode": "MCENT",
    "VenueAddress": "24, A K Nayak Marg, Near VT Station, Azad Maidan, Fort, Near Central Bank Of India, Mumbai, Maharashtra 400001, India",
    "VenueCode": "MCNE",
    "VenueName": "Mukta A2 Cinemas: New Excelsior, Fort"
  },
  "MCSD": {
    "AvailableFormats": "2D",
    "City": "Tumakuru (Tumkur)",
    "Latitude": "13.3435",
    "Longitude": "77.0943",
    "RegionCode": "TUMK",
    "State": "Karnataka",
    "SubRegionCode": "TUMK",
    "VenueAddress": "B.H.Main Road, Mandipet, Near Gubbi Gate, Near T H S Super Speciality Hospital, Tumakuru (Tumkur), Karnataka 572101, India",
    "VenueCode": "MCSD",
    "VenueName": "Maruthi Digital 4K Cinemas: B.H.Road Tumakuru"
  },
  "MCTI": {
    "AvailableFormats": "2D|3D",
    "City": "Noida",
    "Latitude": "28.5683",
    "Longitude": "77.3267",
    "RegionCode": "NCR",
    "State": "NCR",
    "SubRegionCode": "NOIDA",
    "VenueAddress": "The Great India Place Mall, A2, 3rd Floor, Near Noida Sector 18 Metro Station, Noida, NCR 201301, India",
    "VenueCode": "MCTI",
    "VenueName": "Miraj Cinemas: TGIP, Noida"
  },
  "MDCD": {
    "AvailableFormats": "",
    "City": "Ghaziabad",
    "Latitude": "28.6835",
    "Longitude": "77.5174",
    "RegionCode": "NCR",
    "State": "NCR",
    "SubRegionCode": "GHAZ",
    "VenueAddress": "N.H.9, Mussoorie Gulawathi Road Industrial Area, Near - State Bank of India, Ghaziabad, NCR 201015, India",
    "VenueCode": "MDCD",
    "VenueName": "Madhuban Cinema: Dasna"
  },
  "MEER": {
    "AvailableFormats": "2D",
    "City": "Rajapalayam",
    "Latitude": "9.4487",
    "Longitude": "77.5596",
    "RegionCode": "RAYM",
    "State": "Tamil Nadu",
    "SubRegionCode": "RAYM",
    "VenueAddress": "61,Ashok Talkies Road, Rajapalayam,Virudhunagar, Near Rajapalayam Railway Station, Rajapalayam, Tamil Nadu 626117, India",
    "VenueCode": "MEER",
    "VenueName": "Meenakshi Cinemas Dolby Atmos A/C 4K: Rajapalayam"
  },
  "METE": {
    "AvailableFormats": "2D",
    "City": "Erattupetta",
    "Latitude": "9.68921",
    "Longitude": "76.7768",
    "RegionCode": "ERAT",
    "State": "Kerala",
    "SubRegionCode": "ERAT",
    "VenueAddress": "Kaduvamuzhi, Erattupetta, Near Erattupetta Police Station, Erattupetta, Kerala 686121, India",
    "VenueCode": "METE",
    "VenueName": "Rajans Metro A/C: Erattupetta"
  },
  "MHFF": {
    "AvailableFormats": "3D|2D",
    "City": "Yavatmal",
    "Latitude": "20.4011",
    "Longitude": "78.1302",
    "RegionCode": "YAVA",
    "State": "Maharashtra",
    "SubRegionCode": "YAVA",
    "VenueAddress": "Bombaywala Compound, C/o Zuber Imdad Ali Bombaywala, Plot No.6 Wanjari Fail SBI Road, Opposite Khoja Colony, Yavatmal, Maharashtra 445001, India",
    "VenueCode": "MHFF",
    "VenueName": "MH29 Fun N Food Miniplex: Yavatmal"
  },
  "MINL": {
    "AvailableFormats": "2D",
    "City": "Sangli",
    "Latitude": "17.094",
    "Longitude": "74.459",
    "RegionCode": "ASMA",
    "State": "Maharashtra",
    "SubRegionCode": "ASMA",
    "VenueAddress": "Karad Tasgaon Road, Near Old S T Stand, Sangli, Maharashtra 416310, India",
    "VenueCode": "MINL",
    "VenueName": "Minakshi Cinema: Palus"
  },
  "MJMJ": {
    "AvailableFormats": "2D|3D",
    "City": "Jabalpur",
    "Latitude": "23.1241",
    "Longitude": "79.9273",
    "RegionCode": "JABL",
    "State": "Madhya Pradesh",
    "SubRegionCode": "JABL",
    "VenueAddress": "2nd Floor, South Avenue Mall, Narmada Road, Polipather, Jabalpur, Madhya Pradesh 482008, India",
    "VenueCode": "MJMJ",
    "VenueName": "Movie Magic (SAM): Jabalpur"
  },
  "MKSM": {
    "AvailableFormats": "2D|3D",
    "City": "Rajahmundry",
    "Latitude": "16.9508",
    "Longitude": "81.7829",
    "RegionCode": "RJMU",
    "State": "Andhra Pradesh",
    "SubRegionCode": "RJMU",
    "VenueAddress": "SH 41, VGTPS Colony, Near Dowlaiswaram Bus Stand, Rajahmundry, Andhra Pradesh 533125, India",
    "VenueCode": "MKSM",
    "VenueName": "Muralikrishna Cinema A/C 4K 3D: Dowlaiswaram"
  },
  "MMAA": {
    "AvailableFormats": "2D",
    "City": "Mumbai",
    "Latitude": "19.1165",
    "Longitude": "72.8565",
    "RegionCode": "MUMBAI",
    "State": "Maharashtra",
    "SubRegionCode": "MWEST",
    "VenueAddress": "MovieMax, Andheri-Kurla Road, Andheri(E), Behind Gurunanak Petrol Pump, Mumbai, Maharashtra 400059, India",
    "VenueCode": "MMAA",
    "VenueName": "MovieMax: Andheri (E)"
  },
  "MMEF": {
    "AvailableFormats": "2D",
    "City": "Jamnagar",
    "Latitude": "22.462",
    "Longitude": "70.0369",
    "RegionCode": "JAM",
    "State": "Gujarat",
    "SubRegionCode": "JAM",
    "VenueAddress": "15, Street No.4, Shivam Park, Ajanta Society, Near - Hotel Vishal International, Jamnagar, Gujarat 361006, India",
    "VenueCode": "MMEF",
    "VenueName": "Mehul Cinemax: Jamnagar"
  },
  "MMMR": {
    "AvailableFormats": "2D",
    "City": "Mumbai",
    "Latitude": "19.2928",
    "Longitude": "72.8717",
    "RegionCode": "MUMBAI",
    "State": "Maharashtra",
    "SubRegionCode": "MWEST",
    "VenueAddress": "MovieMax, Prime Mall, Beverly Park, Mira-Bhayander Road, Mira Road (East), Near Shivar Garden, Mumbai, Maharashtra 401107, India",
    "VenueCode": "MMMR",
    "VenueName": "MovieMax: Mira Road"
  },
  "MMTR": {
    "AvailableFormats": "2D",
    "City": "Kottayam",
    "Latitude": "9.5866",
    "Longitude": "76.5213",
    "RegionCode": "ETTU",
    "State": "Kerala",
    "SubRegionCode": "ETTU",
    "VenueAddress": "Main Central Road, Kollam - Theni Highway, Near BSNL Bhavan, Kottayam, Kerala 686001, India",
    "VenueCode": "MMTR",
    "VenueName": "Dhanya Remya: Kottayam"
  },
  "MNCA": {
    "AvailableFormats": "2D",
    "City": "Chhatrapati Sambhajinagar (Aurangabad)",
    "Latitude": "19.8883",
    "Longitude": "75.3334",
    "RegionCode": "AURA",
    "State": "Maharashtra",
    "SubRegionCode": "AURA",
    "VenueAddress": "Sarafa Road, Sarafa Bazar, Shahgunj, Chhatrapati Sambhaji Nagar, Chhatrapati Sambhajinagar (Aurangabad), Maharashtra 431001, India",
    "VenueCode": "MNCA",
    "VenueName": "MohanNova Cinemaz: Chhatrapati SambhajiNagar"
  },
  "MPCH": {
    "AvailableFormats": "2D",
    "City": "Ahmedabad",
    "Latitude": "23.0638",
    "Longitude": "72.6775",
    "RegionCode": "AHD",
    "State": "Gujarat",
    "SubRegionCode": "AHD",
    "VenueAddress": "5th and 6th Floor, Fortune Sky, Fortune Circle, Nikol, Near - Goverdhan Galaxy Bungalows, Ahmedabad, Gujarat 382350, India",
    "VenueCode": "MPCH",
    "VenueName": "Mango Plus Cinemas: Nikol"
  },
  "MRCL": {
    "AvailableFormats": "2D",
    "City": "Sangli",
    "Latitude": "16.8198",
    "Longitude": "74.6424",
    "RegionCode": "ASMA",
    "State": "Maharashtra",
    "SubRegionCode": "ASMA",
    "VenueAddress": "Pandharpur Wal, Shivaji Road, Near City Bus Stand, Miraj, Sangli, Maharashtra 416410, India",
    "VenueCode": "MRCL",
    "VenueName": "Amar Cinema: Miraj"
  },
  "MRSE": {
    "AvailableFormats": "3D|2D",
    "City": "Kadapa",
    "Latitude": "14.4635",
    "Longitude": "78.8235",
    "RegionCode": "KDPA",
    "State": "Andhra Pradesh",
    "SubRegionCode": "KDPA",
    "VenueAddress": "RSR Square , D NO. 1/700, SY NO 72/1, Dwaraka Nagar, R S Road, Nagarajupalli Village, Kadapa, Andhra Pradesh 516001, India",
    "VenueCode": "MRSE",
    "VenueName": "Mukta A2 Cinemas: RSR Square Mall"
  },
  "MSKT": {
    "AvailableFormats": "2D",
    "City": "Deoria",
    "Latitude": "26.5923",
    "Longitude": "83.6668",
    "RegionCode": "DEEO",
    "State": "Uttar Pradesh",
    "SubRegionCode": "DEEO",
    "VenueAddress": "Paragna-Silhat Panankunda, Tappa Indupur, Near Gauri Bazar Tehsil, Deoria, Uttar Pradesh 274202, India",
    "VenueCode": "MSKT",
    "VenueName": "Krishna Talkies: Gauri Bazar, Deoria"
  },
  "MTCA": {
    "AvailableFormats": "2D|3D",
    "City": "Amritsar",
    "Latitude": "31.6444",
    "Longitude": "74.8771",
    "RegionCode": "AMRI",
    "State": "Punjab",
    "SubRegionCode": "AMRI",
    "VenueAddress": "4th Floor, Omaxe Novelty Mall, 7, Lawrence Road, Joshi Colony, Amritsar, Punjab 143001, India",
    "VenueCode": "MTCA",
    "VenueName": "Movietime Cinemas: Omaxe Novelty Mall, Amritsar"
  },
  "MTHY": {
    "AvailableFormats": "2D",
    "City": "Hyderabad",
    "Latitude": "17.452",
    "Longitude": "78.3628",
    "RegionCode": "HYD",
    "State": "Telangana",
    "SubRegionCode": "HYD",
    "VenueAddress": "3rd Floor, SLN Terminus, Gachibowli - Miyapur Road, Jayabheri Enclave, Hyderabad, Telangana 500032, India",
    "VenueCode": "MTHY",
    "VenueName": "Platinum Movietime Cinema: Gachibowli SLN Terminus"
  },
  "MTND": {
    "AvailableFormats": "2D|3D",
    "City": "Noida",
    "Latitude": "28.5717",
    "Longitude": "77.3225",
    "RegionCode": "NCR",
    "State": "NCR",
    "SubRegionCode": "NOIDA",
    "VenueAddress": "Tulsi Marg, K Block, Pocket E, Dharam Palace Mall, Sector 18, Noida, NCR 201301, India",
    "VenueCode": "MTND",
    "VenueName": "Movietime Cinemas: Sector 18, Noida"
  },
  "MTYA": {
    "AvailableFormats": "",
    "City": "Nandigama",
    "Latitude": "16.7752",
    "Longitude": "80.2837",
    "RegionCode": "NDGM",
    "State": "Andhra Pradesh",
    "SubRegionCode": "NDGM",
    "VenueAddress": "Mayuri Theatre Road, Ramannapet Road, Nandigama, Andhra Pradesh 521185, India",
    "VenueCode": "MTYA",
    "VenueName": "Mayuri Theater A/c Dolby 7.1 Surround: Nandigama"
  },
  "MUTJ": {
    "AvailableFormats": "2D",
    "City": "Jammikunta",
    "Latitude": "18.2907",
    "Longitude": "79.47",
    "RegionCode": "JMKN",
    "State": "Telangana",
    "SubRegionCode": "JMKN",
    "VenueAddress": "Girls High School Road, Near Vasavi Kanyaka Parameswari, Jammikunta, Telangana 505122, India",
    "VenueCode": "MUTJ",
    "VenueName": "Murali Deluxe Theatre: Jammikunta"
  },
  "MXCK": {
    "AvailableFormats": "2D",
    "City": "Mumbai",
    "Latitude": "19.2123",
    "Longitude": "72.8716",
    "RegionCode": "MUMBAI",
    "State": "Maharashtra",
    "SubRegionCode": "MWEST",
    "VenueAddress": "4th Floor, Vishnu Shivam Mall, Dattani Park, Thakur Village, Kandivali East, Mumbai, Maharashtra 400101, India",
    "VenueCode": "MXCK",
    "VenueName": "Maxus Cinemas: Kandivali (E) Newly Opened"
  },
  "MYCR": {
    "AvailableFormats": "2D",
    "City": "Kariyad",
    "Latitude": "10.1616",
    "Longitude": "76.3648",
    "RegionCode": "ANGA",
    "State": "Kerala",
    "SubRegionCode": "ANGA",
    "VenueAddress": "National Highway 47, Nedumbassery, Near Cochin Airport, Kariyad, Kerala 683589, India",
    "VenueCode": "MYCR",
    "VenueName": "MY Cinemas RedCarpet: Kariyad"
  },
  "MZHA": {
    "AvailableFormats": "2D",
    "City": "Haldwani",
    "Latitude": "29.1085",
    "Longitude": "79.5245",
    "RegionCode": "HALD",
    "State": "Uttarakhand",
    "SubRegionCode": "HALD",
    "VenueAddress": "Keshav Plaza Gola Road, Naya Bazar, Haldwani, Uttarakhand 263139, India",
    "VenueCode": "MZHA",
    "VenueName": "Movie Zone Cinema: Haldwani Halduchour Lalkuan"
  },
  "NCCI": {
    "AvailableFormats": "",
    "City": "Chhatrapati Sambhajinagar (Aurangabad)",
    "Latitude": "19.8752",
    "Longitude": "75.354",
    "RegionCode": "AURA",
    "State": "Maharashtra",
    "SubRegionCode": "AURA",
    "VenueAddress": "Jalna Road Nupur Cinetorium, Seven Hills Flyover Road, Near Fire Brigade Office, Chhatrapati Sambhajinagar (Aurangabad), Maharashtra 431009, India",
    "VenueCode": "NCCI",
    "VenueName": "Nupur Cinema: Chh.Sambhajinagar (Newly Renovated)"
  },
  "NCLM": {
    "AvailableFormats": "2D",
    "City": "Mokama",
    "Latitude": "25.3956",
    "Longitude": "85.9237",
    "RegionCode": "MOKA",
    "State": "Bihar",
    "SubRegionCode": "MOKA",
    "VenueAddress": "National Highway 31, Sakarwar Tola, Mokameh, Mokama, Bihar 803302, India",
    "VenueCode": "NCLM",
    "VenueName": "New Cinema (Lucky House): Mokama"
  },
  "NECB": {
    "AvailableFormats": "2D",
    "City": "Billawar",
    "Latitude": "32.6136",
    "Longitude": "75.6041",
    "RegionCode": "BILL",
    "State": "Jammu and Kashmir",
    "SubRegionCode": "BILL",
    "VenueAddress": "Tilla Billawar, Near Bharat Stone Crusher, Billawar, Jammu and Kashmir 184203, India",
    "VenueCode": "NECB",
    "VenueName": "Neelam Cinema: Billawar"
  },
  "NJCJ": {
    "AvailableFormats": "2D|3D",
    "City": "Jhansi",
    "Latitude": "25.4482",
    "Longitude": "78.567",
    "RegionCode": "JNSI",
    "State": "Uttar Pradesh",
    "SubRegionCode": "JNSI",
    "VenueAddress": "Civil Lines, Shivpuri - Jhansi Road, Jhansi, Uttar Pradesh 284001, India",
    "VenueCode": "NJCJ",
    "VenueName": "Nataraj Cinema: Jhansi"
  },
  "NMNH": {
    "AvailableFormats": "2D",
    "City": "Neemuch",
    "Latitude": "24.457",
    "Longitude": "74.8711",
    "RegionCode": "NMCH",
    "State": "Madhya Pradesh",
    "SubRegionCode": "NMCH",
    "VenueAddress": "Patel Plaza, Tagore Marg, Neemuch, Madhya Pradesh 458441, India",
    "VenueCode": "NMNH",
    "VenueName": "Neemuch Multiplex: Patel Plaza"
  },
  "NRAA": {
    "AvailableFormats": "2D",
    "City": "Akola",
    "Latitude": "20.7087",
    "Longitude": "76.9946",
    "RegionCode": "AKOL",
    "State": "Maharashtra",
    "SubRegionCode": "AKOL",
    "VenueAddress": "Tilak Road, Near Ram Mandir, Malipura, Akola, Maharashtra 444001, India",
    "VenueCode": "NRAA",
    "VenueName": "New Regal Cinema: Akola"
  },
  "NTBB": {
    "AvailableFormats": "2D",
    "City": "Belagavi (Belgaum)",
    "Latitude": "15.8602",
    "Longitude": "74.513",
    "RegionCode": "BELG",
    "State": "Karnataka",
    "SubRegionCode": "BELG",
    "VenueAddress": "2016, Ganpat Galli, Raviwar Peth, Belagavi (Belgaum), Karnataka 590001, India",
    "VenueCode": "NTBB",
    "VenueName": "Nirmal Theatre: Belagavi"
  },
  "NTKP": {
    "AvailableFormats": "2D",
    "City": "Kotpad",
    "Latitude": "19.1393",
    "Longitude": "82.3228",
    "RegionCode": "KTPD",
    "State": "Odisha",
    "SubRegionCode": "KTPD",
    "VenueAddress": "Kundra - Kotpad - Jagdalpur Road, Naikera, Kotpad, Odisha 764058, India",
    "VenueCode": "NTKP",
    "VenueName": "Naveen Talkies: Kotpad"
  },
  "NVRM": {
    "AvailableFormats": "2D",
    "City": "Annavaram",
    "Latitude": "17.2732",
    "Longitude": "82.3895",
    "RegionCode": "ANVR",
    "State": "Andhra Pradesh",
    "SubRegionCode": "ANVR",
    "VenueAddress": "Annavaram Town Road, Near Annavaram Arch, Annavaram, Andhra Pradesh 533406, India",
    "VenueCode": "NVRM",
    "VenueName": "NVR Multiplex: Annavaram"
  },
  "NXTM": {
    "AvailableFormats": "2D",
    "City": "Himmatnagar",
    "Latitude": "23.4927",
    "Longitude": "72.9042",
    "RegionCode": "HIMM",
    "State": "Gujarat",
    "SubRegionCode": "HIMM",
    "VenueAddress": "Gulmohar Square and Sapphire, 2nd Floor, NH 48, Salal, Himmatnagar, Gujarat 383120, India",
    "VenueCode": "NXTM",
    "VenueName": "NXT Cinemas: Nr. Salal, Himmatnagar"
  },
  "NYMD": {
    "AvailableFormats": "2D",
    "City": "Mumbai",
    "Latitude": "19.1706",
    "Longitude": "72.9571",
    "RegionCode": "MUMBAI",
    "State": "Maharashtra",
    "SubRegionCode": "MCENT",
    "VenueAddress": "Sai Symphony, Old Jai Ganesh Talkies, Gopal Krishna Gokhale Road, Mulund East, Mumbai, Maharashtra 400080, India",
    "VenueCode": "NYMD",
    "VenueName": "NY Cinemas: Mulund"
  },
  "OCON": {
    "AvailableFormats": "2D",
    "City": "Ojhar",
    "Latitude": "20.0827",
    "Longitude": "73.9174",
    "RegionCode": "NASK",
    "State": "Maharashtra",
    "SubRegionCode": "NASK",
    "VenueAddress": "Mumbai-Agra Highway, At Post Ojhar, Ojhar, Maharashtra 422206, India",
    "VenueCode": "OCON",
    "VenueName": "Ozone Cinema: Ojhar, Nashik"
  },
  "ONEB": {
    "AvailableFormats": "",
    "City": "Mumbai",
    "Latitude": "18.9956",
    "Longitude": "72.8363",
    "RegionCode": "MUMBAI",
    "State": "Maharashtra",
    "SubRegionCode": "MCENT",
    "VenueAddress": "Dr. Babasaheb Ambedhkar Marg, Curry Road, E, Mahadev Palav Marg, Lal Baug, Mumbai, Maharashtra 400012, India",
    "VenueCode": "ONEB",
    "VenueName": "1 Cinema Powered by Mukta A2: Bharatmata"
  },
  "PACJ": {
    "AvailableFormats": "2D",
    "City": "Jaipur",
    "Latitude": "26.9349",
    "Longitude": "75.8342",
    "RegionCode": "JAIP",
    "State": "Rajasthan",
    "SubRegionCode": "JAIP",
    "VenueAddress": "Outside Zorawar Singh Gate, Amer Road, Jaipur, Rajasthan 302002, India",
    "VenueCode": "PACJ",
    "VenueName": "Paras Cinema: Amer Road"
  },
  "PAWA": {
    "AvailableFormats": "2D",
    "City": "Samsi",
    "Latitude": "25.2799",
    "Longitude": "88.0061",
    "RegionCode": "SAMS",
    "State": "West Bengal",
    "SubRegionCode": "SAMS",
    "VenueAddress": "NH3, Pavan Nagar, Maa Sarbamangala Kali Mandir, Samsi, West Bengal 732139, India",
    "VenueCode": "PAWA",
    "VenueName": "Pawan Talkies (Dolby Digital): Samsi"
  },
  "PBOX": {
    "AvailableFormats": "2D",
    "City": "Dimapur",
    "Latitude": "25.9112",
    "Longitude": "93.7308",
    "RegionCode": "DMPR",
    "State": "Nagaland",
    "SubRegionCode": "DMPR",
    "VenueAddress": "Playbox, Ward No 5 (6), Burma Camp Junction, Near Hotel Falcon, Dimapur, Nagaland 797112, India",
    "VenueCode": "PBOX",
    "VenueName": "FUN Cinemas Playbox Cinema: Dimapur"
  },
  "PCBV": {
    "AvailableFormats": "",
    "City": "Varanasi",
    "Latitude": "25.4181",
    "Longitude": "82.8823",
    "RegionCode": "VAR",
    "State": "Uttar Pradesh",
    "SubRegionCode": "VAR",
    "VenueAddress": "Satomahua, Babatpur Airport Road, Sehmalpur, Near FCI Godown, Varanasi, Uttar Pradesh 221105, India",
    "VenueCode": "PCBV",
    "VenueName": "Pari Cineplex: Babatpur, Varanasi"
  },
  "PCJL": {
    "AvailableFormats": "2D|3D",
    "City": "Jalandhar",
    "Latitude": "31.2823",
    "Longitude": "75.5873",
    "RegionCode": "JALA",
    "State": "Punjab",
    "SubRegionCode": "JALA",
    "VenueAddress": "Curo High Street, 66 Feet Road, Punjabi Bagh Extention, IsharPuri Colony, Mithapur, Near Dulhan Palace, Jalandhar, Punjab 144022, India",
    "VenueCode": "PCJL",
    "VenueName": "PVR: Curo, Jalandhar"
  },
  "PCMZ": {
    "AvailableFormats": "2D|3D|4DX",
    "City": "Pune",
    "Latitude": "18.5613",
    "Longitude": "73.917",
    "RegionCode": "PUNE",
    "State": "Maharashtra",
    "SubRegionCode": "PUNE",
    "VenueAddress": "2nd Floor, Phoenix Market City, Nagar Road, Viman Nagar, Near Baker Gauges, Pune, Maharashtra 411014, India",
    "VenueCode": "PCMZ",
    "VenueName": "PVR: Phoenix Market City, Pune"
  },
  "PCSE": {
    "AvailableFormats": "2D",
    "City": "Satmile",
    "Latitude": "21.8109",
    "Longitude": "87.6466",
    "RegionCode": "SATI",
    "State": "West Bengal",
    "SubRegionCode": "SATI",
    "VenueAddress": "Contai Road, Kholanashwari, Satmile, West Bengal 721452, India",
    "VenueCode": "PCSE",
    "VenueName": "Prafulla Cinema: Satmile"
  },
  "PDCK": {
    "AvailableFormats": "2D",
    "City": "Kolhapur",
    "Latitude": "16.6981",
    "Longitude": "74.2277",
    "RegionCode": "KOLH",
    "State": "Maharashtra",
    "SubRegionCode": "KOLH",
    "VenueAddress": "1550, C Ward, Laxmipuri, Near Jain Mandir, Opposite K M C College, Kolhapur, Maharashtra 416002, India",
    "VenueCode": "PDCK",
    "VenueName": "Padma Cinema: Kolhapur"
  },
  "PDME": {
    "AvailableFormats": "2D",
    "City": "Solapur",
    "Latitude": "17.6779",
    "Longitude": "75.9135",
    "RegionCode": "SOLA",
    "State": "Maharashtra",
    "SubRegionCode": "SOLA",
    "VenueAddress": "168b, Shaniwar Peth, Ganesh Peth, Sakhar Peth, Solapur, Maharashtra 413005, India",
    "VenueCode": "PDME",
    "VenueName": "Padma Cinema: Solapur"
  },
  "PETA": {
    "AvailableFormats": "2D|3D",
    "City": "Gurugram (Gurgaon)",
    "Latitude": "28.3846",
    "Longitude": "77.0536",
    "RegionCode": "NCR",
    "State": "NCR",
    "SubRegionCode": "GURG",
    "VenueAddress": "4rd Floor Elan Town Centre, Main Sohna Road, Sector 67, Badshapur, Opposite Airia Mall, Gurugram (Gurgaon), NCR 122101, India",
    "VenueCode": "PETA",
    "VenueName": "PVR: Elan Town Centre, Sec 67, Gurugram"
  },
  "PGDA": {
    "AvailableFormats": "2D",
    "City": "Penugonda",
    "Latitude": "16.6563",
    "Longitude": "81.7447",
    "RegionCode": "PDDG",
    "State": "Andhra Pradesh",
    "SubRegionCode": "PDDG",
    "VenueAddress": "Near Sai Ganesh Moblies And Xerox, Pekeru- Penugonda Road, Penugonda, Andhra Pradesh 534320, India",
    "VenueCode": "PGDA",
    "VenueName": "G7 Minerva Theatre: Penugonda"
  },
  "PGRK": {
    "AvailableFormats": "3D|2D",
    "City": "Gorakhpur",
    "Latitude": "26.7552",
    "Longitude": "83.3696",
    "RegionCode": "GRKP",
    "State": "Uttar Pradesh",
    "SubRegionCode": "GRKP",
    "VenueAddress": "PVR Pantaloons Venus Mall Purdilpir, Cinema Road, Gorakhpur, Uttar Pradesh 273001, India",
    "VenueCode": "PGRK",
    "VenueName": "PVR: Venus, Gorakhpur"
  },
  "PIIC": {
    "AvailableFormats": "",
    "City": "Hyderabad",
    "Latitude": "17.4351",
    "Longitude": "78.3867",
    "RegionCode": "HYD",
    "State": "Telangana",
    "SubRegionCode": "HYD",
    "VenueAddress": "5th Floor, APIIC Software Layout, Mindspace, Inorbit Mall, Hitech City, Madhapur, Cyberabad, Hyderabad, Telangana 500081, India",
    "VenueCode": "PIIC",
    "VenueName": "PVR Superplex Inorbit: LUXE, PXL, 4DX: Cyberabad"
  },
  "PJMB": {
    "AvailableFormats": "2D",
    "City": "Barbil",
    "Latitude": "22.0998",
    "Longitude": "85.3849",
    "RegionCode": "BABR",
    "State": "Odisha",
    "SubRegionCode": "BABR",
    "VenueAddress": "Gandhi Chowk, Behind Cinema Theater, Barbil, Odisha 758035, India",
    "VenueCode": "PJMB",
    "VenueName": "PJ Movies: Barbil, Odisha"
  },
  "PKKT": {
    "AvailableFormats": "2D",
    "City": "Trivandrum",
    "Latitude": "8.48714",
    "Longitude": "76.9486",
    "RegionCode": "VKAL",
    "State": "Kerala",
    "SubRegionCode": "VKAL",
    "VenueAddress": "Over Bridge, Mahathma Gandhi Road, Chalai Bazaar, Thiruvananthapuram, Trivandrum, Kerala 695036, India",
    "VenueCode": "PKKT",
    "VenueName": "PVR: Kripa, Thampanoor Trivandrum"
  },
  "PLTD": {
    "AvailableFormats": "4DX|3D|2D|IMAX 2D|4DX 3D",
    "City": "Trivandrum",
    "Latitude": "8.51536",
    "Longitude": "76.8977",
    "RegionCode": "TRIV",
    "State": "Kerala",
    "SubRegionCode": "TRIV",
    "VenueAddress": "91/270 Akkulam Bridge, Anayara Post, Near Jos Alukkas, Trivandrum, Kerala 695029, India",
    "VenueCode": "PLTD",
    "VenueName": "PVR: Lulu, Trivandrum"
  },
  "PMBL": {
    "AvailableFormats": "2D",
    "City": "Bilaspur (Himachal Pradesh)",
    "Latitude": "31.3401",
    "Longitude": "76.7646",
    "RegionCode": "BIPS",
    "State": "Himachal Pradesh",
    "SubRegionCode": "BIPS",
    "VenueAddress": "Purnam The Mall, Kosrian Sector, Shimla-Kangra Road, Bilaspur (Himachal Pradesh), Himachal Pradesh 174001, India",
    "VenueCode": "PMBL",
    "VenueName": "Purnam Multiplex: Bilaspur"
  },
  "PMMH": {
    "AvailableFormats": "2D|3D",
    "City": "Jalandhar",
    "Latitude": "31.3195",
    "Longitude": "75.5845",
    "RegionCode": "JALA",
    "State": "Punjab",
    "SubRegionCode": "JALA",
    "VenueAddress": "4th Floor, MBD Neopolis Mall, Jalandhar Cantt - Jandiala Road, Sehdev Market, Next To Radisson Hotel, Jalandhar, Punjab 144001, India",
    "VenueCode": "PMMH",
    "VenueName": "PVR: MBD, Jalandhar"
  },
  "PMRM": {
    "AvailableFormats": "2D|3D",
    "City": "Raipur",
    "Latitude": "21.2398",
    "Longitude": "81.684",
    "RegionCode": "RAIPUR",
    "State": "Chhattisgarh",
    "SubRegionCode": "RAIPUR",
    "VenueAddress": "2nd floor, Magneto The Mall, GE Road, NH6, Opposite City Mall, Raipur, Chhattisgarh 492001, India",
    "VenueCode": "PMRM",
    "VenueName": "PVR: Magneto Mall, Raipur"
  },
  "PNMR": {
    "AvailableFormats": "3D|2D",
    "City": "Ranchi",
    "Latitude": "23.377",
    "Longitude": "85.3316",
    "RegionCode": "RANC",
    "State": "Jharkhand",
    "SubRegionCode": "RANC",
    "VenueAddress": "4th Floor, Nuclues Mall, Lalpur Circular Road, Next to CJM Residance, Near Women College, Ranchi, Jharkhand 834001, India",
    "VenueCode": "PNMR",
    "VenueName": "PVR: Nucleus Mall, Ranchi"
  },
  "POVI": {
    "AvailableFormats": "2D|3D",
    "City": "Mumbai",
    "Latitude": "19.1738",
    "Longitude": "72.8606",
    "RegionCode": "MUMBAI",
    "State": "Maharashtra",
    "SubRegionCode": "MWEST",
    "VenueAddress": "3rd Floor, Oberoi Mall, Off Western Express Highway, Goregaon(E), Near Indian Oil Petrol Pump, Mumbai, Maharashtra 400063, India",
    "VenueCode": "POVI",
    "VenueName": "PVR ICON: Oberoi Mall, Goregaon (E)"
  },
  "PPLL": {
    "AvailableFormats": "2D",
    "City": "Ludhiana",
    "Latitude": "30.8903",
    "Longitude": "75.849",
    "RegionCode": "LUDH",
    "State": "Punjab",
    "SubRegionCode": "LUDH",
    "VenueAddress": "Link Road Opposite Chevron Hotel, Jammu Colony, Near G.A.Motors, Ludhiana, Punjab 141003, India",
    "VenueCode": "PPLL",
    "VenueName": "Preet Palace: Ludhiana"
  },
  "PPPZ": {
    "AvailableFormats": "2D",
    "City": "Sagar",
    "Latitude": "23.8632",
    "Longitude": "78.8001",
    "RegionCode": "SAMP",
    "State": "Madhya Pradesh",
    "SubRegionCode": "SAMP",
    "VenueAddress": "Jabalpur Road, Shri Nagar Colony, Makroniya, Sagar, Madhya Pradesh 470001, India",
    "VenueCode": "PPPZ",
    "VenueName": "Paradise Platinum Plaza: Sagar"
  },
  "PRCX": {
    "AvailableFormats": "2D|3D",
    "City": "Hyderabad",
    "Latitude": "17.4232",
    "Longitude": "78.4277",
    "RegionCode": "HYD",
    "State": "Telangana",
    "SubRegionCode": "HYD",
    "VenueAddress": "Plot No.1, RK Complex, Road No.2, Oppsite L V Prasad Eye Hospital, Venkat Nagar, Banjara Hills, BNR Colony, Hyderabad, Telangana 500034, India",
    "VenueCode": "PRCX",
    "VenueName": "PVR: RK Cineplex, Hyderabad"
  },
  "PRKT": {
    "AvailableFormats": "2D",
    "City": "Katrenikona",
    "Latitude": "16.5829",
    "Longitude": "82.1534",
    "RegionCode": "KTRN",
    "State": "Andhra Pradesh",
    "SubRegionCode": "KTRN",
    "VenueAddress": "Mahipala Cheruvu - Pallamkurru Road, Near Janapriya Home Needs, Katrenikona, Andhra Pradesh 533212, India",
    "VenueCode": "PRKT",
    "VenueName": "Sri Parameswari Theater: Katrenikona"
  },