{
  "AAAS": {
    "AvailableFormats": "2D|3D",
    "City": "Mumbai",
    "Latitude": "19.2289",
    "Longitude": "72.8542",
    "RegionCode": "MUMBAI",
    "State": "Maharashtra",
    "SubRegionCode": "MWEST",
    "VenueAddress": "4th Floor, Ajanta Square Mall, Lokmanya Tilak Road, Borivali West, Mumbai, Maharashtra 400092, India",
    "VenueCode": "AAAS",
    "VenueName": "Ajanta Cinema Cinex: Borivali (W) Newly Renovated"
  },
  "AADS": {
    "AvailableFormats": "",
    "City": "Kadapa",
    "FirstTracked": "2026-07-14",
    "Latitude": "14.47639",
    "Longitude": "78.83806",
    "RegionCode": "KDPA",
    "State": "Andhra Pradesh",
    "SubRegionCode": "KDPA",
    "VenueAddress": "Kadapa - Tirupati Road, Chinna Chowk, Near Apoorva Wedding Function Hall and Auditorium, Kadapa, Andhra Pradesh 516002, India",
    "VenueCode": "AADS",
    "VenueName": "Apsara A/C 4k Dolby Atmos: Kadapa"
  },
  "AATR": {
    "AvailableFormats": "2D",
    "City": "Erode",
    "Latitude": "11.3326",
    "Longitude": "77.7284",
    "RegionCode": "EROD",
    "State": "Tamil Nadu",
    "SubRegionCode": "EROD",
    "VenueAddress": "Balasubrayalu Street, Surampattivalasu, Near Erode Fire Service, Erode, Tamil Nadu 638001, India",
    "VenueCode": "AATR",
    "VenueName": "Aanoor Theatre A/C Dolby Atmos: Erode"
  },
  "ABDD": {
    "AvailableFormats": "2D|3D",
    "City": "Durgapur",
    "Latitude": "23.5563",
    "Longitude": "87.2745",
    "RegionCode": "DURGA",
    "State": "West Bengal",
    "SubRegionCode": "DURGA",
    "VenueAddress": "Fortune Plaza, 5th Floor, Ananda Gopal Mukherjee Sarani Road, Above Reliance Digital, Near Bhiringi Kali Mandir, Benachity, Durgapur, West Bengal 713213, India",
    "VenueCode": "ABDD",
    "VenueName": "Arti Cinemas, above Pantaloons: Benachity"
  },
  "ACAM": {
    "AvailableFormats": "2D",
    "City": "Ambala",
    "Latitude": "30.3786",
    "Longitude": "76.7636",
    "RegionCode": "AMB",
    "State": "Haryana",
    "SubRegionCode": "AMB",
    "VenueAddress": "City Plaza, 947, Citi Mall, NH 152, Patti Mehar, Ambala, Haryana 134003, India",
    "VenueCode": "ACAM",
    "VenueName": "Ayaan Cinemas: Ambala"
  },
  "ACEV": {
    "AvailableFormats": "2D",
    "City": "Hyderabad",
    "Latitude": "17.338",
    "Longitude": "78.5678",
    "RegionCode": "HYD",
    "State": "Telangana",
    "SubRegionCode": "HYD",
    "VenueAddress": "Door. No.5-5-185 and 5-5-186,Sy.No.53 and 56, 4th Floor, TATTVA MALL, Vanasthalipuram, Saheb Nagar Khurd, Hyderabad, Telangana 500070, India",
    "VenueCode": "ACEV",
    "VenueName": "ART CINEMAS: Vanasthalipuram"
  },
  "ACJC": {
    "AvailableFormats": "",
    "City": "Jalgaon",
    "FirstTracked": "2026-07-14",
    "Latitude": "21.013231",
    "Longitude": "75.56891",
    "RegionCode": "JALG",
    "State": "Maharashtra",
    "SubRegionCode": "JALG",
    "VenueAddress": "Bazaar Post Office Road, Behind Juna Bus Stand, Polan Peth, Shahunagar, Jalgaon, Maharashtra 425001, India",
    "VenueCode": "ACJC",
    "VenueName": "Ashok Cinema: Jalgaon"
  },
  "ACMG": {
    "AvailableFormats": "2D",
    "City": "Maharajganj",
    "Latitude": "27.1334",
    "Longitude": "83.5203",
    "RegionCode": "RAJG",
    "State": "Uttar Pradesh",
    "SubRegionCode": "RAJG",
    "VenueAddress": "Plot No 188, Mahuawa, NPP Maharajganj, Maharajganj, Uttar Pradesh 273303, India",
    "VenueCode": "ACMG",
    "VenueName": "Anant Cineplex: Maharajganj"
  },
  "ACPM": {
    "AvailableFormats": "2D",
    "City": "Hyderabad",
    "Latitude": "17.4676",
    "Longitude": "78.4282",
    "RegionCode": "HYD",
    "State": "Telangana",
    "SubRegionCode": "HYD",
    "VenueAddress": "Street Number 4, SP Nagar, Bharat Nagar,Moosapet, Opposite Sri Ramulu Theatre, Hyderabad, Telangana 500018, India",
    "VenueCode": "ACPM",
    "VenueName": "Asian Lakshmikala Cinepride: Moosapet"
  },
  "ACTV": {
    "AvailableFormats": "2D",
    "City": "Vellore",
    "Latitude": "12.9614",
    "Longitude": "79.1366",
    "RegionCode": "RANI",
    "State": "Tamil Nadu",
    "SubRegionCode": "RANI",
    "VenueAddress": "No 372, Bharathi Nagar, Bharathi Nagar, Katpadi, Vellore, Opposite Indian Overseas Bank, Vellore, Tamil Nadu 632007, India",
    "VenueCode": "ACTV",
    "VenueName": "AASCARS CINEMAS 4K DOLBY 7.1"
  },
  "ACXN": {
    "AvailableFormats": "2D",
    "City": "Nellimoodu",
    "Latitude": "8.38241",
    "Longitude": "77.04",
    "RegionCode": "TRIV",
    "State": "Kerala",
    "SubRegionCode": "TRIV",
    "VenueAddress": "Vizhinjam, Uchakkada Road, Nellimoodu, Kerala 695524, India",
    "VenueCode": "ACXN",
    "VenueName": "Anu Cinemax 4K Atmos: Neyyattinkara, Nellimoodu"
  },
  "ADMB": {
    "AvailableFormats": "",
    "City": "Dhule",
    "FirstTracked": "2026-07-14",
    "Latitude": "20.89633",
    "Longitude": "74.775505",
    "RegionCode": "DHLE",
    "State": "Maharashtra",
    "SubRegionCode": "DHLE",
    "VenueAddress": "Opp. Shriram Petrol Pump, Agra Road, Dhule, Maharashtra 424001, India",
    "VenueCode": "ADMB",
    "VenueName": "BIG Cinemas: Manohar, Dhule"
  },
  "AGSM": {
    "AvailableFormats": "2D",
    "City": "Chennai",
    "Latitude": "13.0601",
    "Longitude": "80.1648",
    "RegionCode": "CHEN",
    "State": "Tamil Nadu",
    "SubRegionCode": "CHEN",
    "VenueAddress": "No 3/47, Alapakkam Main Road, Subramaniapuram, Pallavan Nagar, Chennai, Tamil Nadu 600095, India",
    "VenueCode": "AGSM",
    "VenueName": "AGS Cinemas: Maduravoyal"
  },
  "AKCH": {
    "AvailableFormats": "2D",
    "City": "Kollam",
    "Latitude": "8.81261",
    "Longitude": "76.6716",
    "RegionCode": "KOLM",
    "State": "Kerala",
    "SubRegionCode": "KOLM",
    "VenueAddress": "Paravur, North Paravur Road, Near ValluVally Juma Masjid, Kollam, Kerala 691301, India",
    "VenueCode": "AKCH",
    "VenueName": "Ashok Cine House: Paravur"
  },
  "AKTN": {
    "AvailableFormats": "2D",
    "City": "Kanchipuram",
    "Latitude": "12.8313",
    "Longitude": "79.7091",
    "RegionCode": "KNPM",
    "State": "Tamil Nadu",
    "SubRegionCode": "KNPM",
    "VenueAddress": "Ennaikaran, Railway Road, Kanchipuram, Tamil Nadu 631501, India",
    "VenueCode": "AKTN",
    "VenueName": "Aruna Cinemas RGB Laser 4K AC Dolby Atmos"
  },
  "ALPY": {
    "AvailableFormats": "2D",
    "City": "Pipariya",
    "Latitude": "22.7559",
    "Longitude": "78.3562",
    "RegionCode": "PIPY",
    "State": "Madhya Pradesh",
    "SubRegionCode": "PIPY",
    "VenueAddress": "Near Railway Station, Hoshangabad, Pipariya, Madhya Pradesh 461775, India",
    "VenueCode": "ALPY",
    "VenueName": "Alka Talkies: Pipariya"
  },
  "AMCB": {
    "AvailableFormats": "2D",
    "City": "Shahjahanpur",
    "Latitude": "27.8716",
    "Longitude": "79.9081",
    "RegionCode": "SHJH",
    "State": "Uttar Pradesh",
    "SubRegionCode": "SHJH",
    "VenueAddress": "Aligai, Chamkani, Loharo Wala Chauraha Road, Near Tabeer Resort, Shahjahanpur, Uttar Pradesh 242001, India",
    "VenueCode": "AMCB",
    "VenueName": "Amba Cineplex: Shahjahanpur"
  },
  "AMJN": {
    "AvailableFormats": "3D|2D",
    "City": "Nagpur",
    "Latitude": "21.1037",
    "Longitude": "79.0684",
    "RegionCode": "NAGP",
    "State": "Maharashtra",
    "SubRegionCode": "NAGP",
    "VenueAddress": "26 T3, Jaiprakash Nagar Wardha Road, Sita Nagar Somalwara, Inside Jai Prakash Nagar Metro Station, Nagpur, Maharashtra 440025, India",
    "VenueCode": "AMJN",
    "VenueName": "AM Cinema: Jaiprakash Nagar, Nagpur"
  },
  "AMRT": {
    "AvailableFormats": "2D",
    "City": "Bengaluru",
    "Latitude": "13.0124",
    "Longitude": "77.6263",
    "RegionCode": "BANG",
    "State": "Karnataka",
    "SubRegionCode": "BANG",
    "VenueAddress": "No 1075, Near Lingarajpuram Fly Over, Hennur Main Road, St Thomas Town, Bengaluru, Karnataka 560084, India",
    "VenueCode": "AMRT",
    "VenueName": "Amruth Digital 2K A/C Cinema: Lingarajapuram"
  },
  "ANBL": {
    "AvailableFormats": "2D",
    "City": "Bengaluru",
    "Latitude": "12.9754",
    "Longitude": "77.5589",
    "RegionCode": "HOKT",
    "State": "Karnataka",
    "SubRegionCode": "HOKT",
    "VenueAddress": "No-41/45, Magadi Main Road, Mariyappanapalya, Binnipete, Near Maruthi Suzuki Showroom, Bengaluru, Karnataka 560023, India",
    "VenueCode": "ANBL",
    "VenueName": "Anjan Digital 4K A/C Cinema: Magadi Road"
  },
  "ANKU": {
    "AvailableFormats": "",
    "City": "Kruthivennu",
    "FirstTracked": "2026-07-14",
    "Latitude": "16.396284",
    "Longitude": "81.43835",
    "RegionCode": "KRTH",
    "State": "Andhra Pradesh",
    "SubRegionCode": "KRTH",
    "VenueAddress": "Lakshmipuram, Near HP Petrol Pump, Kruthivennu, Andhra Pradesh 521324, India",
    "VenueCode": "ANKU",
    "VenueName": "Anjana Theatre: Kruthivennu"
  },
  "ANTE": {
    "AvailableFormats": "2D",
    "City": "Bengaluru",
    "Latitude": "12.9763",
    "Longitude": "77.5755",
    "RegionCode": "HOKT",
    "State": "Karnataka",
    "SubRegionCode": "HOKT",
    "VenueAddress": "S.C.Road, Majestic Circle, Gandhinagar, Bengaluru, Karnataka 560009, India",
    "VenueCode": "ANTE",
    "VenueName": "Anupama Theatre A/C 4K Dolby: Gandhinagar"
  },
  "APAS": {
    "AvailableFormats": "",
    "City": "Agra",
    "Latitude": "27.1653",
    "Longitude": "78.0149",
    "RegionCode": "AGRA",
    "State": "Uttar Pradesh",
    "SubRegionCode": "AGRA",
    "VenueAddress": "1 Gwalior Road, Baluganj, Agra Cantt, Near Dasaprakash Hotel, Opposite St George`s School, Agra, Uttar Pradesh 282001, India",
    "VenueCode": "APAS",
    "VenueName": "Meher Theatre: Agra (Laser 4K)"
  },
  "APPO": {
    "AvailableFormats": "",
    "City": "Orai",
    "FirstTracked": "2026-07-14",
    "Latitude": "25.997787",
    "Longitude": "79.46234",
    "RegionCode": "ORAI",
    "State": "Uttar Pradesh",
    "SubRegionCode": "ORAI",
    "VenueAddress": "NH 25, New Patel Nagar, Near Busy Beans Cafe, Orai, Uttar Pradesh 285001, India",
    "VenueCode": "APPO",
    "VenueName": "Archana Palace: Orai"
  },
  "APTD": {
    "AvailableFormats": "2D",
    "City": "Durg",
    "Latitude": "21.1963",
    "Longitude": "81.2845",
    "RegionCode": "DURG",
    "State": "Chhattisgarh",
    "SubRegionCode": "DURG",
    "VenueAddress": "Sindhi Colony, Station Road, Guru Nanak Nagar, Durg, Chhattisgarh 491001, India",
    "VenueCode": "APTD",
    "VenueName": "FUN Cinemas Apsara Talkies: Durg"
  },
  "ARCR": {
    "AvailableFormats": "2D",
    "City": "Peravoor",
    "Latitude": "11.9016",
    "Longitude": "75.7307",
    "RegionCode": "PPVR",
    "State": "Kerala",
    "SubRegionCode": "PPVR",
    "VenueAddress": "Iritty Nedumpoil Road, Near Crystal Mall, Peravoor, Kerala 670673, India",
    "VenueCode": "ARCR",
    "VenueName": "Aura Cinemas: Peravoor"
  },
  "ARRS": {
    "AvailableFormats": "2D|3D",
    "City": "Salem",
    "Latitude": "11.6679",
    "Longitude": "78.1342",
    "RegionCode": "SALM",
    "State": "Tamil Nadu",
    "SubRegionCode": "SALM",
    "VenueAddress": "2-94-95, Meyyanoor Bye-pass Road, Meyyanoor, Near Srivari Shopping Mall, Salem, Tamil Nadu 636701, India",
    "VenueCode": "ARRS",
    "VenueName": "ARRS Multiplex 4K Dolby Audio 7.1.2: Salem"
  },
  "ASCO": {
    "AvailableFormats": "2D",
    "City": "Chhindwara",
    "Latitude": "22.1988",
    "Longitude": "78.7585",
    "RegionCode": "CHIN",
    "State": "Madhya Pradesh",
    "SubRegionCode": "CHIN",
    "VenueAddress": "Neelkamal Mall, Ward No. 2, Bhopal Road, Parasia, Chhindwara, Madhya Pradesh 480441, India",
    "VenueCode": "ASCO",
    "VenueName": "Ascon Multiplex: Parasia"
  },
  "ASJY": {
    "AvailableFormats": "2D",
    "City": "Hyderabad",
    "Latitude": "17.5028",
    "Longitude": "78.3122",
    "RegionCode": "HYD",
    "State": "Telangana",
    "SubRegionCode": "HYD",
    "VenueAddress": "Jyothi Nagar, Ashok Nagar, Chanda Nagar, Opposite TVS Motors, Near Brilliant Junior College, Hyderabad, Telangana 502032, India",
    "VenueCode": "ASJY",
    "VenueName": "Asian Jyothi: RC Puram"
  },
  "ASNT": {
    "AvailableFormats": "2D",
    "City": "Adilabad",
    "Latitude": "19.6748",
    "Longitude": "78.5315",
    "RegionCode": "ADIL",
    "State": "Telangana",
    "SubRegionCode": "ADIL",
    "VenueAddress": "Bhuktapur, Near IDBI Bank, Near Hanuman Temple, Adilabad, Telangana 504001, India",
    "VenueCode": "ASNT",
    "VenueName": "Asian Nataraj: Adilabad"
  },
  "ASSR": {
    "AvailableFormats": "2D",
    "City": "Siddipet",
    "Latitude": "18.0987",
    "Longitude": "78.8522",
    "RegionCode": "SDDP",
    "State": "Telangana",
    "SubRegionCode": "SDDP",
    "VenueAddress": "Aphb Colony, Shivaji Nagar, Hyderabad Road, Siddipet, Telangana 502103, India",
    "VenueCode": "ASSR",
    "VenueName": "Asian Srinivasa Deluxe: Siddipet"
  },
  "ASWT": {
    "AvailableFormats": "2D",
    "City": "Peringamala",
    "Latitude": "8.4146",
    "Longitude": "77.0184",
    "RegionCode": "TRIV",
    "State": "Kerala",
    "SubRegionCode": "TRIV",
    "VenueAddress": "C279+R9J, Pallichal, Vizhinjam Road, Pullannimukku, Peringamala, Kerala 695523, India",
    "VenueCode": "ASWT",
    "VenueName": "Aswathy Cineplus: Peringamala"
  },
  "ATGN": {
    "AvailableFormats": "2D",
    "City": "Bengaluru",
    "Latitude": "12.9737",
    "Longitude": "77.5776",
    "RegionCode": "HOKT",
    "State": "Karnataka",
    "SubRegionCode": "HOKT",
    "VenueAddress": "B.V.K. Ayengar Road, Gandhi Nagar, Near TNB Bank, Bengaluru, Karnataka 560009, India",
    "VenueCode": "ATGN",
    "VenueName": "Abhinay Theatre 4K A/C: Gandhinagar"
  },
  "ATPK": {
    "AvailableFormats": "2D",
    "City": "Palakkad",
    "Latitude": "10.7772",
    "Longitude": "76.6532",
    "RegionCode": "PLKK",
    "State": "Kerala",
    "SubRegionCode": "PLKK",
    "VenueAddress": "Priyadarshini Road, Sultanpet, Near Apex Residence, Palakkad, Kerala 678001, India",
    "VenueCode": "ATPK",
    "VenueName": "Aroma Theatre: Palakkad"
  },
  "ATYY": {
    "AvailableFormats": "",
    "City": "Kottayam",
    "FirstTracked": "2026-07-14",
    "Latitude": "9.586128",
    "Longitude": "76.52411",
    "RegionCode": "KTYM",
    "State": "Kerala",
    "SubRegionCode": "KTYM",
    "VenueAddress": "TB Road, Eerayil Kadavu, Near Asha Theatre, Kottayam, Kerala 686001, India",
    "VenueCode": "ATYY",
    "VenueName": "Anand Theatre Triple Beam 3D: Kottayam"
  },
  "AVDM": {
    "AvailableFormats": "2D",
    "City": "Mahbubnagar",
    "Latitude": "16.7451",
    "Longitude": "77.9918",
    "RegionCode": "JADC",
    "State": "Telangana",
    "SubRegionCode": "JADC",
    "VenueAddress": "Shah Saheb Gutta, Boyapalle Rural, Near Sri Hanuman Temple, Mahbubnagar, Telangana 509001, India",
    "VenueCode": "AVDM",
    "VenueName": "AVD Cinemas: Mahbubnagar"
  },
  "AXMC": {
    "AvailableFormats": "2D",
    "City": "Muvattupuzha",
    "Latitude": "9.98175",
    "Longitude": "76.5787",
    "RegionCode": "MUVA",
    "State": "Kerala",
    "SubRegionCode": "MUVA",
    "VenueAddress": "3rd Floor Grand Centre Mall, Thottumkalpeedika, Muvattupuzha, Kerala 686661, India",
    "VenueCode": "AXMC",
    "VenueName": "Aashirvad Cineplexx, GrandCentreMall: Muvattupuzha"
  },
  "BACS": {
    "AvailableFormats": "2D",
    "City": "Surat",
    "Latitude": "21.214",
    "Longitude": "72.8219",
    "RegionCode": "SURT",
    "State": "Gujarat",
    "SubRegionCode": "SURT",
    "VenueAddress": "72-78, Ved Road, Opposite Ramji Nagar Society, Fatakdawadi, Pandol, Industrial Estate, Katargam, Surat, Gujarat 395004, India",
    "VenueCode": "BACS",
    "VenueName": "Bajrang Cinema: Surat"
  },
  "BATG": {
    "AvailableFormats": "2D",
    "City": "Pondicherry",
    "Latitude": "11.9378",
    "Longitude": "79.8199",
    "RegionCode": "AURV",
    "State": "Tamil Nadu",
    "SubRegionCode": "AURV",
    "VenueAddress": "118,Brindavanam, Kamaraj Salai, Near Thanthai Periyar Statue, Pondicherry, Tamil Nadu 605013, India",
    "VenueCode": "BATG",
    "VenueName": "Balaji Theatre 70MM: Pondicherry"
  },
  "BCBA": {
    "AvailableFormats": "2D",
    "City": "Berachampa",
    "Latitude": "22.6934",
    "Longitude": "88.7022",
    "RegionCode": "BRAC",
    "State": "West Bengal",
    "SubRegionCode": "BRAC",
    "VenueAddress": "Berachampa, Taki Road, 24 PGS (N), Berachampa, West Bengal 743424, India",
    "VenueCode": "BCBA",
    "VenueName": "Banirupa Cinema: Berachampa"
  },
  "BDRB": {
    "AvailableFormats": "2D",
    "City": "Bhuvanagiri",
    "Latitude": "17.5106",
    "Longitude": "78.8893",
    "RegionCode": "BHUV",
    "State": "Telangana",
    "SubRegionCode": "BHUV",
    "VenueAddress": "Bhuvanagiri - Nalgonda Road, Bharpet, Bhuvanagiri, Telangana 508116, India",
    "VenueCode": "BDRB",
    "VenueName": "Badradri Theatre: Bhuvanagiri"
  },
  "BHEL": {
    "AvailableFormats": "2D",
    "City": "Trichy",
    "Latitude": "10.7695",
    "Longitude": "78.7974",
    "RegionCode": "TRIC",
    "State": "Tamil Nadu",
    "SubRegionCode": "TRIC",
    "VenueAddress": "Kamarajapuram BHEL Township, BHEL Tiruchirappali Complex area,Thiruverumbur,Trichy, Near BHEL Training Center, Trichy, Tamil Nadu 620022, India",
    "VenueCode": "BHEL",
    "VenueName": "BHELEC Cinema A/C Dolby 7.1: Trichy"
  },
  "BINT": {
    "AvailableFormats": "2D",
    "City": "Dubrajpur",
    "Latitude": "23.797",
    "Longitude": "87.3776",
    "RegionCode": "DUBR",
    "State": "West Bengal",
    "SubRegionCode": "DUBR",
    "VenueAddress": "Bharat Mata Sangha Road, Birbhum, Near S.J Electronics, Dubrajpur, West Bengal 731132, India",
    "VenueCode": "BINT",
    "VenueName": "Binapani Talkies: Dubrajpur"
  },
  "BKMV": {
    "AvailableFormats": "",
    "City": "Hyderabad",
    "FirstTracked": "2026-07-14",
    "Latitude": "17.343603",
    "Longitude": "78.554214",
    "RegionCode": "AUSH",
    "State": "Telangana",
    "SubRegionCode": "AUSH",
    "VenueAddress": "Gunti Jangaiah Nagar, LB Nagar, Raghavendra Nagar Colony, Opposite Bank Of India, Hyderabad, Telangana 500074, India",
    "VenueCode": "BKMV",
    "VenueName": "BVK Multiplex Vijayalakshmi: LB Nagar"
  },
  "BLMX": {
    "AvailableFormats": "2D",
    "City": "Vadodara",
    "Latitude": "22.3035",
    "Longitude": "73.1383",
    "RegionCode": "ANKV",
    "State": "Gujarat",
    "SubRegionCode": "ANKV",
    "VenueAddress": "Bansal Mall,Gotri - Bhayli Rd, Nilamber Char Rasta,Near, Saiyed Vasna, Gotri, Vadodara, Gujarat 390021, India",
    "VenueCode": "BLMX",
    "VenueName": "Bansal Movieplex Gotri-Vasna Road: Vadodara"
  },
  "BMYK": {
    "AvailableFormats": "",
    "City": "Deralakatte",
    "FirstTracked": "2026-07-14",
    "Latitude": "12.809443",
    "Longitude": "74.884476",
    "RegionCode": "DERA",
    "State": "Karnataka",
    "SubRegionCode": "DERA",
    "VenueAddress": "2nd Floor, Bearys Turning Point, Mangalore University Road, Deralakatte, Ullal, Deralakatte, Karnataka 575022, India",
    "VenueCode": "BMYK",
    "VenueName": "Bharath Cinemas: Bearys Turning Point, Deralakatte"
  },
  "BRTP": {
    "AvailableFormats": "2D",
    "City": "Palasa",
    "Latitude": "18.7661",
    "Longitude": "84.4217",
    "RegionCode": "PALS",
    "State": "Andhra Pradesh",
    "SubRegionCode": "PALS",
    "VenueAddress": "Shivaji Nagar, Kasibugga, Near Mandala Parishat Office, Palasa, Andhra Pradesh 532222, India",
    "VenueCode": "BRTP",
    "VenueName": "Bhaskara Rama A/C Dts: Palasa"
  },
  "BSSO": {
    "AvailableFormats": "2D",
    "City": "Ahmedabad",
    "Latitude": "23.0415",
    "Longitude": "72.4983",
    "RegionCode": "AHD",
    "State": "Gujarat",
    "SubRegionCode": "AHD",
    "VenueAddress": "312-314-315, Times Square Grand, Sindhu Bhavan Marg, Thaltej, Ahmedabad, Gujarat 380059, India",
    "VenueCode": "BSSO",
    "VenueName": "Sanelite Cinemas (Banana Smartplex): SBR, Thaltej"
  },
  "BTKD": {
    "AvailableFormats": "2D",
    "City": "Ongole",
    "Latitude": "15.5466",
    "Longitude": "79.9397",
    "RegionCode": "ONGL",
    "State": "Andhra Pradesh",
    "SubRegionCode": "ONGL",
    "VenueAddress": "GWWQ+JVV, Santhanuthalapadu, Ongole, Andhra Pradesh 523225, India",
    "VenueCode": "BTKD",
    "VenueName": "Sai Balaji A/c Dolby Surround: Santhanutalapadu"
  },
  "CACG": {
    "AvailableFormats": "",
    "City": "Ghumarwin",
    "FirstTracked": "2026-07-14",
    "Latitude": "31.442915",
    "Longitude": "76.719",
    "RegionCode": "GHUM",
    "State": "Himachal Pradesh",
    "SubRegionCode": "GHUM",
    "VenueAddress": "M/s Kritika Enterprises (Citara Plex Pvt. Ltd ), Kuthera Road, Near Post Office, Ghumarwin, Himachal Pradesh 174021, India",
    "VenueCode": "CACG",
    "VenueName": "Citara Cinema: Ghumarwin"
  },
  "CBMU": {
    "AvailableFormats": "3D|2D",
    "City": "Udaipur",
    "Latitude": "24.6123",
    "Longitude": "73.7026",
    "RegionCode": "UDAI",
    "State": "Rajasthan",
    "SubRegionCode": "UDAI",
    "VenueAddress": "4th Floor, The Celebration Mall, Sundercha N.H.- 8, Bhuwana, Opposite Devendra Dham Bhuwan, Udaipur, Rajasthan 313001, India",
    "VenueCode": "CBMU",
    "VenueName": "PVR: Celebration Mall, Udaipur"
  },
  "CCBA": {
    "AvailableFormats": "2D",
    "City": "Bagbahara",
    "Latitude": "21.0506",
    "Longitude": "82.3793",
    "RegionCode": "BBHA",
    "State": "Chhattisgarh",
    "SubRegionCode": "BBHA",
    "VenueAddress": "NH59, Bhawanipatna Raipur Highway, Near Post office, Bagbahara, Chhattisgarh 493449, India",
    "VenueCode": "CCBA",
    "VenueName": "City Cinema: Bagbahara"
  },
  "CCHW": {
    "AvailableFormats": "",
    "City": "Handwara",
    "FirstTracked": "2026-07-14",
    "Latitude": "34.401604",
    "Longitude": "74.27998",
    "RegionCode": "HNDW",
    "State": "Jammu and Kashmir",
    "SubRegionCode": "HNDW",
    "VenueAddress": "Maqbool Abad Khanabal B, Muncipal Committee, Handwara, Jammu and Kashmir 193221, India",
    "VenueCode": "CCHW",
    "VenueName": "Citara Cinemas: Handwara"
  },
  "CCMF": {
    "AvailableFormats": "2D",
    "City": "Charkhi Dadri",
    "Latitude": "28.5937",
    "Longitude": "76.2574",
    "RegionCode": "CCDD",
    "State": "Haryana",
    "SubRegionCode": "CCDD",
    "VenueAddress": "Main Loharu Road, Rose Petals Hotel Restaurant, Charkhi Dadri, Haryana 127306, India",
    "VenueCode": "CCMF",
    "VenueName": "Chhotu Maharaj Cine Cafe: Charkhi Dadri"
  },
  "CCNL": {
    "AvailableFormats": "",
    "City": "Nalbari",
    "FirstTracked": "2026-07-14",
    "Latitude": "26.454315",
    "Longitude": "91.40943",
    "RegionCode": "NALB",
    "State": "Assam",
    "SubRegionCode": "NALB",
    "VenueAddress": "National Highway 31, 5th Floor, Barkura Banekuchi, Nalbari, Assam 781340, India",
    "VenueCode": "CCNL",
    "VenueName": "Chhotu Maharaj Cine Cafe: Nalbari"
  },
  "CCRN": {
    "AvailableFormats": "",
    "City": "Chandrapur",
    "FirstTracked": "2026-07-14",
    "Latitude": "19.7872",
    "Longitude": "79.3843",
    "RegionCode": "CHAN",
    "State": "Maharashtra",
    "SubRegionCode": "CHAN",
    "VenueAddress": "E-cube, Beside Lakshmi Godown Main Road Bamanwada, Taluka rajura, Chandrapur, Maharashtra 442905, India",
    "VenueCode": "CCRN",
    "VenueName": "Chhotu Maharaj: Rajura, Chandrapur"
  },
  "CCXR": {
    "AvailableFormats": "2D",
    "City": "Gurugram (Gurgaon)",
    "Latitude": "28.3933",
    "Longitude": "76.9769",
    "RegionCode": "NCR",
    "State": "NCR",
    "SubRegionCode": "GURG",
    "VenueAddress": "Entertainland Mall, Floreal Towers, Sector 83, Gurugram (Gurgaon), NCR 122012, India",
    "VenueCode": "CCXR",
    "VenueName": "Connplex Cinemas: Luxuriance, Gurgaon"
  },
  "CDWP": {
    "AvailableFormats": "",
    "City": "Surat",
    "FirstTracked": "2026-07-14",
    "Latitude": "21.1957",
    "Longitude": "72.8598",
    "RegionCode": "SURT",
    "State": "Gujarat",
    "SubRegionCode": "SURT",
    "VenueAddress": "4th Floor, DR World Mall, Aai Mata Road, Surat, Gujarat 395010, India",
    "VenueCode": "CDWP",
    "VenueName": "Coconut Cinema DR World Parvat Patiya: Surat"
  },
  "CFBS": {
    "AvailableFormats": "2D|IMAX 2D|4DX|3D",
    "City": "Bengaluru",
    "Latitude": "12.9894",
    "Longitude": "77.7279",
    "RegionCode": "HOKT",
    "State": "Karnataka",
    "SubRegionCode": "HOKT",
    "VenueAddress": "3rd Floor, Nexus Shantiniketan Mall, Opposite Manipal Hospital, ITPL Main Road, Whitefield, Bengaluru, Karnataka 560067, India",
    "VenueCode": "CFBS",
    "VenueName": "Cinepolis: Nexus Shantiniketan, Bengaluru"
  },
  "CGGM": {
    "AvailableFormats": "2D",
    "City": "Kozhikode",
    "Latitude": "11.2581",
    "Longitude": "75.7931",
    "RegionCode": "KOZH",
    "State": "Kerala",
    "SubRegionCode": "KOZH",
    "VenueAddress": "97, Mavoor Road, Arayidathupalam, Near Federal Tower, Kozhikode, Kerala 673016, India",
    "VenueCode": "CGGM",
    "VenueName": "Cinepolis: Gokulam Galleria Mall"
  },
  "CGTT": {
    "AvailableFormats": "",
    "City": "Guntakal",
    "FirstTracked": "2026-07-14",
    "Latitude": "15.166328",
    "Longitude": "77.382965",
    "RegionCode": "GUNL",
    "State": "Andhra Pradesh",
    "SubRegionCode": "GUNL",
    "VenueAddress": "B.S.S. Colony, Tilak Nagar, Guntakal, Andhra Pradesh 515801, India",
    "VenueCode": "CGTT",
    "VenueName": "Chaitanya Theater: Guntakal"
  },
  "CHTH": {
    "AvailableFormats": "2D",
    "City": "Bengaluru",
    "Latitude": "12.9356",
    "Longitude": "77.5616",
    "RegionCode": "HOKT",
    "State": "Karnataka",
    "SubRegionCode": "HOKT",
    "VenueAddress": "Vidyapeeta circle, Katriguppe Main Road, Hanumanthanagar, Near Parekhs Hospital, Bengaluru, Karnataka 560050, India",
    "VenueCode": "CHTH",
    "VenueName": "Chandrodaya Digital 4K Cinema: Vidyapeeta Circle"
  },
  "CICM": {
    "AvailableFormats": "2D",
    "City": "Math Chandipur",
    "Latitude": "22.0886",
    "Longitude": "87.8576",
    "RegionCode": "MPUR",
    "State": "West Bengal",
    "SubRegionCode": "MPUR",
    "VenueAddress": "Mayukh Gift Corner, Nandigram Road, Math Chandipur, West Bengal 721659, India",
    "VenueCode": "CICM",
    "VenueName": "Chitranjali Cinema: Math Chandipur"
  },
  "CIPS": {
    "AvailableFormats": "2D|3D|4DX",
    "City": "Delhi",
    "Latitude": "28.5283",
    "Longitude": "77.2176",
    "RegionCode": "NCR",
    "State": "NCR",
    "SubRegionCode": "DELHI",
    "VenueAddress": "DLF Avenue, Saket District Centre, Plot-A4, Near Marriot Hotel, Saket, Delhi, NCR 110017, India",
    "VenueCode": "CIPS",
    "VenueName": "Cinepolis: DLF Avenue, Saket"
  },
  "CKUA": {
    "AvailableFormats": "2D|3D",
    "City": "Ahmedabad",
    "Latitude": "22.9998",
    "Longitude": "72.658",
    "RegionCode": "AHD",
    "State": "Gujarat",
    "SubRegionCode": "AHD",
    "VenueAddress": "3rd Floor, Near Nirant Cross Road, Metro Station Vastral, Ahmedabad, Gujarat 382418, India",
    "VenueCode": "CKUA",
    "VenueName": "Cinepolis: Kankubag, Vastral, Ahmedabad"
  },
  "CLKP": {
    "AvailableFormats": "",
    "City": "Patna",
    "FirstTracked": "2026-07-14",
    "Latitude": "25.6025",
    "Longitude": "85.1453",
    "RegionCode": "PATN",
    "State": "Bihar",
    "SubRegionCode": "PATN",
    "VenueAddress": "Avnc lifestyles Nutan Complex, Kankarbagh, Near KKrish Hyundai, Patna, Bihar 800020, India",
    "VenueCode": "CLKP",
    "VenueName": "Connplex Cinemas Luxuriance: Kankarbagh, Patna"
  },
  "CMAU": {
    "AvailableFormats": "2D",
    "City": "Abu Road",
    "Latitude": "24.4982",
    "Longitude": "72.766",
    "RegionCode": "ABRD",
    "State": "Rajasthan",
    "SubRegionCode": "ABRD",
    "VenueAddress": "New Town Housing, Revdar Road, Manpur Rural, Abu Road, Rajasthan 307026, India",
    "VenueCode": "CMAU",
    "VenueName": "Cineplus Multiplex: Abu Road"
  },
  "CMHU": {
    "AvailableFormats": "2D",
    "City": "Unnao",
    "Latitude": "26.5391",
    "Longitude": "80.5025",
    "RegionCode": "UNNA",
    "State": "Uttar Pradesh",
    "SubRegionCode": "UNNA",
    "VenueAddress": "Fantasy Motels Pvt Ltd, Hussain Nagar Bypass Road, Unnao, Uttar Pradesh 209801, India",
    "VenueCode": "CMHU",
    "VenueName": "Chhotu Maharaj Cine Cafe:Unnao"
  },
  "CMMN": {
    "AvailableFormats": "",
    "City": "Erode",
    "FirstTracked": "2026-07-14",
    "Latitude": "11.310983",
    "Longitude": "77.66701",
    "RegionCode": "EROD",
    "State": "Tamil Nadu",
    "SubRegionCode": "EROD",
    "VenueAddress": "R.S No 325/3A, Patta No-364, Puthur, Puthuppalayam Village and Pichandampalayam Panchayat, Erode, Tamil Nadu 638112, India",
    "VenueCode": "CMMN",
    "VenueName": "Chhotu Maharaj Cine Cafe: Erode"
  },
  "CMSN": {
    "AvailableFormats": "",
    "City": "Agra",
    "FirstTracked": "2026-07-14",
    "Latitude": "27.2032",
    "Longitude": "77.9671",
    "RegionCode": "AGRA",
    "State": "Uttar Pradesh",
    "SubRegionCode": "AGRA",
    "VenueAddress": "2nd Floor Bhawna Dwarka Street ,Prop. No. Comm 7, Anthem Pocket A Sec, 15 Avas Vikas Sikandra Agra, Agra, Uttar Pradesh 282007, India",
    "VenueCode": "CMSN",
    "VenueName": "Chhotu Maharaj: Sikandra Agra, UP"
  },
  "CMVV": {
    "AvailableFormats": "2D",
    "City": "Varanasi",
    "Latitude": "25.3012",
    "Longitude": "82.9586",
    "RegionCode": "VAR",
    "State": "Uttar Pradesh",
    "SubRegionCode": "VAR",
    "VenueAddress": "Plot No. 237/3, Madauli, Near St.Johns School, Varanasi, Uttar Pradesh 221003, India",
    "VenueCode": "CMVV",
    "VenueName": "Chhotu Maharaj Cine Cafe: Varanasi"
  },
  "CNCS": {
    "AvailableFormats": "2D",
    "City": "Sangamner",
    "Latitude": "19.5948",
    "Longitude": "74.1942",
    "RegionCode": "SMNE",
    "State": "Maharashtra",
    "SubRegionCode": "SMNE",
    "VenueAddress": "2nd Floor, Malpani Multiplex Mall, Gunjalwadi, Sangamner, Maharashtra 422605, India",
    "VenueCode": "CNCS",
    "VenueName": "Connplex Cinemas: Sangamner"
  },
  "CNLP": {
    "AvailableFormats": "3D|2D",
    "City": "Ahmedabad",
    "Latitude": "23.1461",
    "Longitude": "72.5463",
    "RegionCode": "GNAGAR",
    "State": "Gujarat",
    "SubRegionCode": "GNAGAR",
    "VenueAddress": "1st Floor, Master Avenue, Gandhinagar, Near - Vaishnodevi Circle, Ahmedabad, Gujarat 382421, India",
    "VenueCode": "CNLP",
    "VenueName": "Connplex Cinemas (Luxuriance): Vaishnodevi"
  },
  "CNRM": {
    "AvailableFormats": "2D",
    "City": "Bengaluru",
    "Latitude": "12.8759",
    "Longitude": "77.5956",
    "RegionCode": "HOKT",
    "State": "Karnataka",
    "SubRegionCode": "HOKT",
    "VenueAddress": "Royal Meenakshi Mall, Bannerghatta Road, Bengaluru, Karnataka 560076, India",
    "VenueCode": "CNRM",
    "VenueName": "Cinepolis: Royal Meenakshi Mall"
  },
  "CNWJ": {
    "AvailableFormats": "2D|3D",
    "City": "Jaipur",
    "Latitude": "26.8532",
    "Longitude": "75.8048",
    "RegionCode": "JAIP",
    "State": "Rajasthan",
    "SubRegionCode": "JAIP",
    "VenueAddress": "D-Block, Sector 4, JLN Marg, Malviya Nagar, Jaipur, Rajasthan 302017, India",
    "VenueCode": "CNWJ",
    "VenueName": "Cinepolis: World Trade Park Mall, Jaipur"
  },
  "COPG": {
    "AvailableFormats": "2D",
    "City": "Gandhinagar",
    "Latitude": "23.1848",
    "Longitude": "72.6229",
    "RegionCode": "GNAGAR",
    "State": "Gujarat",
    "SubRegionCode": "GNAGAR",
    "VenueAddress": "301-308, Shreeji Signature, Sargasan, Near Reliance Crossroad, Gandhinagar, Gujarat 382028, India",
    "VenueCode": "COPG",
    "VenueName": "Connplex Cinemas (Signature): Gandhinagar"
  },
  "CPCN": {
    "AvailableFormats": "2D",
    "City": "Bijainagar",
    "Latitude": "25.9298",
    "Longitude": "74.6475",
    "RegionCode": "BINW",
    "State": "Rajasthan",
    "SubRegionCode": "BINW",
    "VenueAddress": "Bus Stand Road, Opposite Hotel N Chandra Palace, Bijainagar, Rajasthan 305624, India",
    "VenueCode": "CPCN",
    "VenueName": "Cineplus Cinema: Bijainagar"
  },
  "CPJI": {
    "AvailableFormats": "3D|2D",
    "City": "Jaipur",
    "Latitude": "26.857",
    "Longitude": "75.8051",
    "RegionCode": "JAIP",
    "State": "Rajasthan",
    "SubRegionCode": "JAIP",
    "VenueAddress": "Cinepolis Jewel of India Jaipur, 1st Floor, KH. No.180,181,184,186, Horizon Tower, Jawahar Lal Nehru Marg, Jaipur, Rajasthan 302018, India",
    "VenueCode": "CPJI",
    "VenueName": "Cinepolis: Jewel of India, Jaipur (Newly Opened)"
  },
  "CPLX": {
    "AvailableFormats": "2D",
    "City": "Jeypore",
    "Latitude": "18.8588",
    "Longitude": "82.5902",
    "RegionCode": "JEYP",
    "State": "Odisha",
    "SubRegionCode": "JEYP",
    "VenueAddress": "Industrial Estate, Jeypore Vizianagaram Road, Jeypore, Odisha 764001, India",
    "VenueCode": "CPLX",
    "VenueName": "Celebration Cineplex: Jeypore"
  },
  "CPNS": {
    "AvailableFormats": "2D|3D",
    "City": "Delhi",
    "Latitude": "28.6947",
    "Longitude": "77.1542",
    "RegionCode": "NCR",
    "State": "NCR",
    "SubRegionCode": "DELHI",
    "VenueAddress": "NSP Pacific Mall, NSP Metro Station, Pitampura, Delhi, NCR 110034, India",
    "VenueCode": "CPNS",
    "VenueName": "Cinepolis: Pacific NSP2, Delhi"
  },
  "CPSH": {
    "AvailableFormats": "2D|3D",
    "City": "Jamshedpur",
    "Latitude": "22.785",
    "Longitude": "86.181",
    "RegionCode": "JMDP",
    "State": "Jharkhand",
    "SubRegionCode": "JMDP",
    "VenueAddress": "P and M Hi-Tech City Centre Mall, Millenium Park, Bistupur, Outer Circle Road, Jamshedpur, Jharkhand 831001, India",
    "VenueCode": "CPSH",
    "VenueName": "PJP Cinepolis: Jamshedpur"
  },
  "CPVV": {
    "AvailableFormats": "2D|3D",
    "City": "Thane",
    "Latitude": "19.2085",
    "Longitude": "72.9713",
    "RegionCode": "MUMBAI",
    "State": "Maharashtra",
    "SubRegionCode": "THNE",
    "VenueAddress": "Viviana Mall, Eastern Express Highway, Laxmi Nagar, Thane (West), Beside Jupiter Hospital, Thane, Maharashtra 400606, India",
    "VenueCode": "CPVV",
    "VenueName": "Cinepolis: VIP Viviana Mall, Thane"
  },
  "CRXH": {
    "AvailableFormats": "2D",
    "City": "Halol",
    "Latitude": "22.4966",
    "Longitude": "73.4714",
    "RegionCode": "HALO",
    "State": "Gujarat",
    "SubRegionCode": "HALO",
    "VenueAddress": "Townsquare Mall, 3rd Floor Oppositie Fire Station, Halol, Gujarat 389350, India",
    "VenueCode": "CRXH",
    "VenueName": "Cinemera Multiplex: Halol"
  },
  "CSHM": {
    "AvailableFormats": "2D",
    "City": "Mehsana",
    "Latitude": "23.6178",
    "Longitude": "72.3471",
    "RegionCode": "MEHS",
    "State": "Gujarat",
    "SubRegionCode": "MEHS",
    "VenueAddress": "B110, 1st Floor, Trogon Two, D,Mart Circle, Near Mehsana Bypass Road, Mehsana, Gujarat 384002, India",
    "VenueCode": "CSHM",
    "VenueName": "Connplex Cinemas: D`Mart Circle, Mehsana"
  },
  "CSST": {
    "AvailableFormats": "2D",
    "City": "Ahmedabad",
    "Latitude": "23.0525",
    "Longitude": "72.4807",
    "RegionCode": "AHD",
    "State": "Gujarat",
    "SubRegionCode": "AHD",
    "VenueAddress": "2nd Floor, Shilp The Address,Shilaj Road, SP Ringoad, Thaltej, Ahmedabad, Gujarat 380059, India",
    "VenueCode": "CSST",
    "VenueName": "Connplex Cinemas: Shilaj"
  },
  "CTBG": {
    "AvailableFormats": "",
    "City": "Bagalkot",
    "FirstTracked": "2026-07-14",
    "Latitude": "16.158556",
    "Longitude": "75.65981",
    "RegionCode": "BAGA",
    "State": "Karnataka",
    "SubRegionCode": "BAGA",
    "VenueAddress": "Plot No. 80, 81, Sector 25, Nava Nagar, Behind StateBank of India, Bagalkot, Karnataka 587103, India",
    "VenueCode": "CTBG",
    "VenueName": "Chandan Theatre: Bagalkot"
  },
  "CTMK": {
    "AvailableFormats": "2D",
    "City": "Korba",
    "Latitude": "22.3424",
    "Longitude": "82.6987",
    "RegionCode": "KRBA",
    "State": "Chhattisgarh",
    "SubRegionCode": "KRBA",
    "VenueAddress": "Purani Basti, Rani Road, Near Hotel Satkar Deluxe, Korba, Chhattisgarh 495677, India",
    "VenueCode": "CTMK",
    "VenueName": "Chitra Cinema: Korba"
  },
  "CTRD": {
    "AvailableFormats": "2D",
    "City": "Pune",
    "Latitude": "18.5165",
    "Longitude": "73.8423",
    "RegionCode": "PUNE",
    "State": "Maharashtra",
    "SubRegionCode": "PUNE",
    "VenueAddress": "2nd Floor, R Deccan Mall, Jangli Maharaj Road, Opp Deccan Bus Stand, Pune, Maharashtra 411004, India",
    "VenueCode": "CTRD",
    "VenueName": "City Pride: R Deccan"
  },
  "CVCG": {
    "AvailableFormats": "2D",
    "City": "Gudur",
    "Latitude": "14.1492",
    "Longitude": "79.8469",
    "RegionCode": "GUDR",
    "State": "Andhra Pradesh",
    "SubRegionCode": "GUDR",
    "VenueAddress": "Sri Venkateshwara Cine Complex, Gamallapalem Street, Vivekananda Road, Swarna Bharathi Nagar, Gudur, Andhra Pradesh 524101, India",
    "VenueCode": "CVCG",
    "VenueName": "V Cinemas, Screen 1: Gudur"
  },
  "CWCK": {
    "AvailableFormats": "2D",
    "City": "Katni",
    "Latitude": "23.8007",
    "Longitude": "80.3674",
    "RegionCode": "KATN",
    "State": "Madhya Pradesh",
    "SubRegionCode": "KATN",
    "VenueAddress": "2nd floor, Mittal Mall, Beside Mittal Enclave, Collectorate Road, Katni, Madhya Pradesh 483501, India",
    "VenueCode": "CWCK",
    "VenueName": "Cine Worldz Cinema: Katni"
  },
  "CXMH": {
    "AvailableFormats": "2D",
    "City": "Himmatnagar",
    "Latitude": "23.5823",
    "Longitude": "72.9728",
    "RegionCode": "HIMM",
    "State": "Gujarat",
    "SubRegionCode": "HIMM",
    "VenueAddress": "Devdhan Complex, Sahakari Jin Road, Near Jyoti Supermarket, Himmatnagar, Gujarat 383001, India",
    "VenueCode": "CXMH",
    "VenueName": "Cinemunch Mplex MCR: Himmatnagar"
  },
  "DABA": {
    "AvailableFormats": "2D",
    "City": "Cumbum",
    "Latitude": "9.73105",
    "Longitude": "77.2823",
    "RegionCode": "CMBM",
    "State": "Tamil Nadu",
    "SubRegionCode": "CMBM",
    "VenueAddress": "Angoorpalayam Road, Mani Nagaram, Cumbum, Tamil Nadu 625516, India",
    "VenueCode": "DABA",
    "VenueName": "Deva Bala Sakthi Bala A/C 2K DOLBY Atmos: Cumbum"
  },
  "DCCO": {
    "AvailableFormats": "2D|3D",
    "City": "Nashik",
    "Latitude": "19.9812",
    "Longitude": "73.756",
    "RegionCode": "NASK",
    "State": "Maharashtra",
    "SubRegionCode": "NASK",
    "VenueAddress": "Purab Paschim Plaza, Trimurti Chowk Cidco-9, Opposite Trimurti Chowk Post Office, Nashik, Maharashtra 422008, India",
    "VenueCode": "DCCO",
    "VenueName": "Divya Cinemas: Nashik"
  },
  "DCKC": {
    "AvailableFormats": "2D",
    "City": "Kanichar",
    "Latitude": "11.9054",
    "Longitude": "75.7844",
    "RegionCode": "KANC",
    "State": "Kerala",
    "SubRegionCode": "KANC",
    "VenueAddress": "Dev Associates, Kottiyar Road, Kanichar, Near Kanichar Sree Subrahmanya Temple, Kanichar, Kerala 670674, India",
    "VenueCode": "DCKC",
    "VenueName": "Dev Cinemas: Kanichar"
  },
  "DCTW": {
    "AvailableFormats": "2D",
    "City": "Thane",
    "Latitude": "19.254465",
    "Longitude": "72.985121",
    "RegionCode": "THNE",
    "State": "Maharashtra",
    "SubRegionCode": "THNE",
    "VenueAddress": "Hiranandani Estate, Villa Grand Road, Thane, Maharashtra 400607, India",
    "VenueCode": "DCTW",
    "VenueName": "Devgn CineX: The Walk, Thane"
  },
  "DEES": {
    "AvailableFormats": "2D",
    "City": "Markapur",
    "Latitude": "15.7435",
    "Longitude": "79.2716",
    "RegionCode": "MARK",
    "State": "Andhra Pradesh",
    "SubRegionCode": "MARK",
    "VenueAddress": "Bharathi Vidya Nikethan Road, Near Viswa Shanthi School Hostel, Markapur, Andhra Pradesh 523316, India",
    "VenueCode": "DEES",
    "VenueName": "Jagadeeswari Theatre A/C 4K Dolby Atmos: Markapur"
  },
  "DGCA": {
    "AvailableFormats": "2D",
    "City": "Rangia",
    "Latitude": "26.4422",
    "Longitude": "91.6094",
    "RegionCode": "RAAA",
    "State": "Assam",
    "SubRegionCode": "RAAA",
    "VenueAddress": "Ward No. 2, Station Road, Kamrup, Rangia, Assam 781365, India",
    "VenueCode": "DGCA",
    "VenueName": "Delight Gold Cinema Hall: Rangia"
  },
  "DJYA": {
    "AvailableFormats": "2D",
    "City": "Angul",
    "Latitude": "20.8326",
    "Longitude": "85.0889",
    "RegionCode": "ANGL",
    "State": "Odisha",
    "SubRegionCode": "ANGL",
    "VenueAddress": "Hatisalapada, National Highway 42, Angul, Odisha 759106, India",
    "VenueCode": "DJYA",
    "VenueName": "Divyajyoti Multiplex 2 (Dolby Atmos): Angul"
  },
  "DMAN": {
    "AvailableFormats": "2D",
    "City": "Anand",
    "Latitude": "22.5632",
    "Longitude": "72.9527",
    "RegionCode": "PETL",
    "State": "Gujarat",
    "SubRegionCode": "PETL",
    "VenueAddress": "100 Feet Road, Beside Vegetable Market, Ganesh Colony, Anand, Gujarat 388001, India",
    "VenueCode": "DMAN",
    "VenueName": "Diya Cinema: Anand"
  },
  "DNKM": {
    "AvailableFormats": "2D",
    "City": "Kollam",
    "Latitude": "8.89143",
    "Longitude": "76.6034",
    "RegionCode": "KOLM",
    "State": "Kerala",
    "SubRegionCode": "KOLM",
    "VenueAddress": "Kadapakkada, Kappalandimukku - Kadappakkada Road, Near The Hindu News Paper, Kollam, Kerala 691008, India",
    "VenueCode": "DNKM",
    "VenueName": "Dhanya Remya: Kollam"
  },
  "DRCR": {
    "AvailableFormats": "",
    "City": "Mansa",
    "FirstTracked": "2026-07-14",
    "Latitude": "30.020473",
    "Longitude": "75.39797",
    "RegionCode": "MNSA",
    "State": "Punjab",
    "SubRegionCode": "MNSA",
    "VenueAddress": "Grand Mall, Barnala - Mansa Sisra Road, Near Nehru Collage, Mansa, Punjab 151505, India",
    "VenueCode": "DRCR",
    "VenueName": "Dream Reality Cinema: Mansa"
  },
  "DTCK": {
    "AvailableFormats": "2D",
    "City": "Kalimpong",
    "Latitude": "27.0648",
    "Longitude": "88.4667",
    "RegionCode": "KALI",
    "State": "West Bengal",
    "SubRegionCode": "KALI",
    "VenueAddress": "9th Mile, Trimoti Shopping complex, Mongbol Busty, Alipurduar Road, Rishi Road, Near Hotel Jiwan Jyoti, Kalimpong, West Bengal 734301, India",
    "VenueCode": "DTCK",
    "VenueName": "Dream Theatre Cineplex: Kalimpong"
  },
  "DURG": {
    "AvailableFormats": "2D",
    "City": "Banki",
    "Latitude": "20.3791",
    "Longitude": "85.531",
    "RegionCode": "BANK",
    "State": "Odisha",
    "SubRegionCode": "BANK",
    "VenueAddress": "Near SBI Bank, Cuttack - Banki Road, Banki, Odisha 754008, India",
    "VenueCode": "DURG",
    "VenueName": "Durga Talkies: Banki"
  },
  "DXEC": {
    "AvailableFormats": "",
    "City": "Ottapalam",
    "FirstTracked": "2026-07-14",
    "Latitude": "10.7413",
    "Longitude": "76.3901",
    "RegionCode": "THSR",
    "State": "Kerala",
    "SubRegionCode": "THSR",
    "VenueAddress": "Chelakkara, Kondazhi Mayannur Road, Ottapalam, Kerala 679105, India",
    "VenueCode": "DXEC",
    "VenueName": "Dreamax E Cinemas: Mayannur"
  },
  "ECPP": {
    "AvailableFormats": "2D|3D",
    "City": "Pune",
    "Latitude": "18.6285",
    "Longitude": "73.7841",
    "RegionCode": "PUNE",
    "State": "Maharashtra",
    "SubRegionCode": "PUNE",
    "VenueAddress": "2nd Floor, Elpro City Square Mall, Pimpri Chinchwad Link Road, Pune, Maharashtra 411033, India",
    "VenueCode": "ECPP",
    "VenueName": "INOX: Elpro City Square, Chinchwad"
  },
  "EKCM": {
    "AvailableFormats": "2D",
    "City": "Kusumgram",
    "Latitude": "23.3893",
    "Longitude": "88.1318",
    "RegionCode": "KKKL",
    "State": "West Bengal",
    "SubRegionCode": "KKKL",
    "VenueAddress": "SH 8, Kusumgram, Belgram Bolgona Kalna Road, Opposite Bandhan Bank, Kusumgram, West Bengal 713422, India",
    "VenueCode": "EKCM",
    "VenueName": "Ekta Manch: Kusumgram"
  },
  "EMPN": {
    "AvailableFormats": "",
    "City": "Pulgaon",
    "FirstTracked": "2026-07-14",
    "Latitude": "20.725908",
    "Longitude": "78.31447",
    "RegionCode": "PUON",
    "State": "Maharashtra",
    "SubRegionCode": "PUON",
    "VenueAddress": "Empress Mall, Gandhi Nagar, Pulgaon Road, Near Pulgaon Railway Station, Pulgaon, Maharashtra 442303, India",
    "VenueCode": "EMPN",
    "VenueName": "Empress Cinema: Pulgaon"
  },
  "ESBD": {
    "AvailableFormats": "2D",
    "City": "Beed",
    "Latitude": "18.9946",
    "Longitude": "75.7533",
    "RegionCode": "BEED",
    "State": "Maharashtra",
    "SubRegionCode": "BEED",
    "VenueAddress": "Shahu Nagar, Pangri Road, Near Bus Stand, Beed, Maharashtra 431122, India",
    "VenueCode": "ESBD",
    "VenueName": "Santoshimata: Beed"
  },
  "ESVP": {
    "AvailableFormats": "2D",
    "City": "Pune",
    "Latitude": "18.511",
    "Longitude": "73.8801",
    "RegionCode": "PUNE",
    "State": "Maharashtra",
    "SubRegionCode": "PUNE",
    "VenueAddress": "2429, Gen Thimayya Road, Camp, opposite Kayani Bakery, Pune, Maharashtra 411001, India",
    "VenueCode": "ESVP",
    "VenueName": "Victory Theatre: Camp, Pune"
  },
  "EVMP": {
    "AvailableFormats": "2D",
    "City": "Kochi",
    "Latitude": "10.1113",
    "Longitude": "76.4742",
    "RegionCode": "KOCH",
    "State": "Kerala",
    "SubRegionCode": "KOCH",
    "VenueAddress": "old kaala vayal, Perumbavoor, Kochi, Kerala 683542, India",
    "VenueCode": "EVMP",
    "VenueName": "EVM Cinema A/C 4K RGB Laser 3D: Perumbavoor"
  },
  "FCHP": {
    "AvailableFormats": "",
    "City": "Kolkata",
    "FirstTracked": "2026-07-14",
    "Latitude": "22.483189",
    "Longitude": "88.39094",
    "RegionCode": "KOLK",
    "State": "West Bengal",
    "SubRegionCode": "KOLK",
    "VenueAddress": "Metropolis Mall Hiland Park, Eastern Metropolitan Bypass Chakgaria, Opp Peerless Hospital, Kolkata, West Bengal 700020, India",
    "VenueCode": "FCHP",
    "VenueName": "INOX: Hiland Park"
  },
  "FCTB": {
    "AvailableFormats": "",
    "City": "Talwandi Bhai",
    "FirstTracked": "2026-07-14",
    "Latitude": "30.859259",
    "Longitude": "74.92114",
    "RegionCode": "TALW",
    "State": "Punjab",
    "SubRegionCode": "TALW",
    "VenueAddress": "Karmitti Road, Dist. Ferozepur, Talwandi Bhai, Punjab 142050, India",
    "VenueCode": "FCTB",
    "VenueName": "Fun Cineplex: Talwandi Bhai"
  },
  "FMFB": {
    "AvailableFormats": "2D",
    "City": "Bengaluru",
    "Latitude": "12.9608",
    "Longitude": "77.7481",
    "RegionCode": "BANG",
    "State": "Karnataka",
    "SubRegionCode": "BANG",
    "VenueAddress": "No.62, 2nd Floor, Nexus, Whitefield Main Road, Whitefield, Near Citi Bank ATM, Bengaluru, Karnataka 560066, India",
    "VenueCode": "FMFB",
    "VenueName": "INOX: Nexus, Whitefield"
  },
  "FMVS": {
    "AvailableFormats": "",
    "City": "Navi Mumbai",
    "FirstTracked": "2026-07-14",
    "Latitude": "19.06411",
    "Longitude": "72.99694",
    "RegionCode": "MUMBAI",
    "State": "Maharashtra",
    "SubRegionCode": "THAN",
    "VenueAddress": "3rd Floor, Raghuleela Mall, Sector 30, Vashi, Opposite Vashi Railway Station, Navi Mumbai, Maharashtra 400703, India",
    "VenueCode": "FMVS",
    "VenueName": "INOX: Raghuleela Mall, Vashi"
  },
  "FNCO": {
    "AvailableFormats": "2D",
    "City": "Coimbatore",
    "Latitude": "11.0247",
    "Longitude": "77.0104",
    "RegionCode": "COIM",
    "State": "Tamil Nadu",
    "SubRegionCode": "COIM",
    "VenueAddress": "Peelamedu, Avinashi Road, Peelamedu, Near PSGR Krishnammal College, Coimbatore, Tamil Nadu 641004, India",
    "VenueCode": "FNCO",
    "VenueName": "Cinepolis: Fun Republic Mall, Coimbatore"
  },
  "FNSD": {
    "AvailableFormats": "2D|3D",
    "City": "Delhi",
    "Latitude": "28.6574",
    "Longitude": "77.3023",
    "RegionCode": "NCR",
    "State": "NCR",
    "SubRegionCode": "DELHI",
    "VenueAddress": "Cross River Mall, Central Business,Shahdara, Near Karkardooma Court, Delhi, NCR 110032, India",
    "VenueCode": "FNSD",
    "VenueName": "Cinepolis: Cross River Mall, Shahdara"
  },
  "FSCK": {
    "AvailableFormats": "2D|IMAX 2D|3D",
    "City": "Kolkata",
    "Latitude": "22.5014",
    "Longitude": "88.3616",
    "RegionCode": "KOLK",
    "State": "West Bengal",
    "SubRegionCode": "KOLK",
    "VenueAddress": "375, South City Mall, Prince Anwar Shah Road, Opposite Central Bank of India, Kolkata, West Bengal 700068, India",
    "VenueCode": "FSCK",
    "VenueName": "INOX: South City, Kolkata"
  },
  "G3SR": {
    "AvailableFormats": "2D|3D",
    "City": "Delhi",
    "Latitude": "28.7351",
    "Longitude": "77.1135",
    "RegionCode": "NCR",
    "State": "NCR",
    "SubRegionCode": "DELHI",
    "VenueAddress": "Level 2, Sector-11, Rohini, Inside Garg Trade, Delhi, NCR 110085, India",
    "VenueCode": "G3SR",
    "VenueName": "G3S Cinema: Rohini (Newly Renovated)"
  },
  "GAPR": {
    "AvailableFormats": "",
    "City": "Ongole",
    "FirstTracked": "2026-07-14",
    "Latitude": "15.51993",
    "Longitude": "80.04735",
    "RegionCode": "ADKI",
    "State": "Andhra Pradesh",
    "SubRegionCode": "ADKI",
    "VenueAddress": "Guntur Road, Gopal Nagar, Ongole, Andhra Pradesh 523001, India",
    "VenueCode": "GAPR",
    "VenueName": "G2V Theaters, Ravi Priya Mall: Ongole"
  },
  "GBTG": {
    "AvailableFormats": "2D",
    "City": "Gudivada",
    "Latitude": "16.4305",
    "Longitude": "80.9914",
    "RegionCode": "GUDI",
    "State": "Andhra Pradesh",
    "SubRegionCode": "GUDI",
    "VenueAddress": "Satyanarayana Puram, Pillalamari Street, Gudivada, Andhra Pradesh 521301, India",
    "VenueCode": "GBTG",
    "VenueName": "G3 Bhaskar Talkies: Gudivada"
  },
  "GCDC": {
    "AvailableFormats": "",
    "City": "Dabra",
    "FirstTracked": "2026-07-14",
    "Latitude": "25.886345",
    "Longitude": "78.33501",
    "RegionCode": "DABR",
    "State": "Madhya Pradesh",
    "SubRegionCode": "DABR",
    "VenueAddress": "Geeta Talkies Road, Near Shree Krishna Dairy, Subhash Ganj, Darshan Colony, Dabra, Madhya Pradesh 475110, India",
    "VenueCode": "GCDC",
    "VenueName": "Geeta Cineplex: Dabra"
  },
  "GCGD": {
    "AvailableFormats": "",
    "City": "Gwalior",
    "FirstTracked": "2026-07-14",
    "Latitude": "26.205128",
    "Longitude": "78.18938",
    "RegionCode": "GWAL",
    "State": "Madhya Pradesh",
    "SubRegionCode": "GWAL",
    "VenueAddress": "Plot no. 1, City Centre, Madhavrao Scindia Marg, Near HDFC Bank and Cafe Coffee Day City Center, Tulsi Vihar Colony, Gwalior, Madhya Pradesh 474011, India",
    "VenueCode": "GCGD",
    "VenueName": "Gold Cinema: Gwalior"
  },
  "GCMG": {
    "AvailableFormats": "2D",
    "City": "Mumbai",
    "Latitude": "19.1917",
    "Longitude": "72.8204",
    "RegionCode": "MUMBAI",
    "State": "Maharashtra",
    "SubRegionCode": "MWEST",
    "VenueAddress": "Savera Heights, Gate No.5, Bank of India Building, Abdul Hamid Marg, Malvani Road, Opposite Malvani Police Station, Mumbai, Maharashtra 400095, India",
    "VenueCode": "GCMG",
    "VenueName": "Gold Cinema: Malad Malvani"
  },
  "GCSD": {
    "AvailableFormats": "2D",
    "City": "Sardulgarh",
    "Latitude": "29.721",
    "Longitude": "75.2455",
    "RegionCode": "SARD",
    "State": "Punjab",
    "SubRegionCode": "SARD",
    "VenueAddress": "Rori Road, Near Bus Stand, Sardulewala, Sardulgarh, Punjab 125201, India",
    "VenueCode": "GCSD",
    "VenueName": "Golden Cinemas: Sardulgarh"
  },
  "GDAN": {
    "AvailableFormats": "2D|3D",
    "City": "Anand",
    "Latitude": "22.5523",
    "Longitude": "72.9399",
    "RegionCode": "PETL",
    "State": "Gujarat",
    "SubRegionCode": "PETL",
    "VenueAddress": "Block A, 3rd Floor, Opp. Dena Parivar, Anand Vidya Nagar Road, Near Giny and Jony, Anand, Gujarat 388001, India",
    "VenueCode": "GDAN",
    "VenueName": "Gold Cinema: Anand"
  },
  "GDCU": {
    "AvailableFormats": "",
    "City": "Una",
    "FirstTracked": "2026-07-14",
    "Latitude": "31.433987",
    "Longitude": "76.32296",
    "RegionCode": "BEEL",
    "State": "Himachal Pradesh",
    "SubRegionCode": "BEEL",
    "VenueAddress": "8 Miles Stone, Behdala, Una, Himachal Pradesh 174306, India",
    "VenueCode": "GDCU",
    "VenueName": "Grand Cinemaz: Una @ The Gulmohar"
  },
  "GDTH": {
    "AvailableFormats": "3D|2D",
    "City": "Thane",
    "Latitude": "19.1905",
    "Longitude": "72.9766",
    "RegionCode": "MUMBAI",
    "State": "Maharashtra",
    "SubRegionCode": "THNE",
    "VenueAddress": "Prabhat Plaza, 3rd Floor, Station Road, Shivaji Road, Near Talao Pali, Thane, Maharashtra 400601, India",
    "VenueCode": "GDTH",
    "VenueName": "Gold  Cinema: Shivaji Road, Thane (W)"
  },
  "GGCS": {
    "AvailableFormats": "2D",
    "City": "Seethathodu",
    "Latitude": "9.325442",
    "Longitude": "76.969631",
    "RegionCode": "SXCF",
    "State": "Kerala",
    "SubRegionCode": "SXCF",
    "VenueAddress": "Gavi Shopping Complex, Chittar, Angamoozhy Road, Seethathodu, Kerala 689667, India",
    "VenueCode": "GGCS",
    "VenueName": "Gavi Galaxi Cinemas: Seethathodu"
  },
  "GHZB": {
    "AvailableFormats": "",
    "City": "Ghaziabad",
    "FirstTracked": "2026-07-14",
    "Latitude": "28.708088",
    "Longitude": "77.291626",
    "RegionCode": "NCR",
    "State": "NCR",
    "SubRegionCode": "GHAZ",
    "VenueAddress": "Loni Road, Harijan Basti, Raj Nagar, Gokalpur, Ghaziabad, NCR 110094, India",
    "VenueCode": "GHZB",
    "VenueName": "Meenakshi Cherish Cinema: Ghaziabad"
  },
  "GKKC": {
    "AvailableFormats": "",
    "City": "Chennai",
    "FirstTracked": "2026-07-14",
    "Latitude": "13.049656",
    "Longitude": "80.19342",
    "RegionCode": "CHEN",
    "State": "Tamil Nadu",
    "SubRegionCode": "CHEN",
    "VenueAddress": "No.71/2, Yadaval Street,Virugambakkam, Chennai, Tamil Nadu 600092, India",
    "VenueCode": "GKKC",
    "VenueName": "Sri Devi Karumari Cinemas RGB LASER DOLBY ATMOS"
  },
  "GMGX": {
    "AvailableFormats": "2D",
    "City": "Ghaziabad",
    "Latitude": "28.6549",
    "Longitude": "77.3452",
    "RegionCode": "MRDG",
    "State": "NCR",
    "SubRegionCode": "MRDG",
    "VenueAddress": "Galaxie Mall, Local Road for JILIT Ltd, Sahibabad, Madan Mohan Malviya Marg, Sahibabad Industrial Area Site 4, Opposite Gulmohar Grand, Ghaziabad, NCR 201010, India",
    "VenueCode": "GMGX",
    "VenueName": "Galaxie Multiplex: Ghaziabad"
  },
  "GOKU": {
    "AvailableFormats": "2D",
    "City": "Hyderabad",
    "Latitude": "17.4536",
    "Longitude": "78.4344",
    "RegionCode": "HYD",
    "State": "Telangana",
    "SubRegionCode": "HYD",
    "VenueAddress": "Main Road, Vikaspuri, Erragadda, Beside Nexa Maruthi Showroom, Hyderabad, Telangana 500018, India",
    "VenueCode": "GOKU",
    "VenueName": "Gokul 70MM 4K DTS: Erragadda"
  },
  "GPKA": {
    "AvailableFormats": "2D",
    "City": "Seoni",
    "Latitude": "22.0777",
    "Longitude": "79.5459",
    "RegionCode": "SEON",
    "State": "Madhya Pradesh",
    "SubRegionCode": "SEON",
    "VenueAddress": "Gopika Cinema and Shopping Mall, Nagpur Road, Seoni, Madhya Pradesh 480661, India",
    "VenueCode": "GPKA",
    "VenueName": "Gopika Cinema: Seoni"
  },
  "GRDC": {
    "AvailableFormats": "",
    "City": "Jalandhar",
    "FirstTracked": "2026-07-14",
    "Latitude": "31.287695",
    "Longitude": "75.66471",
    "RegionCode": "JALA",
    "State": "Punjab",
    "SubRegionCode": "JALA",
    "VenueAddress": "3rd Floor Viva Collage Mall, GT Road, Jalandhar, Punjab 144001, India",
    "VenueCode": "GRDC",
    "VenueName": "GRD Cinemas: Jalandhar, Punjab"
  },
  "GSVA": {
    "AvailableFormats": "2D",
    "City": "Akividu",
    "Latitude": "16.5838",
    "Longitude": "81.3862",
    "RegionCode": "AKVD",
    "State": "Andhra Pradesh",
    "SubRegionCode": "AKVD",
    "VenueAddress": "Near HP Petrol Pump, PP Road, Beside Ambica Rice Merchants, Akividu, Andhra Pradesh 534235, India",
    "VenueCode": "GSVA",
    "VenueName": "G6 Sri Venkata Gangaratnam Theatre: Akividu"
  },
  "GTEE": {
    "AvailableFormats": "2D",
    "City": "Nagpur",
    "Latitude": "21.2155",
    "Longitude": "79.1947",
    "RegionCode": "NAGP",
    "State": "Maharashtra",
    "SubRegionCode": "NAGP",
    "VenueAddress": "Near Swank Agarbatti, Husainabad, Shiv Panchayat Nagar, Nagpur, Maharashtra 441001, India",
    "VenueCode": "GTEE",
    "VenueName": "Goyal Talkies: Kamptee"
  },
  "GTTT": {
    "AvailableFormats": "2D",
    "City": "Ooty",
    "Latitude": "11.406",
    "Longitude": "76.701",
    "RegionCode": "OOTY",
    "State": "Tamil Nadu",
    "SubRegionCode": "OOTY",
    "VenueAddress": "Ganapathy Theatre Road, Upper Bazar, Ooty, Tamil Nadu 643001, India",
    "VenueCode": "GTTT",
    "VenueName": "Ganapathy Theatre: Ooty"
  },
  "GXYN": {
    "AvailableFormats": "2D",
    "City": "Nawapara",
    "Latitude": "20.9732",
    "Longitude": "81.8549",
    "RegionCode": "NAWA",
    "State": "Chhattisgarh",
    "SubRegionCode": "NAWA",
    "VenueAddress": "Nawapara Nagar, Abhanpur-Rajim Road, Near HP Petrol Pump, Nawapara, Chhattisgarh 493881, India",
    "VenueCode": "GXYN",
    "VenueName": "Galaxy Cinema: Nawapara"
  },
  "HCAD": {
    "AvailableFormats": "2D",
    "City": "Vadodara",
    "Latitude": "22.2669",
    "Longitude": "73.2225",
    "RegionCode": "VAD",
    "State": "Gujarat",
    "SubRegionCode": "VAD",
    "VenueAddress": "4th Floor, Siddharth Magnum Plus, Tarsali Danteshwar Ring Road, Beside Bansal Mall, Tarsali, Vadodara, Gujarat 390009, India",
    "VenueCode": "HCAD",
    "VenueName": "Havelock Cineflix: Tarsali, Vadodara"
  },
  "HFSV": {
    "AvailableFormats": "2D",
    "City": "Vasco Da Gama",
    "Latitude": "15.4",
    "Longitude": "73.8143",
    "RegionCode": "GOA",
    "State": "Goa",
    "SubRegionCode": "VAGG",
    "VenueAddress": "Vaddem, New Vaddem, FL  Gomes Road, Near Corporation Bank, Vasco Da Gama, Goa 403802, India",
    "VenueCode": "HFSV",
    "VenueName": "Z Square Cine Shivam: Vasco Da Gama"
  },
  "HMHD": {
    "AvailableFormats": "2D|3D",
    "City": "Hyderabad",
    "Latitude": "17.4445",
    "Longitude": "78.3882",
    "RegionCode": "HYD",
    "State": "Telangana",
    "SubRegionCode": "HYD",
    "VenueAddress": "Hitech City Road, Sri Sai Nagar, Madhapur, Near State Bank Of India, Hyderabad, Telangana 500034, India",
    "VenueCode": "HMHD",
    "VenueName": "BR Hitech 70mm: Madhapur"
  },
  "HVCA": {
    "AvailableFormats": "2D",
    "City": "Ahmedabad",
    "Latitude": "23.0115",
    "Longitude": "72.5976",
    "RegionCode": "AHD",
    "State": "Gujarat",
    "SubRegionCode": "AHD",
    "VenueAddress": "1st Floor, Eka Club by TransStadia, Kankaria Lake, Opposite Gate No.3, Ahmedabad, Gujarat 380022, India",
    "VenueCode": "HVCA",
    "VenueName": "Havelock Cineflix Cinemas: Maninagar, Ahmedabad"
  },
  "IDEN": {
    "AvailableFormats": "2D",
    "City": "Delhi",
    "Latitude": "28.5513",
    "Longitude": "77.2515",
    "RegionCode": "NCR",
    "State": "NCR",
    "SubRegionCode": "DELHI",
    "VenueAddress": "Lower Ground Floor, Epicuria, TDI South Bridge, Nehru Place Metro Station, PD Area, Delhi, NCR 110019, India",
    "VenueCode": "IDEN",
    "VenueName": "INOX: Insignia At Epicuria, Nehru Place"
  },
  "ILCM": {
    "AvailableFormats": "3D|2D",
    "City": "Lucknow",
    "Latitude": "26.8886",
    "Longitude": "81.0554",
    "RegionCode": "LUCK",
    "State": "Uttar Pradesh",
    "SubRegionCode": "LUCK",
    "VenueAddress": "INOX  Leisure LTD, 3rd Floor, Crown Mall, Faizabad Road, Atif Vihar, Opposite BBD University, Lucknow, Uttar Pradesh 226028, India",
    "VenueCode": "ILCM",
    "VenueName": "INOX: Crown Mall, Lucknow"
  },
  "IMJW": {
    "AvailableFormats": "3D|2D|IMAX 2D",
    "City": "Mumbai",
    "Latitude": "19.066",
    "Longitude": "72.8668",
    "RegionCode": "MUMBAI",
    "State": "Maharashtra",
    "SubRegionCode": "MWEST",
    "VenueAddress": "3rd Floor, Jio World Plaza, G Block BKC, Bandra Kurla Complex, Bandra East, Mumbai, Maharashtra 400055, India",
    "VenueCode": "IMJW",
    "VenueName": "Maison INOX: Jio World Plaza, BKC"
  },
  "INAC": {
    "AvailableFormats": "2D|3D",
    "City": "Ajmer",
    "Latitude": "26.5147",
    "Longitude": "74.6339",
    "RegionCode": "AJMER",
    "State": "Rajasthan",
    "SubRegionCode": "AJMER",
    "VenueAddress": "3rd Floor, City Square Mall, A Block Panchsheel Colony, Makarwali Road, Ajmer, Rajasthan 305004, India",
    "VenueCode": "INAC",
    "VenueName": "INOX: City Square Mall, Ajmer"
  },
  "INBL": {
    "AvailableFormats": "2D|3D",
    "City": "Belagavi (Belgaum)",
    "Latitude": "15.8531",
    "Longitude": "74.5092",
    "RegionCode": "BELG",
    "State": "Karnataka",
    "SubRegionCode": "BELG",
    "VenueAddress": "Near BSNL Office, Head Post Office Road, Belgaum Camp, Near BSNL office, Belagavi (Belgaum), Karnataka 590001, India",
    "VenueCode": "INBL",
    "VenueName": "INOX: Camp Road, Belagavi"
  },
  "INCS": {
    "AvailableFormats": "3D|2D",
    "City": "Cuttack",
    "Latitude": "20.4613",
    "Longitude": "85.8691",
    "RegionCode": "CUTT",
    "State": "Odisha",
    "SubRegionCode": "CUTT",
    "VenueAddress": "SGBL Square,Town Hall Road, Unit No. 15, Choudhury Bazar, Cuttack, Odisha 753009, India",
    "VenueCode": "INCS",
    "VenueName": "INOX: Cuttack SGBL Square Mall"
  },
  "INGW": {
    "AvailableFormats": "2D|3D",
    "City": "Gwalior",
    "Latitude": "26.2162",
    "Longitude": "78.185",
    "RegionCode": "GWAL",
    "State": "Madhya Pradesh",
    "SubRegionCode": "GWAL",
    "VenueAddress": "2nd Floor, DB Mall, Race course Road, Old MPSRTC Work Station, Opposite Gwalior Railway Station, Gwalior, Madhya Pradesh 474002, India",
    "VenueCode": "INGW",
    "VenueName": "INOX: DB Mall, Gwalior"
  },
  "INKS": {
    "AvailableFormats": "2D|3D",
    "City": "Kolkata",
    "Latitude": "22.5712",
    "Longitude": "88.4011",
    "RegionCode": "KOLK",
    "State": "West Bengal",
    "SubRegionCode": "KOLK",
    "VenueAddress": "INOX Leisure Ltd, 89C, Moulana Abul Kalam Azad Sarani, Kolkata, West Bengal 700054, India",
    "VenueCode": "INKS",
    "VenueName": "INOX: Swabhumi, Maulana Azad Sarani"
  },
  "INOA": {
    "AvailableFormats": "2D|3D",
    "City": "Goa",
    "Latitude": "15.2859",
    "Longitude": "73.9572",
    "RegionCode": "BTBM",
    "State": "Goa",
    "SubRegionCode": "BTBM",
    "VenueAddress": "A Wing, 2nd Floor, Osia Commercial Arcade, SGPDA Market Complex, Margao, Goa, Goa 403601, India",
    "VenueCode": "INOA",
    "VenueName": "INOX: Osia A Wing Margao, Goa"
  },
  "INPS": {
    "AvailableFormats": "2D|3D",
    "City": "Jaipur",
    "Latitude": "26.9031",
    "Longitude": "75.8364",
    "RegionCode": "JAIP",
    "State": "Rajasthan",
    "SubRegionCode": "JAIP",
    "VenueAddress": "Raja Park, Govind Marg, Pink Square Mall, Jaipur, Rajasthan 302004, India",
    "VenueCode": "INPS",
    "VenueName": "INOX: Pink Square Mall, Adarsh Nagar"
  },
  "INRR": {
    "AvailableFormats": "2D",
    "City": "Rajkot",
    "Latitude": "22.3026",
    "Longitude": "70.7965",
    "RegionCode": "RAJK",
    "State": "Gujarat",
    "SubRegionCode": "RAJK",
    "VenueAddress": "Old Dharam Cinema Building, Kasturba Road, Naval Nagar, Near Saurashtra Cricket Association, Rajkot, Gujarat 360001, India",
    "VenueCode": "INRR",
    "VenueName": "INOX: Rajkot R World"
  },
  "INTA": {
    "AvailableFormats": "2D",
    "City": "Manapparai",
    "Latitude": "10.6097",
    "Longitude": "78.4233",
    "RegionCode": "MAPI",
    "State": "Tamil Nadu",
    "SubRegionCode": "MAPI",
    "VenueAddress": "Boys Town, Kulithalai - Manapparai Road, Nea Aavin Shop, Manapparai, Tamil Nadu 621306, India",
    "VenueCode": "INTA",
    "VenueName": "INDIRA CINEMAS A/C DOLBY 7.1: MANAPPARAI"
  },
  "INVJ": {
    "AvailableFormats": "2D",
    "City": "Vijayawada",
    "Latitude": "16.5172",
    "Longitude": "80.631",
    "RegionCode": "KADU",
    "State": "Andhra Pradesh",
    "SubRegionCode": "KADU",
    "VenueAddress": "Urvashi Theatre Complex, 26-2-66/A, Andhra Ratna Road, Gandhi Nagar, Vijayawada, Andhra Pradesh 520003, India",
    "VenueCode": "INVJ",
    "VenueName": "INOX: Urvasi Complex, Gandhi Nagar"
  },
  "INZD": {
    "AvailableFormats": "2D",
    "City": "Zirakpur",
    "Latitude": "30.6199",
    "Longitude": "76.8231",
    "RegionCode": "CHD",
    "State": "Punjab",
    "SubRegionCode": "ZRIK",
    "VenueAddress": "INOX Leisure Ltd, 2nd Floor, Dhillon Square Mall, Chhatbir Road, Chandigarh - Ambala Highway, Zirakpur, Zirakpur, Punjab 140603, India",
    "VenueCode": "INZD",
    "VenueName": "INOX: Dhillon Plaza (Zirakpur)"
  },
  "IPBG": {
    "AvailableFormats": "2D|3D",
    "City": "Navi Mumbai",
    "Latitude": "19.0853",
    "Longitude": "73.0076",
    "RegionCode": "MUMBAI",
    "State": "Maharashtra",
    "SubRegionCode": "THAN",
    "VenueAddress": "INOX Leisure Ltd, Plot No.17, Palm Beach Galleria Mall, Sector 19D, Palm Beach Road, Vashi, Navi Mumbai, Maharashtra 400703, India",
    "VenueCode": "IPBG",
    "VenueName": "INOX: Palm Beach Galleria Mall, Navi Mumbai"
  },
  "IRGT": {
    "AvailableFormats": "2D|3D",
    "City": "Thane",
    "Latitude": "19.2304",
    "Longitude": "72.9774",
    "RegionCode": "MUMBAI",
    "State": "Maharashtra",
    "SubRegionCode": "THNE",
    "VenueAddress": "3rd Floor, R Mall,Ghodbunder Road, Opposite Lokim Company, Dokali Pada, Dhokali, Thane West, Thane, Maharashtra 400607, India",
    "VenueCode": "IRGT",
    "VenueName": "INOX: Insignia at R Mall, Thane"
  },
  "ISTJ": {
    "AvailableFormats": "2D|3D",
    "City": "Jaipur",
    "Latitude": "26.8768",
    "Longitude": "75.7608",
    "RegionCode": "JAIP",
    "State": "Rajasthan",
    "SubRegionCode": "JAIP",
    "VenueAddress": "Sunny Trade Center, 3rd Floor, New Aatish Market, Jaipur, Rajasthan 302020, India",
    "VenueCode": "ISTJ",
    "VenueName": "INOX: Sunny Trade Center, Jaipur"
  },
  "JACP": {
    "AvailableFormats": "2D",
    "City": "Jajpur Road",
    "Latitude": "20.9459",
    "Longitude": "86.1311",
    "RegionCode": "JAJP",
    "State": "Odisha",
    "SubRegionCode": "JAJP",
    "VenueAddress": "New Bus Stand, Bypass Road, Umapada, Jajpur Road, Odisha 755019, India",
    "VenueCode": "JACP",
    "VenueName": "Jagannath Cine Palace: Jajpur Road"
  },
  "JBTV": {
    "AvailableFormats": "2D",
    "City": "Vadakkencherry",
    "Latitude": "10.5977",
    "Longitude": "76.4814",
    "RegionCode": "VDCY",
    "State": "Kerala",
    "SubRegionCode": "VDCY",
    "VenueAddress": "Vadakkanchery - Padur Road, Karayankadu, Vadakkencherry, Kerala 678683, India",
    "VenueCode": "JBTV",
    "VenueName": "Jayabharath Theatre: Vadakkencherry"
  },
  "JCPC": {
    "AvailableFormats": "2D",
    "City": "Badaun",
    "Latitude": "28.0354",
    "Longitude": "79.1234",
    "RegionCode": "BADN",
    "State": "Uttar Pradesh",
    "SubRegionCode": "BADN",
    "VenueAddress": "Sotha Mohallah, Opposite Bada Gost Bazaar, Badaun, Uttar Pradesh 243601, India",
    "VenueCode": "JCPC",
    "VenueName": "J C Picture Palace: Budaun"
  },
  "JGDM": {
    "AvailableFormats": "",
    "City": "Vizag",
    "Latitude": "17.7122",
    "Longitude": "83.3022",
    "RegionCode": "VIZA",
    "State": "Andhra Pradesh",
    "SubRegionCode": "VIZA",
    "VenueAddress": "Chitralaya Road, Jagadamba Junction, Near South Indian Bank ATM, Vizag, Andhra Pradesh 530020, India",
    "VenueCode": "JGDM",
    "VenueName": "Jagadamba Complex A/C 4K Dolby Atmos : Vizag"
  },
  "JJPP": {
    "AvailableFormats": "2D",
    "City": "Hyderabad",
    "Latitude": "17.4951",
    "Longitude": "78.3341",
    "RegionCode": "HYD",
    "State": "Telangana",
    "SubRegionCode": "HYD",
    "VenueAddress": "Shop No. W-4, Tapadia Maruti Infinity Mall, Door No. 2-132, Chanda Nagar, Hyderabad, Telangana 500050, India",
    "VenueCode": "JJPP",
    "VenueName": "JP Cinemas: Chandanagar"
  },
  "JMEX": {
    "AvailableFormats": "2D",
    "City": "Malkangiri",
    "Latitude": "18.364",
    "Longitude": "81.9024",
    "RegionCode": "MALG",
    "State": "Odisha",
    "SubRegionCode": "MALG",
    "VenueAddress": "National Highway 326, Near Kaniska Automobiles, Malkangiri, Odisha 764045, India",
    "VenueCode": "JMEX",
    "VenueName": "J Max Cinemas: Malkangiri"
  },
  "JPCJ": {
    "AvailableFormats": "2D",
    "City": "Jalalabad",
    "Latitude": "30.6035",
    "Longitude": "74.2602",
    "RegionCode": "JLAB",
    "State": "Punjab",
    "SubRegionCode": "JLAB",
    "VenueAddress": "J P Cinema, Muktsar Road, Jalalabad, Punjab 152024, India",
    "VenueCode": "JPCJ",
    "VenueName": "JP Cinema: Jalalabad"
  },
  "JTAP": {
    "AvailableFormats": "",
    "City": "Thirubhuvanai",
    "FirstTracked": "2026-07-14",
    "Latitude": "11.918086",
    "Longitude": "79.64769",
    "RegionCode": "THRU",
    "State": "Tamil Nadu",
    "SubRegionCode": "THRU",
    "VenueAddress": "197 Main Road, Puducherry - Vilupuram Road, Thirubhuvanai, Tamil Nadu 605102, India",
    "VenueCode": "JTAP",
    "VenueName": "Central Talkies: Thirubuvanai"
  },
  "JTJL": {
    "AvailableFormats": "2D",
    "City": "Edlapadu",
    "Latitude": "16.1719",
    "Longitude": "80.2287",
    "RegionCode": "EDLP",
    "State": "Andhra Pradesh",
    "SubRegionCode": "EDLP",
    "VenueAddress": "NH 16, Chennai - Srikakualm Highway, Near Virinchi Gardens, Edlapadu, Andhra Pradesh 522233, India",
    "VenueCode": "JTJL",
    "VenueName": "Jayalakshmi Movie Land: Edlapadu"
  },
  "JTMV": {
    "AvailableFormats": "2D",
    "City": "Chennai",
    "Latitude": "13.3357",
    "Longitude": "80.1947",
    "RegionCode": "CHEN",
    "State": "Tamil Nadu",
    "SubRegionCode": "CHEN",
    "VenueAddress": "57,Newcar Street, Thiruvallur Dist,NGO Nagar Extension,Chennai, Tamil Nadu 601204, India",
    "VenueCode": "JTMV",
    "VenueName": "VVM Cinemas 3D 2K AC Dts, Ponneri: Chennai"
  },
  "JTRA": {
    "AvailableFormats": "2D",
    "City": "Anakapalle",
    "Latitude": "17.6927",
    "Longitude": "83.0018",
    "RegionCode": "ANKP",
    "State": "Andhra Pradesh",
    "SubRegionCode": "ANKP",
    "VenueAddress": "Narasinga Rao Peta, Near Tata Docomo Store, Anakapalle, Andhra Pradesh 531001, India",
    "VenueCode": "JTRA",
    "VenueName": "Ramachandra Theatre: Anakapalle"
  },
  "JTSX": {
    "AvailableFormats": "",
    "City": "Vizag",
    "FirstTracked": "2026-07-14",
    "Latitude": "17.749195",
    "Longitude": "83.21968",
    "RegionCode": "SABB",
    "State": "Andhra Pradesh",
    "SubRegionCode": "SABB",
    "VenueAddress": "14-244, Gopalpatnam Main Road, Vizag, Andhra Pradesh 530027, India",
    "VenueCode": "JTSX",
    "VenueName": "Sukanya Complex: Vizag"
  },
  "JVRC": {
    "AvailableFormats": "2D",
    "City": "Jaggampeta",
    "Latitude": "17.1769",
    "Longitude": "82.0616",
    "RegionCode": "JAGG",
    "State": "Andhra Pradesh",
    "SubRegionCode": "JAGG",
    "VenueAddress": "Gollalagunta Road, Near by Ravulamma Talli Temple, Jaggampeta, Andhra Pradesh 533435, India",
    "VenueCode": "JVRC",
    "VenueName": "JVR Cinemas: Jaggampeta"
  },
  "JYYN": {
    "AvailableFormats": "2D",
    "City": "Nagpur",
    "Latitude": "21.1415",
    "Longitude": "79.0833",
    "RegionCode": "NAGP",
    "State": "Maharashtra",
    "SubRegionCode": "NAGP",
    "VenueAddress": "Abhyankar Marg, Sitabuldi, Near Maharashtra Bank, Nagpur, Maharashtra 440012, India",
    "VenueCode": "JYYN",
    "VenueName": "Janki Theatre (2K Laser,5.1 Dolby): Sitabuldi"
  },
  "KANT": {
    "AvailableFormats": "2D|3D",
    "City": "Betul",
    "Latitude": "21.8984",
    "Longitude": "77.9051",
    "RegionCode": "BETU",
    "State": "Madhya Pradesh",
    "SubRegionCode": "BETU",
    "VenueAddress": "Near Railway Station, Betulganj, Near Kantishiva Chowk, Betul, Madhya Pradesh 460001, India",
    "VenueCode": "KANT",
    "VenueName": "Kantishiva Multiplex: Betul"
  },
  "KBPM": {
    "AvailableFormats": "2D",
    "City": "Pamuru",
    "Latitude": "15.0961",
    "Longitude": "79.4099",
    "RegionCode": "PMMR",
    "State": "Andhra Pradesh",
    "SubRegionCode": "PMMR",
    "VenueAddress": "Chitralaya Street, Near SBI, Pamuru, Andhra Pradesh 523108, India",
    "VenueCode": "KBPM",
    "VenueName": "KB Srinivasa A/C 2K Dolby 7.1: Pamuru"
  },
  "KCKG": {
    "AvailableFormats": "2D|3D",
    "City": "Kopargaon",
    "Latitude": "19.8833",
    "Longitude": "74.4762",
    "RegionCode": "KOPG",
    "State": "Maharashtra",
    "SubRegionCode": "KOPG",
    "VenueAddress": "2061,1st Floor, K City Centre, Gurudwara Road, Dist.Ahmednagar, Kopargaon, Maharashtra 423601, India",
    "VenueCode": "KCKG",
    "VenueName": "K Cineplex: Kopargaon"
  },
  "KCSA": {
    "AvailableFormats": "",
    "City": "Namakkal",
    "FirstTracked": "2026-07-14",
    "Latitude": "11.22639",
    "Longitude": "78.16373",
    "RegionCode": "NMKL",
    "State": "Tamil Nadu",
    "SubRegionCode": "NMKL",
    "VenueAddress": "49, R.P Pudur, Salem - Namakkal Road, Namakkal, Tamil Nadu 637001, India",
    "VenueCode": "KCSA",
    "VenueName": "KS Cineplex Screen 1 by DNC Theatres: Namakkal"
  },
  "KDCT": {
    "AvailableFormats": "2D",
    "City": "Madurai",
    "Latitude": "9.88219",
    "Longitude": "78.0614",
    "RegionCode": "MADU",
    "State": "Tamil Nadu",
    "SubRegionCode": "MADU",
    "VenueAddress": "Sannathi Street,12/1, Pandiyan Nagar, Madurai, Tamil Nadu 625005, India",
    "VenueCode": "KDCT",
    "VenueName": "Kannan Devi Cinemas, Tirunagar: Madurai"
  },
  "KHMJ": {
    "AvailableFormats": "2D",
    "City": "Jalna",
    "Latitude": "19.8322",
    "Longitude": "75.9121",
    "RegionCode": "JALN",
    "State": "Maharashtra",
    "SubRegionCode": "JALN",
    "VenueAddress": "Krishna Mall, Krishna Vihar, Mantha Ambad Bypass Ring Road, Jalna, Maharashtra 431203, India",
    "VenueCode": "KHMJ",
    "VenueName": "Krishna Multiplex: Jalna"
  },
  "KKMA": {
    "AvailableFormats": "2D",
    "City": "Silvassa",
    "Latitude": "20.2716",
    "Longitude": "72.9916",
    "RegionCode": "SILV",
    "State": "Gujarat",
    "SubRegionCode": "SILV",
    "VenueAddress": "Prithviraj Chauhan Marg, Gujarat State Highway 185p, ,Opposite Yatri Niwas Hotel, Silvassa, Gujarat 396230, India",
    "VenueCode": "KKMA",
    "VenueName": "The Cine Station: Silvassa"
  },
  "KLMS": {
    "AvailableFormats": "2D",
    "City": "Kim",
    "Latitude": "21.4049",
    "Longitude": "72.9148",
    "RegionCode": "SURT",
    "State": "Gujarat",
    "SubRegionCode": "SURT",
    "VenueAddress": "3rd Floor, Laxmi Arcade, Kim Olpad Road, Mulad Village, Near Laxmi Bungalow, Kim, Gujarat 394110, India",
    "VenueCode": "KLMS",
    "VenueName": "KD Laxmi Multiplex (Dolby 7.1): Kim, Surat"
  },
  "KMPG": {
    "AvailableFormats": "2D",
    "City": "Ganapavaram",
    "Latitude": "16.7032",
    "Longitude": "81.4632",
    "RegionCode": "GANP",
    "State": "Andhra Pradesh",
    "SubRegionCode": "GANP",
    "VenueAddress": "Ganapavaram - Pippara Road, Near Ganapavaram Panchayat Office, Ganapavaram, Andhra Pradesh 534198, India",
    "VenueCode": "KMPG",
    "VenueName": "Kumari Picture Palace A/C Dts: Ganapavaram"
  },
  "KOVI": {
    "AvailableFormats": "2D",
    "City": "Coimbatore",
    "Latitude": "10.9989",
    "Longitude": "76.9686",
    "RegionCode": "COIM",
    "State": "Tamil Nadu",
    "SubRegionCode": "COIM",
    "VenueAddress": "7/21, State Bank Road, Gopala Puram, Near Annamali hotel, Coimbatore, Tamil Nadu 641018, India",
    "VenueCode": "KOVI",
    "VenueName": "Kovai Shanti Complex 4K 3D: Coimbatore"
  },
  "KRGD": {
    "AvailableFormats": "2D",
    "City": "Giddalur",
    "Latitude": "15.3809",
    "Longitude": "78.9312",
    "RegionCode": "GDAL",
    "State": "Andhra Pradesh",
    "SubRegionCode": "GDAL",
    "VenueAddress": "Racherla Gate Center, Racherla Road, Giddalur, Andhra Pradesh 523357, India",
    "VenueCode": "KRGD",
    "VenueName": "Krishna Theater: Giddalur"
  },
  "KRTO": {
    "AvailableFormats": "",
    "City": "Ongole",
    "FirstTracked": "2026-07-14",
    "Latitude": "15.509667",
    "Longitude": "80.0479",
    "RegionCode": "ADKI",
    "State": "Andhra Pradesh",
    "SubRegionCode": "ADKI",
    "VenueAddress": "Islampet, Gopal Nagar, Near Fire Station, Ongole, Andhra Pradesh 523001, India",
    "VenueCode": "KRTO",
    "VenueName": "Krishna Theatre: Ongole"
  },
  "KSKL": {
    "AvailableFormats": "2D",
    "City": "Karnal",
    "Latitude": "29.6935",
    "Longitude": "77.0028",
    "RegionCode": "KARN",
    "State": "Haryana",
    "SubRegionCode": "KARN",
    "VenueAddress": "Sector 12, Main Road, Karnal, Haryana 132001, India",
    "VenueCode": "KSKL",
    "VenueName": "Harsh A Movie: Karnal"
  },
  "KSTR": {
    "AvailableFormats": "2D",
    "City": "Alappuzha",
    "Latitude": "9.49605",
    "Longitude": "76.3412",
    "RegionCode": "CRTL",
    "State": "Kerala",
    "SubRegionCode": "CRTL",
    "VenueAddress": "CCNB Road, Erezha, Mullakkal, Near St George Lodgings, Alappuzha, Kerala 688011, India",
    "VenueCode": "KSTR",
    "VenueName": "Kairali Sree Theater: Alappuzha"
  },
  "KTKO": {
    "AvailableFormats": "2D",
    "City": "B.Kothakota",
    "Latitude": "13.6586",
    "Longitude": "78.2672",
    "RegionCode": "BKOT",
    "State": "Andhra Pradesh",
    "SubRegionCode": "BKOT",
    "VenueAddress": "Bypass Road, Handadi, B.Kothakota, Andhra Pradesh 517370, India",
    "VenueCode": "KTKO",
    "VenueName": "Sri Venkateswara Theater Dolby Digital"
  },
  "KVCS": {
    "AvailableFormats": "2D",
    "City": "Chennai",
    "Latitude": "13.0345",
    "Longitude": "80.2306",
    "RegionCode": "CHEN",
    "State": "Tamil Nadu",
    "SubRegionCode": "CHEN",
    "VenueAddress": "No 3 Usman Road, T. Nagar, Chennai, Near Mehta Hospitals Pvt Ltd, Chennai, Tamil Nadu 600017, India",
    "VenueCode": "KVCS",
    "VenueName": "KC(KrishnaveniCinemas) RG3 LASER DOLBYATMOS TNAGAR"
  },
  "LAIM": {
    "AvailableFormats": "2D",
    "City": "Vijayawada",
    "Latitude": "16.5066",
    "Longitude": "80.6285",
    "RegionCode": "VIJA",
    "State": "Andhra Pradesh",
    "SubRegionCode": "VIJA",
    "VenueAddress": "4th Floor, Laila Mall, M.G. Road, Vijayawada, Andhra Pradesh 520002, India",
    "VenueCode": "LAIM",
    "VenueName": "INOX: Laila Mall, M.G. Road"
  },
  "LBCN": {
    "AvailableFormats": "",
    "City": "Nanded",
    "FirstTracked": "2026-07-14",
    "Latitude": "19.146639",
    "Longitude": "77.322266",
    "RegionCode": "NAND",
    "State": "Maharashtra",
    "SubRegionCode": "NAND",
    "VenueAddress": "Gadipura, Khadakpura, Nanded, Maharashtra 431604, India",
    "VenueCode": "LBCN",
    "VenueName": "Liberty Cinema: Nanded"
  },
  "LCPC": {
    "AvailableFormats": "2D",
    "City": "Pune",
    "Latitude": "19.1187",
    "Longitude": "73.9729",
    "RegionCode": "PUNE",
    "State": "Maharashtra",
    "SubRegionCode": "PUNE",
    "VenueAddress": "Telephone Exchange Road, Narayan Gaon, Near Shinde Market, Pune, Maharashtra 410504, India",
    "VenueCode": "LCPC",
    "VenueName": "Laxmi Cineplex: Narayangaon"
  },
  "LGTV": {
    "AvailableFormats": "2D",
    "City": "Vizianagaram",
    "Latitude": "18.1103",
    "Longitude": "83.3976",
    "RegionCode": "VIZI",
    "State": "Andhra Pradesh",
    "SubRegionCode": "VIZI",
    "VenueAddress": "Fort City Central Mall, Railway Station Road, Gadi Khana, Pedavemali, Beside Leela Mahal theatre, Vizianagaram, Andhra Pradesh 535001, India",
    "VenueCode": "LGTV",
    "VenueName": "LGT Cinemas: Vizianagaram"
  },
  "LKMT": {
    "AvailableFormats": "2D",
    "City": "Hyderabad",
    "Latitude": "17.4948",
    "Longitude": "78.5112",
    "RegionCode": "HYD",
    "State": "Telangana",
    "SubRegionCode": "HYD",
    "VenueAddress": "Shop No: 14 - 69, Lothukunta Road, Lothkunta, Alwal, Secunderabad, Near Alwal City Bus Stop, Next to Sona Wines, Hyderabad, Telangana 500015, India",
    "VenueCode": "LKMT",
    "VenueName": "Lakshmi Kala Mandir: Alwal"
  },
  "LLCT": {
    "AvailableFormats": "2D",
    "City": "Tanda",
    "Latitude": "31.6758",
    "Longitude": "75.6348",
    "RegionCode": "TNDA",
    "State": "Punjab",
    "SubRegionCode": "TNDA",
    "VenueAddress": "Gurdaspur Road, Near Civil Hospital, Tanda, Punjab 144204, India",
    "VenueCode": "LLCT",
    "VenueName": "Lakhi Cinemas: Tanda"
  },
  "LPTH": {
    "AvailableFormats": "2D",
    "City": "Hospet",
    "Latitude": "15.2733",
    "Longitude": "76.3918",
    "RegionCode": "HOSP",
    "State": "Karnataka",
    "SubRegionCode": "HOSP",
    "VenueAddress": "No. 202, Jn Road, Saraswati Picture Palace, Near Malligi Hotel, Hospet, Karnataka 583201, India",
    "VenueCode": "LPTH",
    "VenueName": "Lakshmi Picture Palace: Hospet"
  },
  "LTTP": {
    "AvailableFormats": "2D",
    "City": "Madurai",
    "Latitude": "9.87549",
    "Longitude": "78.0653",
    "RegionCode": "MADU",
    "State": "Tamil Nadu",
    "SubRegionCode": "MADU",
    "VenueAddress": "Thirupparankundram Road, Avaniyapuram, Near Kasi Viswanathar Temple, Madurai, Tamil Nadu 625005, India",
    "VenueCode": "LTTP",
    "VenueName": "Sri Lakshmi Theatre: Thirupparankundram"
  },
  "LYAS": {
    "AvailableFormats": "2D",
    "City": "Solapur",
    "Latitude": "17.6533",
    "Longitude": "75.9318",
    "RegionCode": "SOLA",
    "State": "Maharashtra",
    "SubRegionCode": "SOLA",
    "VenueAddress": "S.No.218/2 C, Adarsh Nagar, Akashwai Kendra Road, Opposite MIDC, Solapur, Maharashtra 413006, India",
    "VenueCode": "LYAS",
    "VenueName": "Laxminarayan Cinema: Solapur"
  },
  "MACB": {
    "AvailableFormats": "2D|3D",
    "City": "Banswara",
    "Latitude": "23.5537",
    "Longitude": "74.4264",
    "RegionCode": "BANS",
    "State": "Rajasthan",
    "SubRegionCode": "BANS",
    "VenueAddress": "3rd Floor, Nakshatra Mall, Udaipur Dungarpur Link Road, Banswara, Rajasthan 327001, India",
    "VenueCode": "MACB",
    "VenueName": "Mukta A2 Cinemas: Nakshatra Mall, Banswara"
  },
  "MAFC": {
    "AvailableFormats": "2D",
    "City": "Sangli",
    "Latitude": "16.8603",
    "Longitude": "74.5698",
    "RegionCode": "SANG",
    "State": "Maharashtra",
    "SubRegionCode": "SANG",
    "VenueAddress": "3rd Floor, SFC Mega Mall, Station Road, Sangli, Maharashtra 416416, India",
    "VenueCode": "MAFC",
    "VenueName": "Mukta A2 Cinemas: SFC Mega Mall, Sangli"
  },
  "MAJU": {
    "AvailableFormats": "2D",
    "City": "Bhusawal",
    "Latitude": "21.0482",
    "Longitude": "75.7777",
    "RegionCode": "BHUS",
    "State": "Maharashtra",
    "SubRegionCode": "BHUS",
    "VenueAddress": "Juna Satara, Mahatma Fule Nagar, Mamaji Talkies Road, Bhusawal, Maharashtra 425201, India",
    "VenueCode": "MAJU",
    "VenueName": "Shree Mamaji Talkies: Bhusawal"
  },
  "MASA": {
    "AvailableFormats": "2D",
    "City": "Ahmedabad",
    "Latitude": "23.0317",
    "Longitude": "72.5705",
    "RegionCode": "AHD",
    "State": "Gujarat",
    "SubRegionCode": "AHD",
    "VenueAddress": "Opposite City Gold Cinema, Ashram Road, Near Kotak Mahindra Bank, Ahmedabad, Gujarat 380009, India",
    "VenueCode": "MASA",
    "VenueName": "Mukta A2 Shiv Cinema: Ahmedabad"
  },
  "MAYJ": {
    "AvailableFormats": "2D|3D",
    "City": "Chennai",
    "Latitude": "12.848",
    "Longitude": "80.2401",
    "RegionCode": "CHEN",
    "State": "Tamil Nadu",
    "SubRegionCode": "CHEN",
    "VenueAddress": "No. 34/1, East Coast Road, Kanathur, Near Toll Plaza, Chennai, Tamil Nadu 603112, India",
    "VenueCode": "MAYJ",
    "VenueName": "MAYAJAAL Multiplex: ECR, Chennai"
  },
  "MBSJ": {
    "AvailableFormats": "2D",
    "City": "Vizag (Visakhapatnam)",
    "Latitude": "17.7266",
    "Longitude": "83.2994",
    "RegionCode": "VIZA",
    "State": "Andhra Pradesh",
    "SubRegionCode": "VIZA",
    "VenueAddress": "Bupathi Surya Central Mall, 5th Floor, 43-29-53 Dondaparthy, Vizag (Visakhapatnam), Andhra Pradesh 530016, India",
    "VenueCode": "MBSJ",
    "VenueName": "Miraj Cinemas: Bupathi Surya Central, Dondaparthy"
  },
  "MCBH": {
    "AvailableFormats": "2D",
    "City": "Hyderabad",
    "Latitude": "17.3559",
    "Longitude": "78.4537",
    "RegionCode": "HYD",
    "State": "Telangana",
    "SubRegionCode": "HYD",
    "VenueAddress": "Bahadurpura, Near Zoo Park Road, Hyderabad, Telangana 500064, India",
    "VenueCode": "MCBH",
    "VenueName": "Metro Cinema: Bahadurpura"
  },
  "MCDE": {
    "AvailableFormats": "",
    "City": "Delhi",
    "Latitude": "28.6384",
    "Longitude": "77.107",
    "RegionCode": "NCR",
    "State": "NCR",
    "SubRegionCode": "DELHI",
    "VenueAddress": "Plot No. S-26, Ajay Enclave, Meenakshi Garden, Subhash Nagar, New Delhi, Delhi, NCR 110018, India",
    "VenueCode": "MCDE",
    "VenueName": "Miraj Cinemas: Ivory Tower, Subhash Nagar"
  },
  "MCGP": {
    "AvailableFormats": "2D|3D",
    "City": "Kanpur",
    "Latitude": "26.4907",
    "Longitude": "80.2847",
    "RegionCode": "KANP",
    "State": "Uttar Pradesh",
    "SubRegionCode": "KANP",
    "VenueAddress": "Gurdev Palace Complex, 181-184, Lakhanpur, G. T. Road, Kanpur, Uttar Pradesh 208024, India",
    "VenueCode": "MCGP",
    "VenueName": "Miraj Cinemas: Gurdev Pammi, Kanpur"
  },
  "MCIW": {
    "AvailableFormats": "2D|IMAX 2D|3D",
    "City": "Mumbai",
    "Latitude": "19.0316",
    "Longitude": "72.8809",
    "RegionCode": "MUMBAI",
    "State": "Maharashtra",
    "SubRegionCode": "MCENT",
    "VenueAddress": "Ajmera I-Land Road, Bhakti Park, Wadala East, Mumbai, Maharashtra 400037, India",
    "VenueCode": "MCIW",
    "VenueName": "Miraj Cinemas: IMAX, Wadala"
  },
  "MCMA": {
    "AvailableFormats": "",
    "City": "Ahmedabad",
    "Latitude": "23.0147",
    "Longitude": "72.5965",
    "RegionCode": "AHD",
    "State": "Gujarat",
    "SubRegionCode": "AHD",
    "VenueAddress": "10, Acer Mall, Kankaria Road, Raipur, Opposite Big Bazaar, Ahmedabad, Gujarat 380001, India",
    "VenueCode": "MCMA",
    "VenueName": "Miraj Cinemas: City Pulse, Ahmedabad"
  },
  "MCNR": {
    "AvailableFormats": "",
    "City": "Raipur",
    "Latitude": "21.1704",
    "Longitude": "81.7708",
    "RegionCode": "RAIPUR",
    "State": "Chhattisgarh",
    "SubRegionCode": "RAIPUR",
    "VenueAddress": "GS Entertainment, 4th Floor, Block E9-B, Retail Complex, Central Business District, Sector - 21, Nava Raipur Atal Nagar, Raipur, Chhattisgarh 492101, India",
    "VenueCode": "MCNR",
    "VenueName": "Miraj Cinemas: CBD, Nava Raipur"
  },
  "MCSD": {
    "AvailableFormats": "2D",
    "City": "Tumakuru (Tumkur)",
    "Latitude": "13.3435",
    "Longitude": "77.0943",
    "RegionCode": "TUMK",
    "State": "Karnataka",
    "SubRegionCode": "TUMK",
    "VenueAddress": "B.H.Main Road, Mandipet, Near Gubbi Gate, Near T H S Super Speciality Hospital, Tumakuru (Tumkur), Karnataka 572101, India",
    "VenueCode": "MCSD",
    "VenueName": "Maruthi Digital 4K Cinemas: B.H.Road Tumakuru"
  },
  "MCTD": {
    "AvailableFormats": "2D",
    "City": "Trivandrum",
    "Latitude": "8.61849",
    "Longitude": "76.8985",
    "RegionCode": "ATTI",
    "State": "Kerala",
    "SubRegionCode": "ATTI",
    "VenueAddress": "Pothencode Junction, Pothencode, Thiruvananthapuram, Near State Bank Of India, Trivandrum, Kerala 695584, India",
    "VenueCode": "MCTD",
    "VenueName": "MT Cineplex 4K DOLBY ATMOS: Pothencode"
  },
  "MCXF": {
    "AvailableFormats": "",
    "City": "Chennai",
    "FirstTracked": "2026-07-14",
    "Latitude": "13.1206",
    "Longitude": "80.0979",
    "RegionCode": "CHEN",
    "State": "Tamil Nadu",
    "SubRegionCode": "CHEN",
    "VenueAddress": "OCF Main Road, Avadi, Next to TNEB Office, Chennai, Tamil Nadu 600054, India",
    "VenueCode": "MCXF",
    "VenueName": "Meenakshi Cinemas (Rakki) 4K Dolby Atmos: Avadi"
  },
  "MDLB": {
    "AvailableFormats": "",
    "City": "Lakhisarai",
    "FirstTracked": "2026-07-14",
    "Latitude": "25.17434",
    "Longitude": "86.09349",
    "RegionCode": "LASK",
    "State": "Bihar",
    "SubRegionCode": "LASK",
    "VenueAddress": "Purani Bazzar, Near - Lakhisarai Station, Lakhisarai, Bihar 811311, India",
    "VenueCode": "MDLB",
    "VenueName": "Mahadev Talkies: Lakhisarai, Bihar"
  },
  "MEML": {
    "AvailableFormats": "2D",
    "City": "Hoshangabad",
    "Latitude": "22.7521",
    "Longitude": "77.7293",
    "RegionCode": "HSGB",
    "State": "Madhya Pradesh",
    "SubRegionCode": "HSGB",
    "VenueAddress": "Meenakshi Chowk, Narmadapuram, Hoshangabad, Madhya Pradesh 461001, India",
    "VenueCode": "MEML",
    "VenueName": "Meenakshi Cineplex (Screen 1 & 2): Hoshangabad"
  },
  "MGGG": {
    "AvailableFormats": "2D",
    "City": "Vijayawada",
    "Latitude": "16.5172",
    "Longitude": "80.6288",
    "RegionCode": "VIJA",
    "State": "Andhra Pradesh",
    "SubRegionCode": "VIJA",
    "VenueAddress": "Andhra Ratna Road, Gandhi Nagar, Vijayawada, Andhra Pradesh 520003, India",
    "VenueCode": "MGGG",
    "VenueName": "G3 Theatres: Raj Yuvraj, Vijayawada"
  },
  "MHNU": {
    "AvailableFormats": "3D|2D",
    "City": "Ghaziabad",
    "Latitude": "28.6453",
    "Longitude": "77.336",
    "RegionCode": "NCR",
    "State": "NCR",
    "SubRegionCode": "GHAZ",
    "VenueAddress": "Mahagun Metro Mall, Sector-3, Vaishali, Vaishali Sector 3, Ghaziabad, NCR 201012, India",
    "VenueCode": "MHNU",
    "VenueName": "PVR: Mahagun, Ghaziabad"
  },
  "MISC": {
    "AvailableFormats": "2D",
    "City": "Hooghly",
    "Latitude": "22.7766",
    "Longitude": "88.3252",
    "RegionCode": "CHDD",
    "State": "West Bengal",
    "SubRegionCode": "CHDD",
    "VenueAddress": "Grand Trunk Road, Sheoraphuli, Near St. John`s Academy, Hooghly, West Bengal 712223, India",
    "VenueCode": "MISC",
    "VenueName": "Mini Sushama Cinema: Sheoraphuli"
  },
  "MJWI": {
    "AvailableFormats": "",
    "City": "Chandigarh",
    "FirstTracked": "2026-07-14",
    "Latitude": "30.692394",
    "Longitude": "76.71335",
    "RegionCode": "CHD",
    "State": "Punjab",
    "SubRegionCode": "CHD",
    "VenueAddress": "Unit no 4 to 9, Third Floor, Jubilee Walk, Opposite SOHANA GURUDWARA, Sector 70, Chandigarh, Punjab 160071, India",
    "VenueCode": "MJWI",
    "VenueName": "7D Masti: Jubilee Walk, Mohali"
  },
  "MKSK": {
    "AvailableFormats": "",
    "City": "Shivamogga",
    "FirstTracked": "2026-07-14",
    "Latitude": "13.934454",
    "Longitude": "75.57287",
    "RegionCode": "SHIA",
    "State": "Karnataka",
    "SubRegionCode": "SHIA",
    "VenueAddress": "Tilak Nagar, Durgigudi, Nehru Road, Near Karnataka Bank, Shivamogga, Karnataka 577201, India",
    "VenueCode": "MKSK",
    "VenueName": "Mallikarjuna Theatre: Shivamogga"
  },
  "MLPG": {
    "AvailableFormats": "3D|2D",
    "City": "Porbandar",
    "Latitude": "21.6684",
    "Longitude": "69.6175",
    "RegionCode": "PORB",
    "State": "Gujarat",
    "SubRegionCode": "PORB",
    "VenueAddress": "Ground Floor Part, Survey No 407, First floor and Mezzanine Floor, Old survey no. 141/6 paiki 9/ paiki 1, Khapat, Porbandar, Gujarat 360579, India",
    "VenueCode": "MLPG",
    "VenueName": "Meridian Multiplex: Porbandar"
  },
  "MMDJ": {
    "AvailableFormats": "7D",
    "City": "Jaipur",
    "Latitude": "26.8552",
    "Longitude": "75.808",
    "RegionCode": "JAIP",
    "State": "Rajasthan",
    "SubRegionCode": "JAIP",
    "VenueAddress": "3rd Floor, GT Central, Plot No.4, Indra Place, Malviya Nagar, Jaipur, Rajasthan 302017, India",
    "VenueCode": "MMDJ",
    "VenueName": "7D Masti: Gaurav Tower Central"
  },
  "MMMC": {
    "AvailableFormats": "2D",
    "City": "Mumbai",
    "Latitude": "18.9712",
    "Longitude": "72.8221",
    "RegionCode": "MUMBAI",
    "State": "Maharashtra",
    "SubRegionCode": "MCENT",
    "VenueAddress": "22, Maratha Mandir Marg, Agripada, Opp. Nayar Dental Hospital, Near Mumbai Central ST Depot, Mumbai, Maharashtra 400008, India",
    "VenueCode": "MMMC",
    "VenueName": "Maratha Mandir: Mumbai Central"
  },
  "MMPS": {
    "AvailableFormats": "",
    "City": "Surendranagar",
    "FirstTracked": "2026-07-14",
    "Latitude": "22.719229",
    "Longitude": "71.65531",
    "RegionCode": "SRDN",
    "State": "Gujarat",
    "SubRegionCode": "SRDN",
    "VenueAddress": "Millenium Plaza, Upasana Circle, Taluka Wadhwan, Surendranagar, Gujarat 363030, India",
    "VenueCode": "MMPS",
    "VenueName": "NY Cinemas: 1 Millenium Plaza, Surendranagar"
  },
  "MMWM": {
    "AvailableFormats": "2D",
    "City": "Thane",
    "Latitude": "19.2211",
    "Longitude": "72.977",
    "RegionCode": "MUMBAI",
    "State": "Maharashtra",
    "SubRegionCode": "THNE",
    "VenueAddress": "MovieMax, Diversion from Vidyapeeth Signal, Opposite Bank Of Baroda, Ghodbunder Road, Kapur Bawadi Naka, Near Safe Way Motors, Thane, Maharashtra 400601, India",
    "VenueCode": "MMWM",
    "VenueName": "MovieMax: Wonder Mall, Thane"
  },
  "MNCV": {
    "AvailableFormats": "2D",
    "City": "Chevella",
    "Latitude": "17.3116",
    "Longitude": "78.138",
    "RegionCode": "CHEV",
    "State": "Telangana",
    "SubRegionCode": "CHEV",
    "VenueAddress": "Survey No.5/3 Part, Main Road, Near Aloor Chevella Vegetable Market, Chevella, Telangana 501503, India",
    "VenueCode": "MNCV",
    "VenueName": "Manikanta Theatre 70mm AC Dolby Atmos 2K: Chevella"
  },
  "MOON": {
    "AvailableFormats": "2D",
    "City": "Kathua",
    "Latitude": "32.3675",
    "Longitude": "75.5236",
    "RegionCode": "KATH",
    "State": "Jammu and Kashmir",
    "SubRegionCode": "KATH",
    "VenueAddress": "Main Bazaar, Urliwand, ITI Road, Kathua HO, Near Adidas showroom, Kathua, Jammu and Kashmir 184101, India",
    "VenueCode": "MOON",
    "VenueName": "Moonlight Cinema: Kathua"
  },
  "MRCB": {
    "AvailableFormats": "",
    "City": "Bharatpur",
    "Latitude": "27.1961",
    "Longitude": "77.5237",
    "RegionCode": "BHRT",
    "State": "Rajasthan",
    "SubRegionCode": "BHRT",
    "VenueAddress": "National Highway 21, Jatoli Ghana, Agra Road, Opposite Surya city Township, Bharatpur, Rajasthan 321001, India",
    "VenueCode": "MRCB",
    "VenueName": "Miraj Cinemas: RDB Multiplex, Bharatpur"
  },
  "MRJH": {
    "AvailableFormats": "3D|2D",
    "City": "Howrah",
    "Latitude": "22.6017",
    "Longitude": "88.3452",
    "RegionCode": "HWRH",
    "State": "West Bengal",
    "SubRegionCode": "HWRH",
    "VenueAddress": "Aurobino Mall,3rd Floor, Sri Arabinda Road, Babudanga, Bandhaghat, Howrah, West Bengal 711106, India",
    "VenueCode": "MRJH",
    "VenueName": "Miraj Cinemas: Howrah"
  },
  "MSCA": {
    "AvailableFormats": "",
    "City": "Amroha",
    "FirstTracked": "2026-07-14",
    "Latitude": "28.897",
    "Longitude": "78.4729",
    "RegionCode": "AMRO",
    "State": "Uttar Pradesh",
    "SubRegionCode": "AMRO",
    "VenueAddress": "2nd Floor, Madho Multiplex, Station Road, Azad Road,JP Nagar, Amroha, Uttar Pradesh 244221, India",
    "VenueCode": "MSCA",
    "VenueName": "Madho Starworld Cinemas: Amroha"
  },
  "MSMD": {
    "AvailableFormats": "2D",
    "City": "Bengaluru",
    "Latitude": "12.9899",
    "Longitude": "77.5005",
    "RegionCode": "BANG",
    "State": "Karnataka",
    "SubRegionCode": "BANG",
    "VenueAddress": "3, 6 / 1A, 1st Cross, Magadi Main Road, Sunkadakatte, Bengaluru, Karnataka 560091, India",
    "VenueCode": "MSMD",
    "VenueName": "Miraj Cinemas: TGN Lotus Elite, Magadi Road"
  },
  "MTBR": {
    "AvailableFormats": "3D|2D",
    "City": "Bahadurgarh",
    "Latitude": "28.6907",
    "Longitude": "76.9411",
    "RegionCode": "BAHD",
    "State": "Haryana",
    "SubRegionCode": "BAHD",
    "VenueAddress": "3rd Floor, Ammrta Arcade Mall, Rohtak Road, NH 10, Near Bahadurgarh Metro Station Pillar No. 816, Ram Nagar, Bahadurgarh, Haryana 124507, India",
    "VenueCode": "MTBR",
    "VenueName": "Movietime Cinemas: Bahadurgarh"
  },
  "MTHB": {
    "AvailableFormats": "3D|2D",
    "City": "Mumbai",
    "Latitude": "19.1548",
    "Longitude": "72.8563",
    "RegionCode": "MUMBAI",
    "State": "Maharashtra",
    "SubRegionCode": "MWEST",
    "VenueAddress": "3rd Floor, HUB, Western Express Highway, Goregaon (E), Mumbai, Maharashtra 400063, India",
    "VenueCode": "MTHB",
    "VenueName": "MOVIE TIME: HUB, Goregaon (E)"
  },
  "MTMD": {
    "AvailableFormats": "2D|3D",
    "City": "Moradabad",
    "Latitude": "28.8252",
    "Longitude": "78.7751",
    "RegionCode": "MORA",
    "State": "Uttar Pradesh",
    "SubRegionCode": "MORA",
    "VenueAddress": "Rampur Road, Near Old Bus Station, Gandhi Nagar, Moradabad, Uttar Pradesh 244001, India",
    "VenueCode": "MTMD",
    "VenueName": "Movietime Miglani Cinema: Moradabad"
  },
  "MTSU": {
    "AvailableFormats": "2D|3D",
    "City": "Mumbai",
    "Latitude": "19.061",
    "Longitude": "72.837",
    "RegionCode": "MUMBAI",
    "State": "Maharashtra",
    "SubRegionCode": "MWEST",
    "VenueAddress": "Suburbia Mall, 206 and 265 Junction of S V Road, And Linking Road, Bandra(W), Near Shoppers Stop, Mumbai, Maharashtra 400050, India",
    "VenueCode": "MTSU",
    "VenueName": "Movietime Suburbia: Bandra (W)"
  },
  "MUSC": {
    "AvailableFormats": "2D",
    "City": "Bhopal",
    "Latitude": "23.2651",
    "Longitude": "77.4141",
    "RegionCode": "BHOP",
    "State": "Madhya Pradesh",
    "SubRegionCode": "BHOP",
    "VenueAddress": "80 Feet Road, Station Chouraha, Bajariya, Bhopal, Madhya Pradesh 462010, India",
    "VenueCode": "MUSC",
    "VenueName": "Muskaan Cinema: Bhopal"
  },
  "MWSS": {
    "AvailableFormats": "2D",
    "City": "Ghaziabad",
    "Latitude": "28.6828",
    "Longitude": "77.4287",
    "RegionCode": "NCR",
    "State": "NCR",
    "SubRegionCode": "GHAZ",
    "VenueAddress": "1st Floor, Plot No. A-1/1-7,8, 9, 13, 14, 15, 16 and 17, Site-III, Sihani Chungi, Meerut Road, Ghaziabad, NCR 201003, India",
    "VenueCode": "MWSS",
    "VenueName": "US Cinemas: Movie World, Sihani Chungi, Ghaziabad"
  },
  "MXSN": {
    "AvailableFormats": "2D",
    "City": "Mumbai",
    "Latitude": "19.0934",
    "Longitude": "72.8838",
    "RegionCode": "MUMBAI",
    "State": "Maharashtra",
    "SubRegionCode": "MWEST",
    "VenueAddress": "90 Feet Road, Sakinaka Andheri(East), Opposite Jarimari Bus Stop, Mumbai, Maharashtra 400072, India",
    "VenueCode": "MXSN",
    "VenueName": "Maxus Cinemas: Saki Naka"
  },
  "MYEP": {
    "AvailableFormats": "",
    "City": "Patratu",
    "FirstTracked": "2026-07-14",
    "Latitude": "23.5892",
    "Longitude": "85.269",
    "RegionCode": "RANC",
    "State": "Jharkhand",
    "SubRegionCode": "RANC",
    "VenueAddress": "No.14 Plot No 347, Talatand, Patratu, Jharkhand 829119, India",
    "VenueCode": "MYEP",
    "VenueName": "Midwaay Cine Cafe: Patratu"
  },
  "NACS": {
    "AvailableFormats": "2D",
    "City": "Korba",
    "Latitude": "22.3606",
    "Longitude": "82.7256",
    "RegionCode": "KRBA",
    "State": "Chhattisgarh",
    "SubRegionCode": "KRBA",
    "VenueAddress": "Ghantaghar Niharika Road, Subhash Chowk, Near New Madhu Sweets, M P Nagar, Korba, Chhattisgarh 495677, India",
    "VenueCode": "NACS",
    "VenueName": "Niharika Cinema 2K Laser & Dolby 7.1 Sound: Korba"
  },
  "NCCI": {
    "AvailableFormats": "",
    "City": "Chhatrapati Sambhajinagar (Aurangabad)",
    "FirstTracked": "2026-07-14",
    "Latitude": "19.8752",
    "Longitude": "75.354",
    "RegionCode": "AURA",
    "State": "Maharashtra",
    "SubRegionCode": "AURA",
    "VenueAddress": "Jalna Road Nupur Cinetorium, Seven Hills Flyover Road, Near Fire Brigade Office, Chhatrapati Sambhajinagar (Aurangabad), Maharashtra 431009, India",
    "VenueCode": "NCCI",
    "VenueName": "Nupur Cinema: Chh.Sambhajinagar (Newly Renovated)"
  },
  "NCLM": {
    "AvailableFormats": "2D",
    "City": "Mokama",
    "Latitude": "25.3956",
    "Longitude": "85.9237",
    "RegionCode": "MOKA",
    "State": "Bihar",
    "SubRegionCode": "MOKA",
    "VenueAddress": "National Highway 31, Sakarwar Tola, Mokameh, Mokama, Bihar 803302, India",
    "VenueCode": "NCLM",
    "VenueName": "New Cinema (Lucky House): Mokama"
  },
  "NDGP": {
    "AvailableFormats": "",
    "City": "Vizag",
    "FirstTracked": "2026-07-14",
    "Latitude": "17.746363",
    "Longitude": "83.22072",
    "RegionCode": "SABB",
    "State": "Andhra Pradesh",
    "SubRegionCode": "SABB",
    "VenueAddress": "Gopalapatnam Main Road, Gopalapatnam, Simhachalam, Vizag, Andhra Pradesh 530027, India",
    "VenueCode": "NDGP",
    "VenueName": "Narasimha A/C 2K Dolby: Gopalapatnam"
  },