{
  "AAAS": {
    "AvailableFormats": "2D|3D",
    "City": "Mumbai",
    "Latitude": "19.2289",
    "Longitude": "72.8542",
    "RegionCode": "MUMBAI",
    "State": "Maharashtra",
    "SubRegionCode": "MWEST",
    "VenueAddress": "4th Floor, Ajanta Square Mall, Lokmanya Tilak Road, Borivali West, Mumbai, Maharashtra 400092, India",
    "VenueCode": "AAAS",
    "VenueName": "Ajanta Cinema Cinex: Borivali (W) Newly Renovated"
  },
  "AADS": {
    "AvailableFormats": "",
    "City": "Kadapa",
    "FirstTracked": "2026-07-14",
    "Latitude": "14.47639",
    "Longitude": "78.83806",
    "RegionCode": "KDPA",
    "State": "Andhra Pradesh",
    "SubRegionCode": "KDPA",
    "VenueAddress": "Kadapa - Tirupati Road, Chinna Chowk, Near Apoorva Wedding Function Hall and Auditorium, Kadapa, Andhra Pradesh 516002, India",
    "VenueCode": "AADS",
    "VenueName": "Apsara A/C 4k Dolby Atmos: Kadapa"
  },
  "AATR": {
    "AvailableFormats": "2D",
    "City": "Erode",
    "Latitude": "11.3326",
    "Longitude": "77.7284",
    "RegionCode": "EROD",
    "State": "Tamil Nadu",
    "SubRegionCode": "EROD",
    "VenueAddress": "Balasubrayalu Street, Surampattivalasu, Near Erode Fire Service, Erode, Tamil Nadu 638001, India",
    "VenueCode": "AATR",
    "VenueName": "Aanoor Theatre A/C Dolby Atmos: Erode"
  },
  "ABDE": {
    "AvailableFormats": "2D",
    "City": "Palakollu",
    "Latitude": "16.5167",
    "Longitude": "81.7258",
    "RegionCode": "PLKL",
    "State": "Andhra Pradesh",
    "SubRegionCode": "PLKL",
    "VenueAddress": "Money Market Road, Near Kanaka Durga Maa Temple, Palakollu, Andhra Pradesh 534260, India",
    "VenueCode": "ABDE",
    "VenueName": "Adabala Theatre Screen 2: Palakollu"
  },
  "ACAS": {
    "AvailableFormats": "2D",
    "City": "Hyderabad",
    "Latitude": "17.4371",
    "Longitude": "78.4486",
    "RegionCode": "HYD",
    "State": "Telangana",
    "SubRegionCode": "HYD",
    "VenueAddress": "Asian Allu Arjun Cinemas, Satyam Theatre Road, X Road Kumar Basti, Ameerpet, Hyderabad, Telangana 500082, India",
    "VenueCode": "ACAS",
    "VenueName": "AAA Cinemas: Ameerpet"
  },
  "ACGA": {
    "AvailableFormats": "2D",
    "City": "Guwahati",
    "Latitude": "26.1839",
    "Longitude": "91.7825",
    "RegionCode": "GUW",
    "State": "Assam",
    "SubRegionCode": "GUW",
    "VenueAddress": "Bamachal Road, West Jyotinagar, Bamunimaidan, Guwahati, Assam 781021, India",
    "VenueCode": "ACGA",
    "VenueName": "Anuradha Cineplex: Guwahati"
  },
  "ACJN": {
    "AvailableFormats": "3D|2D",
    "City": "Nagpur",
    "Latitude": "21.0847",
    "Longitude": "79.1041",
    "RegionCode": "NAGP",
    "State": "Maharashtra",
    "SubRegionCode": "NAGP",
    "VenueAddress": "Besa Pipla Road, New Hanuman Nagar, Manish Nagar, Manewada, Nagpur, Maharashtra 440034, India",
    "VenueCode": "ACJN",
    "VenueName": "AM Cinema Iconic: Jayanti Nagar VII, Besa, Nagpur"
  },
  "ACMM": {
    "AvailableFormats": "2D",
    "City": "Bilimora",
    "Latitude": "20.7681",
    "Longitude": "72.9731",
    "RegionCode": "BILI",
    "State": "Gujarat",
    "SubRegionCode": "BILI",
    "VenueAddress": "Sardar Patel Market Road, Triveni Society, Maruti Nagar, Bilimora, Gujarat 396321, India",
    "VenueCode": "ACMM",
    "VenueName": "Anand Cine Magic Multiplex: Bilimora Renovated"
  },
  "ACPR": {
    "AvailableFormats": "2D",
    "City": "Payyanur",
    "Latitude": "12.1084",
    "Longitude": "75.2125",
    "RegionCode": "PAYY",
    "State": "Kerala",
    "SubRegionCode": "PAYY",
    "VenueAddress": "No 4657, Kokkanissery Road, Payyanur, Kerala 670307, India",
    "VenueCode": "ACPR",
    "VenueName": "Archana Cineplex RGB Laser 4K 3D ATMOS: Payyanur"
  },
  "ACTZ": {
    "AvailableFormats": "2D",
    "City": "Tezpur",
    "Latitude": "26.6223",
    "Longitude": "92.7964",
    "RegionCode": "TEZP",
    "State": "Assam",
    "SubRegionCode": "TEZP",
    "VenueAddress": "Mahatma Gandhi Road, Near Annapurna Hotel, Tezpur, Assam 784001, India",
    "VenueCode": "ACTZ",
    "VenueName": "Anwar VRS Cinema: Tezpur"
  },
  "ADCM": {
    "AvailableFormats": "2D|3D",
    "City": "Mangalore",
    "Latitude": "12.887",
    "Longitude": "74.8412",
    "RegionCode": "MLR",
    "State": "Karnataka",
    "SubRegionCode": "MLR",
    "VenueAddress": "Bharath Mall, Opp K.S.R.T.C, Bejai Kavoor Road, Mangalore, Karnataka 575013, India",
    "VenueCode": "ADCM",
    "VenueName": "Bharath Cinemas: Bharath Mall, Bejai, Mangaluru"
  },
  "AECE": {
    "AvailableFormats": "",
    "City": "Alappuzha",
    "FirstTracked": "2026-07-14",
    "Latitude": "9.498583",
    "Longitude": "76.3431",
    "RegionCode": "ALPZ",
    "State": "Kerala",
    "SubRegionCode": "ALPZ",
    "VenueAddress": "AVJ Junction, Erezha, Mullakkal, Alappuzha, Kerala 688011, India",
    "VenueCode": "AECE",
    "VenueName": "AEC Cinemas: Alappuzha"
  },
  "AHMH": {
    "AvailableFormats": "",
    "City": "Hyderabad",
    "FirstTracked": "2026-07-14",
    "Latitude": "17.402218",
    "Longitude": "78.57199",
    "RegionCode": "AUSH",
    "State": "Telangana",
    "SubRegionCode": "AUSH",
    "VenueAddress": "Survey No. 99, Asian Cine Square Mall, Shanthi Nagar, Warangal Road, Besides Indian Oil Petrol Pump, Uppal, Hyderabad, Telangana 500039, India",
    "VenueCode": "AHMH",
    "VenueName": "Asian CineSquare Multiplex: Uppal"
  },
  "AKFC": {
    "AvailableFormats": "2D",
    "City": "Alakode",
    "Latitude": "12.1785",
    "Longitude": "75.4649",
    "RegionCode": "ALAK",
    "State": "Kerala",
    "SubRegionCode": "ALAK",
    "VenueAddress": "Kottayadu Kavala, Malabar Hill Highway, Near St.Marys Forane Church, Alakode, Kerala 670571, India",
    "VenueCode": "AKFC",
    "VenueName": "Alakode Film City 4K Dolby Atmos"
  },
  "AKYJ": {
    "AvailableFormats": "",
    "City": "Hyderabad",
    "Latitude": "17.4796",
    "Longitude": "78.4175",
    "RegionCode": "HYD",
    "State": "Telangana",
    "SubRegionCode": "HYD",
    "VenueAddress": "INOX Leisure Ltd,3rd Floor, Ashoka One Mall, Kukatpally Y-Junction, Hyderabad, Telangana 500072, India",
    "VenueCode": "AKYJ",
    "VenueName": "INOX: Ashoka One, 4K LASER Dolby ATMOS: Kukatpally"
  },
  "ALSN": {
    "AvailableFormats": "2D|3D",
    "City": "Kantabanji",
    "Latitude": "20.5061",
    "Longitude": "82.9221",
    "RegionCode": "KTBJ",
    "State": "Odisha",
    "SubRegionCode": "KTBJ",
    "VenueAddress": "Lathkend, PO - Salandi, PS - Belpada, Kantabanji, Odisha 767026, India",
    "VenueCode": "ALSN",
    "VenueName": "Alishan Central: Kantabanji"
  },
  "AMCD": {
    "AvailableFormats": "2D",
    "City": "Delhi",
    "Latitude": "28.6774",
    "Longitude": "77.2012",
    "RegionCode": "NCR",
    "State": "NCR",
    "SubRegionCode": "DELHI",
    "VenueAddress": "GT Road, Ghanta Ghar, Subzi Mandi, Block 40, Shakti Nagar, Near Clock Tower, Delhi, NCR 110007, India",
    "VenueCode": "AMCD",
    "VenueName": "Amba Cinema: Delhi"
  },
  "AMKN": {
    "AvailableFormats": "3D|2D",
    "City": "Nagpur",
    "Latitude": "21.2663",
    "Longitude": "79.0873",
    "RegionCode": "NAGP",
    "State": "Maharashtra",
    "SubRegionCode": "NAGP",
    "VenueAddress": "A M Cinema, Near Naivedhyam Cele, New Nanda, Koradi, Nagpur, Maharashtra 441111, India",
    "VenueCode": "AMKN",
    "VenueName": "AM Cinema: Koradi, Nagpur"
  },
  "AMSN": {
    "AvailableFormats": "2D",
    "City": "Karimnagar",
    "Latitude": "18.442650",
    "Longitude": "79.138599",
    "RegionCode": "KARIM",
    "State": "Telangana",
    "SubRegionCode": "KARIM",
    "VenueAddress": "SN Pride Mall, 2nd Floor, Gandhi Road, Kisan Nagar, Karimnagar, Telangana 505451, India",
    "VenueCode": "AMSN",
    "VenueName": "1 Cinemas by Asian Mukta A2 Cinemas, SN Pride Mall"
  },
  "ANCB": {
    "AvailableFormats": "2D",
    "City": "Barmer",
    "Latitude": "25.7618",
    "Longitude": "71.4177",
    "RegionCode": "BARM",
    "State": "Rajasthan",
    "SubRegionCode": "BARM",
    "VenueAddress": "NH25, Baldev Nagar, Uttarlai Road, Barmer, Rajasthan 344001, India",
    "VenueCode": "ANCB",
    "VenueName": "Aanchal Cinema: Barmer"
  },
  "ANLS": {
    "AvailableFormats": "2D|3D",
    "City": "Shillong",
    "Latitude": "25.5738",
    "Longitude": "91.877",
    "RegionCode": "SHLG",
    "State": "Meghalaya",
    "SubRegionCode": "SHLG",
    "VenueAddress": "Anjalee Complex, 25 Cantonment, Shillong, Meghalaya 793001, India",
    "VenueCode": "ANLS",
    "VenueName": "Anjalee Cinema: Shillong"
  },
  "ANTM": {
    "AvailableFormats": "2D",
    "City": "Mangalagiri",
    "Latitude": "16.4263",
    "Longitude": "80.5671",
    "RegionCode": "MGLR",
    "State": "Andhra Pradesh",
    "SubRegionCode": "MGLR",
    "VenueAddress": "Trunk Road, Near - St.Francis English Medium School., Mangalagiri, Andhra Pradesh 522503, India",
    "VenueCode": "ANTM",
    "VenueName": "Annapurna Theater A/C Dts 2K: Mangalagiri"
  },
  "APCL": {
    "AvailableFormats": "2D",
    "City": "Ahmedabad",
    "Latitude": "23.0388",
    "Longitude": "72.6286",
    "RegionCode": "AHD",
    "State": "Gujarat",
    "SubRegionCode": "AHD",
    "VenueAddress": "3rd Floor, White House, India Colony Char Rasta, Bapunagar, Opposite Shyam Shikhar Complex, Ahmedabad, Gujarat 380024, India",
    "VenueCode": "APCL",
    "VenueName": "Apple Cinema: Bapunagar"
  },
  "APPX": {
    "AvailableFormats": "2D",
    "City": "Ahmedabad",
    "Latitude": "23.0025",
    "Longitude": "72.5901",
    "RegionCode": "AHD",
    "State": "Gujarat",
    "SubRegionCode": "AHD",
    "VenueAddress": "4, Jyoti Colony, Kankaria, Maninagar, Gita Mandir Road, Near Bhakta Vallabh Dhola Vidya Vihar, Ahmedabad, Gujarat 380002, India",
    "VenueCode": "APPX",
    "VenueName": "Apple Multiplex: Maninagar, Ahmedabad"
  },
  "APTS": {
    "AvailableFormats": "2D",
    "City": "Samastipur",
    "Latitude": "25.8609",
    "Longitude": "85.7938",
    "RegionCode": "SMST",
    "State": "Bihar",
    "SubRegionCode": "SMST",
    "VenueAddress": "Bahadurpur, Samastipur, Samastipur, Bihar 848101, India",
    "VenueCode": "APTS",
    "VenueName": "Anuroop Talkies: Samastipur"
  },
  "ARDC": {
    "AvailableFormats": "2D|3D",
    "City": "Chhatrapati Sambhajinagar (Aurangabad)",
    "Latitude": "19.8847",
    "Longitude": "75.3231",
    "RegionCode": "AURA",
    "State": "Maharashtra",
    "SubRegionCode": "AURA",
    "VenueAddress": "1, Naralibag Road, Opposite Sai Abhyasika, Chhatrapati Sambhajinagar (Aurangabad), Maharashtra 431001, India",
    "VenueCode": "ARDC",
    "VenueName": "Anjali Ratnadeep Cinema:Chhatrapati SambhajiNagar"
  },
  "ARTH": {
    "AvailableFormats": "2D",
    "City": "Hyderabad",
    "Latitude": "17.4249",
    "Longitude": "78.5335",
    "RegionCode": "HYD",
    "State": "Telangana",
    "SubRegionCode": "HYD",
    "VenueAddress": "Professors Quarters, Inner Ring Road, Opposite Big Bazaar, Hyderabad, Telangana 500017, India",
    "VenueCode": "ARTH",
    "VenueName": "Aradhana Theatre: Hyderabad"
  },
  "ASCT": {
    "AvailableFormats": "2D",
    "City": "Thodupuzha",
    "Latitude": "9.89105",
    "Longitude": "76.7075",
    "RegionCode": "THOD",
    "State": "Kerala",
    "SubRegionCode": "THOD",
    "VenueAddress": "Near Pvt. Bus Stand, Pala Road, Thodupuzha, Kerala 685584, India",
    "VenueCode": "ASCT",
    "VenueName": "Aashirvad Cineplexx: Thodupuzha"
  },
  "ASJY": {
    "AvailableFormats": "2D",
    "City": "Hyderabad",
    "Latitude": "17.5028",
    "Longitude": "78.3122",
    "RegionCode": "HYD",
    "State": "Telangana",
    "SubRegionCode": "HYD",
    "VenueAddress": "Jyothi Nagar, Ashok Nagar, Chanda Nagar, Opposite TVS Motors, Near Brilliant Junior College, Hyderabad, Telangana 502032, India",
    "VenueCode": "ASJY",
    "VenueName": "Asian Jyothi: RC Puram"
  },
  "ASNT": {
    "AvailableFormats": "2D",
    "City": "Adilabad",
    "Latitude": "19.6748",
    "Longitude": "78.5315",
    "RegionCode": "ADIL",
    "State": "Telangana",
    "SubRegionCode": "ADIL",
    "VenueAddress": "Bhuktapur, Near IDBI Bank, Near Hanuman Temple, Adilabad, Telangana 504001, India",
    "VenueCode": "ASNT",
    "VenueName": "Asian Nataraj: Adilabad"
  },
  "ASSR": {
    "AvailableFormats": "2D",
    "City": "Siddipet",
    "Latitude": "18.0987",
    "Longitude": "78.8522",
    "RegionCode": "SDDP",
    "State": "Telangana",
    "SubRegionCode": "SDDP",
    "VenueAddress": "Aphb Colony, Shivaji Nagar, Hyderabad Road, Siddipet, Telangana 502103, India",
    "VenueCode": "ASSR",
    "VenueName": "Asian Srinivasa Deluxe: Siddipet"
  },
  "ASWT": {
    "AvailableFormats": "2D",
    "City": "Peringamala",
    "Latitude": "8.4146",
    "Longitude": "77.0184",
    "RegionCode": "TRIV",
    "State": "Kerala",
    "SubRegionCode": "TRIV",
    "VenueAddress": "C279+R9J, Pallichal, Vizhinjam Road, Pullannimukku, Peringamala, Kerala 695523, India",
    "VenueCode": "ASWT",
    "VenueName": "Aswathy Cineplus: Peringamala"
  },
  "ATGN": {
    "AvailableFormats": "2D",
    "City": "Bengaluru",
    "Latitude": "12.9737",
    "Longitude": "77.5776",
    "RegionCode": "HOKT",
    "State": "Karnataka",
    "SubRegionCode": "HOKT",
    "VenueAddress": "B.V.K. Ayengar Road, Gandhi Nagar, Near TNB Bank, Bengaluru, Karnataka 560009, India",
    "VenueCode": "ATGN",
    "VenueName": "Abhinay Theatre 4K A/C: Gandhinagar"
  },
  "ATPK": {
    "AvailableFormats": "2D",
    "City": "Palakkad",
    "Latitude": "10.7772",
    "Longitude": "76.6532",
    "RegionCode": "PLKK",
    "State": "Kerala",
    "SubRegionCode": "PLKK",
    "VenueAddress": "Priyadarshini Road, Sultanpet, Near Apex Residence, Palakkad, Kerala 678001, India",
    "VenueCode": "ATPK",
    "VenueName": "Aroma Theatre: Palakkad"
  },
  "ATYY": {
    "AvailableFormats": "",
    "City": "Kottayam",
    "FirstTracked": "2026-07-14",
    "Latitude": "9.586128",
    "Longitude": "76.52411",
    "RegionCode": "KTYM",
    "State": "Kerala",
    "SubRegionCode": "KTYM",
    "VenueAddress": "TB Road, Eerayil Kadavu, Near Asha Theatre, Kottayam, Kerala 686001, India",
    "VenueCode": "ATYY",
    "VenueName": "Anand Theatre Triple Beam 3D: Kottayam"
  },
  "AVDM": {
    "AvailableFormats": "2D",
    "City": "Mahbubnagar",
    "Latitude": "16.7451",
    "Longitude": "77.9918",
    "RegionCode": "JADC",
    "State": "Telangana",
    "SubRegionCode": "JADC",
    "VenueAddress": "Shah Saheb Gutta, Boyapalle Rural, Near Sri Hanuman Temple, Mahbubnagar, Telangana 509001, India",
    "VenueCode": "AVDM",
    "VenueName": "AVD Cinemas: Mahbubnagar"
  },
  "AXMC": {
    "AvailableFormats": "2D",
    "City": "Muvattupuzha",
    "Latitude": "9.98175",
    "Longitude": "76.5787",
    "RegionCode": "MUVA",
    "State": "Kerala",
    "SubRegionCode": "MUVA",
    "VenueAddress": "3rd Floor Grand Centre Mall, Thottumkalpeedika, Muvattupuzha, Kerala 686661, India",
    "VenueCode": "AXMC",
    "VenueName": "Aashirvad Cineplexx, GrandCentreMall: Muvattupuzha"
  },
  "BACS": {
    "AvailableFormats": "2D",
    "City": "Surat",
    "Latitude": "21.214",
    "Longitude": "72.8219",
    "RegionCode": "SURT",
    "State": "Gujarat",
    "SubRegionCode": "SURT",
    "VenueAddress": "72-78, Ved Road, Opposite Ramji Nagar Society, Fatakdawadi, Pandol, Industrial Estate, Katargam, Surat, Gujarat 395004, India",
    "VenueCode": "BACS",
    "VenueName": "Bajrang Cinema: Surat"
  },
  "BATG": {
    "AvailableFormats": "2D",
    "City": "Pondicherry",
    "Latitude": "11.9378",
    "Longitude": "79.8199",
    "RegionCode": "AURV",
    "State": "Tamil Nadu",
    "SubRegionCode": "AURV",
    "VenueAddress": "118,Brindavanam, Kamaraj Salai, Near Thanthai Periyar Statue, Pondicherry, Tamil Nadu 605013, India",
    "VenueCode": "BATG",
    "VenueName": "Balaji Theatre 70MM: Pondicherry"
  },
  "BCBA": {
    "AvailableFormats": "2D",
    "City": "Berachampa",
    "Latitude": "22.6934",
    "Longitude": "88.7022",
    "RegionCode": "BRAC",
    "State": "West Bengal",
    "SubRegionCode": "BRAC",
    "VenueAddress": "Berachampa, Taki Road, 24 PGS (N), Berachampa, West Bengal 743424, India",
    "VenueCode": "BCBA",
    "VenueName": "Banirupa Cinema: Berachampa"
  },
  "BDRB": {
    "AvailableFormats": "2D",
    "City": "Bhuvanagiri",
    "Latitude": "17.5106",
    "Longitude": "78.8893",
    "RegionCode": "BHUV",
    "State": "Telangana",
    "SubRegionCode": "BHUV",
    "VenueAddress": "Bhuvanagiri - Nalgonda Road, Bharpet, Bhuvanagiri, Telangana 508116, India",
    "VenueCode": "BDRB",
    "VenueName": "Badradri Theatre: Bhuvanagiri"
  },
  "BHEL": {
    "AvailableFormats": "2D",
    "City": "Trichy",
    "Latitude": "10.7695",
    "Longitude": "78.7974",
    "RegionCode": "TRIC",
    "State": "Tamil Nadu",
    "SubRegionCode": "TRIC",
    "VenueAddress": "Kamarajapuram BHEL Township, BHEL Tiruchirappali Complex area,Thiruverumbur,Trichy, Near BHEL Training Center, Trichy, Tamil Nadu 620022, India",
    "VenueCode": "BHEL",
    "VenueName": "BHELEC Cinema A/C Dolby 7.1: Trichy"
  },
  "BINT": {
    "AvailableFormats": "2D",
    "City": "Dubrajpur",
    "Latitude": "23.797",
    "Longitude": "87.3776",
    "RegionCode": "DUBR",
    "State": "West Bengal",
    "SubRegionCode": "DUBR",
    "VenueAddress": "Bharat Mata Sangha Road, Birbhum, Near S.J Electronics, Dubrajpur, West Bengal 731132, India",
    "VenueCode": "BINT",
    "VenueName": "Binapani Talkies: Dubrajpur"
  },
  "BKMV": {
    "AvailableFormats": "",
    "City": "Hyderabad",
    "FirstTracked": "2026-07-14",
    "Latitude": "17.343603",
    "Longitude": "78.554214",
    "RegionCode": "AUSH",
    "State": "Telangana",
    "SubRegionCode": "AUSH",
    "VenueAddress": "Gunti Jangaiah Nagar, LB Nagar, Raghavendra Nagar Colony, Opposite Bank Of India, Hyderabad, Telangana 500074, India",
    "VenueCode": "BKMV",
    "VenueName": "BVK Multiplex Vijayalakshmi: LB Nagar"
  },
  "BLMX": {
    "AvailableFormats": "2D",
    "City": "Vadodara",
    "Latitude": "22.3035",
    "Longitude": "73.1383",
    "RegionCode": "ANKV",
    "State": "Gujarat",
    "SubRegionCode": "ANKV",
    "VenueAddress": "Bansal Mall,Gotri - Bhayli Rd, Nilamber Char Rasta,Near, Saiyed Vasna, Gotri, Vadodara, Gujarat 390021, India",
    "VenueCode": "BLMX",
    "VenueName": "Bansal Movieplex Gotri-Vasna Road: Vadodara"
  },
  "BMYK": {
    "AvailableFormats": "",
    "City": "Deralakatte",
    "FirstTracked": "2026-07-14",
    "Latitude": "12.809443",
    "Longitude": "74.884476",
    "RegionCode": "DERA",
    "State": "Karnataka",
    "SubRegionCode": "DERA",
    "VenueAddress": "2nd Floor, Bearys Turning Point, Mangalore University Road, Deralakatte, Ullal, Deralakatte, Karnataka 575022, India",
    "VenueCode": "BMYK",
    "VenueName": "Bharath Cinemas: Bearys Turning Point, Deralakatte"
  },
  "BRTP": {
    "AvailableFormats": "2D",
    "City": "Palasa",
    "Latitude": "18.7661",
    "Longitude": "84.4217",
    "RegionCode": "PALS",
    "State": "Andhra Pradesh",
    "SubRegionCode": "PALS",
    "VenueAddress": "Shivaji Nagar, Kasibugga, Near Mandala Parishat Office, Palasa, Andhra Pradesh 532222, India",
    "VenueCode": "BRTP",
    "VenueName": "Bhaskara Rama A/C Dts: Palasa"
  },
  "BSSO": {
    "AvailableFormats": "2D",
    "City": "Ahmedabad",
    "Latitude": "23.0415",
    "Longitude": "72.4983",
    "RegionCode": "AHD",
    "State": "Gujarat",
    "SubRegionCode": "AHD",
    "VenueAddress": "312-314-315, Times Square Grand, Sindhu Bhavan Marg, Thaltej, Ahmedabad, Gujarat 380059, India",
    "VenueCode": "BSSO",
    "VenueName": "Sanelite Cinemas (Banana Smartplex): SBR, Thaltej"
  },
  "BTKD": {
    "AvailableFormats": "2D",
    "City": "Ongole",
    "Latitude": "15.5466",
    "Longitude": "79.9397",
    "RegionCode": "ONGL",
    "State": "Andhra Pradesh",
    "SubRegionCode": "ONGL",
    "VenueAddress": "GWWQ+JVV, Santhanuthalapadu, Ongole, Andhra Pradesh 523225, India",
    "VenueCode": "BTKD",
    "VenueName": "Sai Balaji A/c Dolby Surround: Santhanutalapadu"
  },
  "CACG": {
    "AvailableFormats": "",
    "City": "Ghumarwin",
    "FirstTracked": "2026-07-14",
    "Latitude": "31.442915",
    "Longitude": "76.719",
    "RegionCode": "GHUM",
    "State": "Himachal Pradesh",
    "SubRegionCode": "GHUM",
    "VenueAddress": "M/s Kritika Enterprises (Citara Plex Pvt. Ltd ), Kuthera Road, Near Post Office, Ghumarwin, Himachal Pradesh 174021, India",
    "VenueCode": "CACG",
    "VenueName": "Citara Cinema: Ghumarwin"
  },
  "CBMU": {
    "AvailableFormats": "3D|2D",
    "City": "Udaipur",
    "Latitude": "24.6123",
    "Longitude": "73.7026",
    "RegionCode": "UDAI",
    "State": "Rajasthan",
    "SubRegionCode": "UDAI",
    "VenueAddress": "4th Floor, The Celebration Mall, Sundercha N.H.- 8, Bhuwana, Opposite Devendra Dham Bhuwan, Udaipur, Rajasthan 313001, India",
    "VenueCode": "CBMU",
    "VenueName": "PVR: Celebration Mall, Udaipur"
  },
  "CCBA": {
    "AvailableFormats": "2D",
    "City": "Bagbahara",
    "Latitude": "21.0506",
    "Longitude": "82.3793",
    "RegionCode": "BBHA",
    "State": "Chhattisgarh",
    "SubRegionCode": "BBHA",
    "VenueAddress": "NH59, Bhawanipatna Raipur Highway, Near Post office, Bagbahara, Chhattisgarh 493449, India",
    "VenueCode": "CCBA",
    "VenueName": "City Cinema: Bagbahara"
  },
  "CCHW": {
    "AvailableFormats": "",
    "City": "Handwara",
    "FirstTracked": "2026-07-14",
    "Latitude": "34.401604",
    "Longitude": "74.27998",
    "RegionCode": "HNDW",
    "State": "Jammu and Kashmir",
    "SubRegionCode": "HNDW",
    "VenueAddress": "Maqbool Abad Khanabal B, Muncipal Committee, Handwara, Jammu and Kashmir 193221, India",
    "VenueCode": "CCHW",
    "VenueName": "Citara Cinemas: Handwara"
  },
  "CCMF": {
    "AvailableFormats": "2D",
    "City": "Charkhi Dadri",
    "Latitude": "28.5937",
    "Longitude": "76.2574",
    "RegionCode": "CCDD",
    "State": "Haryana",
    "SubRegionCode": "CCDD",
    "VenueAddress": "Main Loharu Road, Rose Petals Hotel Restaurant, Charkhi Dadri, Haryana 127306, India",
    "VenueCode": "CCMF",
    "VenueName": "Chhotu Maharaj Cine Cafe: Charkhi Dadri"
  },
  "CCNL": {
    "AvailableFormats": "",
    "City": "Nalbari",
    "FirstTracked": "2026-07-14",
    "Latitude": "26.454315",
    "Longitude": "91.40943",
    "RegionCode": "NALB",
    "State": "Assam",
    "SubRegionCode": "NALB",
    "VenueAddress": "National Highway 31, 5th Floor, Barkura Banekuchi, Nalbari, Assam 781340, India",
    "VenueCode": "CCNL",
    "VenueName": "Chhotu Maharaj Cine Cafe: Nalbari"
  },
  "CCRN": {
    "AvailableFormats": "",
    "City": "Chandrapur",
    "FirstTracked": "2026-07-14",
    "Latitude": "19.7872",
    "Longitude": "79.3843",
    "RegionCode": "CHAN",
    "State": "Maharashtra",
    "SubRegionCode": "CHAN",
    "VenueAddress": "E-cube, Beside Lakshmi Godown Main Road Bamanwada, Taluka rajura, Chandrapur, Maharashtra 442905, India",
    "VenueCode": "CCRN",
    "VenueName": "Chhotu Maharaj: Rajura, Chandrapur"
  },
  "CCXR": {
    "AvailableFormats": "2D",
    "City": "Gurugram (Gurgaon)",
    "Latitude": "28.3933",
    "Longitude": "76.9769",
    "RegionCode": "NCR",
    "State": "NCR",
    "SubRegionCode": "GURG",
    "VenueAddress": "Entertainland Mall, Floreal Towers, Sector 83, Gurugram (Gurgaon), NCR 122012, India",
    "VenueCode": "CCXR",
    "VenueName": "Connplex Cinemas: Luxuriance, Gurgaon"
  },
  "CDWP": {
    "AvailableFormats": "",
    "City": "Surat",
    "FirstTracked": "2026-07-14",
    "Latitude": "21.1957",
    "Longitude": "72.8598",
    "RegionCode": "SURT",
    "State": "Gujarat",
    "SubRegionCode": "SURT",
    "VenueAddress": "4th Floor, DR World Mall, Aai Mata Road, Surat, Gujarat 395010, India",
    "VenueCode": "CDWP",
    "VenueName": "Coconut Cinema DR World Parvat Patiya: Surat"
  },
  "CFBS": {
    "AvailableFormats": "2D|IMAX 2D|4DX|3D",
    "City": "Bengaluru",
    "Latitude": "12.9894",
    "Longitude": "77.7279",
    "RegionCode": "HOKT",
    "State": "Karnataka",
    "SubRegionCode": "HOKT",
    "VenueAddress": "3rd Floor, Nexus Shantiniketan Mall, Opposite Manipal Hospital, ITPL Main Road, Whitefield, Bengaluru, Karnataka 560067, India",
    "VenueCode": "CFBS",
    "VenueName": "Cinepolis: Nexus Shantiniketan, Bengaluru"
  },
  "CGGM": {
    "AvailableFormats": "2D",
    "City": "Kozhikode",
    "Latitude": "11.2581",
    "Longitude": "75.7931",
    "RegionCode": "KOZH",
    "State": "Kerala",
    "SubRegionCode": "KOZH",
    "VenueAddress": "97, Mavoor Road, Arayidathupalam, Near Federal Tower, Kozhikode, Kerala 673016, India",
    "VenueCode": "CGGM",
    "VenueName": "Cinepolis: Gokulam Galleria Mall"
  },
  "CGTT": {
    "AvailableFormats": "",
    "City": "Guntakal",
    "FirstTracked": "2026-07-14",
    "Latitude": "15.166328",
    "Longitude": "77.382965",
    "RegionCode": "GUNL",
    "State": "Andhra Pradesh",
    "SubRegionCode": "GUNL",
    "VenueAddress": "B.S.S. Colony, Tilak Nagar, Guntakal, Andhra Pradesh 515801, India",
    "VenueCode": "CGTT",
    "VenueName": "Chaitanya Theater: Guntakal"
  },
  "CHTH": {
    "AvailableFormats": "2D",
    "City": "Bengaluru",
    "Latitude": "12.9356",
    "Longitude": "77.5616",
    "RegionCode": "HOKT",
    "State": "Karnataka",
    "SubRegionCode": "HOKT",
    "VenueAddress": "Vidyapeeta circle, Katriguppe Main Road, Hanumanthanagar, Near Parekhs Hospital, Bengaluru, Karnataka 560050, India",
    "VenueCode": "CHTH",
    "VenueName": "Chandrodaya Digital 4K Cinema: Vidyapeeta Circle"
  },
  "CICM": {
    "AvailableFormats": "2D",
    "City": "Math Chandipur",
    "Latitude": "22.0886",
    "Longitude": "87.8576",
    "RegionCode": "MPUR",
    "State": "West Bengal",
    "SubRegionCode": "MPUR",
    "VenueAddress": "Mayukh Gift Corner, Nandigram Road, Math Chandipur, West Bengal 721659, India",
    "VenueCode": "CICM",
    "VenueName": "Chitranjali Cinema: Math Chandipur"
  },
  "CIPS": {
    "AvailableFormats": "2D|3D|4DX",
    "City": "Delhi",
    "Latitude": "28.5283",
    "Longitude": "77.2176",
    "RegionCode": "NCR",
    "State": "NCR",
    "SubRegionCode": "DELHI",
    "VenueAddress": "DLF Avenue, Saket District Centre, Plot-A4, Near Marriot Hotel, Saket, Delhi, NCR 110017, India",
    "VenueCode": "CIPS",
    "VenueName": "Cinepolis: DLF Avenue, Saket"
  },
  "CKUA": {
    "AvailableFormats": "2D|3D",
    "City": "Ahmedabad",
    "Latitude": "22.9998",
    "Longitude": "72.658",
    "RegionCode": "AHD",
    "State": "Gujarat",
    "SubRegionCode": "AHD",
    "VenueAddress": "3rd Floor, Near Nirant Cross Road, Metro Station Vastral, Ahmedabad, Gujarat 382418, India",
    "VenueCode": "CKUA",
    "VenueName": "Cinepolis: Kankubag, Vastral, Ahmedabad"
  },
  "CLKP": {
    "AvailableFormats": "",
    "City": "Patna",
    "FirstTracked": "2026-07-14",
    "Latitude": "25.6025",
    "Longitude": "85.1453",
    "RegionCode": "PATN",
    "State": "Bihar",
    "SubRegionCode": "PATN",
    "VenueAddress": "Avnc lifestyles Nutan Complex, Kankarbagh, Near KKrish Hyundai, Patna, Bihar 800020, India",
    "VenueCode": "CLKP",
    "VenueName": "Connplex Cinemas Luxuriance: Kankarbagh, Patna"
  },
  "CMAU": {
    "AvailableFormats": "2D",
    "City": "Abu Road",
    "Latitude": "24.4982",
    "Longitude": "72.766",
    "RegionCode": "ABRD",
    "State": "Rajasthan",
    "SubRegionCode": "ABRD",
    "VenueAddress": "New Town Housing, Revdar Road, Manpur Rural, Abu Road, Rajasthan 307026, India",
    "VenueCode": "CMAU",
    "VenueName": "Cineplus Multiplex: Abu Road"
  },
  "CMHU": {
    "AvailableFormats": "2D",
    "City": "Unnao",
    "Latitude": "26.5391",
    "Longitude": "80.5025",
    "RegionCode": "UNNA",
    "State": "Uttar Pradesh",
    "SubRegionCode": "UNNA",
    "VenueAddress": "Fantasy Motels Pvt Ltd, Hussain Nagar Bypass Road, Unnao, Uttar Pradesh 209801, India",
    "VenueCode": "CMHU",
    "VenueName": "Chhotu Maharaj Cine Cafe:Unnao"
  },
  "CMMN": {
    "AvailableFormats": "",
    "City": "Erode",
    "FirstTracked": "2026-07-14",
    "Latitude": "11.310983",
    "Longitude": "77.66701",
    "RegionCode": "EROD",
    "State": "Tamil Nadu",
    "SubRegionCode": "EROD",
    "VenueAddress": "R.S No 325/3A, Patta No-364, Puthur, Puthuppalayam Village and Pichandampalayam Panchayat, Erode, Tamil Nadu 638112, India",
    "VenueCode": "CMMN",
    "VenueName": "Chhotu Maharaj Cine Cafe: Erode"
  },
  "CMSN": {
    "AvailableFormats": "",
    "City": "Agra",
    "FirstTracked": "2026-07-14",
    "Latitude": "27.2032",
    "Longitude": "77.9671",
    "RegionCode": "AGRA",
    "State": "Uttar Pradesh",
    "SubRegionCode": "AGRA",
    "VenueAddress": "2nd Floor Bhawna Dwarka Street ,Prop. No. Comm 7, Anthem Pocket A Sec, 15 Avas Vikas Sikandra Agra, Agra, Uttar Pradesh 282007, India",
    "VenueCode": "CMSN",
    "VenueName": "Chhotu Maharaj: Sikandra Agra, UP"
  },
  "CMVV": {
    "AvailableFormats": "2D",
    "City": "Varanasi",
    "Latitude": "25.3012",
    "Longitude": "82.9586",
    "RegionCode": "VAR",
    "State": "Uttar Pradesh",
    "SubRegionCode": "VAR",
    "VenueAddress": "Plot No. 237/3, Madauli, Near St.Johns School, Varanasi, Uttar Pradesh 221003, India",
    "VenueCode": "CMVV",
    "VenueName": "Chhotu Maharaj Cine Cafe: Varanasi"
  },
  "CNCS": {
    "AvailableFormats": "2D",
    "City": "Sangamner",
    "Latitude": "19.5948",
    "Longitude": "74.1942",
    "RegionCode": "SMNE",
    "State": "Maharashtra",
    "SubRegionCode": "SMNE",
    "VenueAddress": "2nd Floor, Malpani Multiplex Mall, Gunjalwadi, Sangamner, Maharashtra 422605, India",
    "VenueCode": "CNCS",
    "VenueName": "Connplex Cinemas: Sangamner"
  },
  "CNLP": {
    "AvailableFormats": "3D|2D",
    "City": "Ahmedabad",
    "Latitude": "23.1461",
    "Longitude": "72.5463",
    "RegionCode": "GNAGAR",
    "State": "Gujarat",
    "SubRegionCode": "GNAGAR",
    "VenueAddress": "1st Floor, Master Avenue, Gandhinagar, Near - Vaishnodevi Circle, Ahmedabad, Gujarat 382421, India",
    "VenueCode": "CNLP",
    "VenueName": "Connplex Cinemas (Luxuriance): Vaishnodevi"
  },
  "CNRM": {
    "AvailableFormats": "2D",
    "City": "Bengaluru",
    "Latitude": "12.8759",
    "Longitude": "77.5956",
    "RegionCode": "HOKT",
    "State": "Karnataka",
    "SubRegionCode": "HOKT",
    "VenueAddress": "Royal Meenakshi Mall, Bannerghatta Road, Bengaluru, Karnataka 560076, India",
    "VenueCode": "CNRM",
    "VenueName": "Cinepolis: Royal Meenakshi Mall"
  },
  "CNWJ": {
    "AvailableFormats": "2D|3D",
    "City": "Jaipur",
    "Latitude": "26.8532",
    "Longitude": "75.8048",
    "RegionCode": "JAIP",
    "State": "Rajasthan",
    "SubRegionCode": "JAIP",
    "VenueAddress": "D-Block, Sector 4, JLN Marg, Malviya Nagar, Jaipur, Rajasthan 302017, India",
    "VenueCode": "CNWJ",
    "VenueName": "Cinepolis: World Trade Park Mall, Jaipur"
  },
  "COPG": {
    "AvailableFormats": "2D",
    "City": "Gandhinagar",
    "Latitude": "23.1848",
    "Longitude": "72.6229",
    "RegionCode": "GNAGAR",
    "State": "Gujarat",
    "SubRegionCode": "GNAGAR",
    "VenueAddress": "301-308, Shreeji Signature, Sargasan, Near Reliance Crossroad, Gandhinagar, Gujarat 382028, India",
    "VenueCode": "COPG",
    "VenueName": "Connplex Cinemas (Signature): Gandhinagar"
  },
  "CPCN": {
    "AvailableFormats": "2D",
    "City": "Bijainagar",
    "Latitude": "25.9298",
    "Longitude": "74.6475",
    "RegionCode": "BINW",
    "State": "Rajasthan",
    "SubRegionCode": "BINW",
    "VenueAddress": "Bus Stand Road, Opposite Hotel N Chandra Palace, Bijainagar, Rajasthan 305624, India",
    "VenueCode": "CPCN",
    "VenueName": "Cineplus Cinema: Bijainagar"
  },
  "CPJI": {
    "AvailableFormats": "3D|2D",
    "City": "Jaipur",
    "Latitude": "26.857",
    "Longitude": "75.8051",
    "RegionCode": "JAIP",
    "State": "Rajasthan",
    "SubRegionCode": "JAIP",
    "VenueAddress": "Cinepolis Jewel of India Jaipur, 1st Floor, KH. No.180,181,184,186, Horizon Tower, Jawahar Lal Nehru Marg, Jaipur, Rajasthan 302018, India",
    "VenueCode": "CPJI",
    "VenueName": "Cinepolis: Jewel of India, Jaipur (Newly Opened)"
  },
  "CPLX": {
    "AvailableFormats": "2D",
    "City": "Jeypore",
    "Latitude": "18.8588",
    "Longitude": "82.5902",
    "RegionCode": "JEYP",
    "State": "Odisha",
    "SubRegionCode": "JEYP",
    "VenueAddress": "Industrial Estate, Jeypore Vizianagaram Road, Jeypore, Odisha 764001, India",
    "VenueCode": "CPLX",
    "VenueName": "Celebration Cineplex: Jeypore"
  },
  "CPNS": {
    "AvailableFormats": "2D|3D",
    "City": "Delhi",
    "Latitude": "28.6947",
    "Longitude": "77.1542",
    "RegionCode": "NCR",
    "State": "NCR",
    "SubRegionCode": "DELHI",
    "VenueAddress": "NSP Pacific Mall, NSP Metro Station, Pitampura, Delhi, NCR 110034, India",
    "VenueCode": "CPNS",
    "VenueName": "Cinepolis: Pacific NSP2, Delhi"
  },
  "CPSH": {
    "AvailableFormats": "2D|3D",
    "City": "Jamshedpur",
    "Latitude": "22.785",
    "Longitude": "86.181",
    "RegionCode": "JMDP",
    "State": "Jharkhand",
    "SubRegionCode": "JMDP",
    "VenueAddress": "P and M Hi-Tech City Centre Mall, Millenium Park, Bistupur, Outer Circle Road, Jamshedpur, Jharkhand 831001, India",
    "VenueCode": "CPSH",
    "VenueName": "PJP Cinepolis: Jamshedpur"
  },
  "CPVV": {
    "AvailableFormats": "2D|3D",
    "City": "Thane",
    "Latitude": "19.2085",
    "Longitude": "72.9713",
    "RegionCode": "MUMBAI",
    "State": "Maharashtra",
    "SubRegionCode": "THNE",
    "VenueAddress": "Viviana Mall, Eastern Express Highway, Laxmi Nagar, Thane (West), Beside Jupiter Hospital, Thane, Maharashtra 400606, India",
    "VenueCode": "CPVV",
    "VenueName": "Cinepolis: VIP Viviana Mall, Thane"
  },
  "CRXH": {
    "AvailableFormats": "2D",
    "City": "Halol",
    "Latitude": "22.4966",
    "Longitude": "73.4714",
    "RegionCode": "HALO",
    "State": "Gujarat",
    "SubRegionCode": "HALO",
    "VenueAddress": "Townsquare Mall, 3rd Floor Oppositie Fire Station, Halol, Gujarat 389350, India",
    "VenueCode": "CRXH",
    "VenueName": "Cinemera Multiplex: Halol"
  },
  "CSHM": {
    "AvailableFormats": "2D",
    "City": "Mehsana",
    "Latitude": "23.6178",
    "Longitude": "72.3471",
    "RegionCode": "MEHS",
    "State": "Gujarat",
    "SubRegionCode": "MEHS",
    "VenueAddress": "B110, 1st Floor, Trogon Two, D,Mart Circle, Near Mehsana Bypass Road, Mehsana, Gujarat 384002, India",
    "VenueCode": "CSHM",
    "VenueName": "Connplex Cinemas: D`Mart Circle, Mehsana"
  },
  "CSST": {
    "AvailableFormats": "2D",
    "City": "Ahmedabad",
    "Latitude": "23.0525",
    "Longitude": "72.4807",
    "RegionCode": "AHD",
    "State": "Gujarat",
    "SubRegionCode": "AHD",
    "VenueAddress": "2nd Floor, Shilp The Address,Shilaj Road, SP Ringoad, Thaltej, Ahmedabad, Gujarat 380059, India",
    "VenueCode": "CSST",
    "VenueName": "Connplex Cinemas: Shilaj"
  },
  "CTBG": {
    "AvailableFormats": "",
    "City": "Bagalkot",
    "FirstTracked": "2026-07-14",
    "Latitude": "16.158556",
    "Longitude": "75.65981",
    "RegionCode": "BAGA",
    "State": "Karnataka",
    "SubRegionCode": "BAGA",
    "VenueAddress": "Plot No. 80, 81, Sector 25, Nava Nagar, Behind StateBank of India, Bagalkot, Karnataka 587103, India",
    "VenueCode": "CTBG",
    "VenueName": "Chandan Theatre: Bagalkot"
  },
  "CTMK": {
    "AvailableFormats": "2D",
    "City": "Korba",
    "Latitude": "22.3424",
    "Longitude": "82.6987",
    "RegionCode": "KRBA",
    "State": "Chhattisgarh",
    "SubRegionCode": "KRBA",
    "VenueAddress": "Purani Basti, Rani Road, Near Hotel Satkar Deluxe, Korba, Chhattisgarh 495677, India",
    "VenueCode": "CTMK",
    "VenueName": "Chitra Cinema: Korba"
  },
  "CTRD": {
    "AvailableFormats": "2D",
    "City": "Pune",
    "Latitude": "18.5165",
    "Longitude": "73.8423",
    "RegionCode": "PUNE",
    "State": "Maharashtra",
    "SubRegionCode": "PUNE",
    "VenueAddress": "2nd Floor, R Deccan Mall, Jangli Maharaj Road, Opp Deccan Bus Stand, Pune, Maharashtra 411004, India",
    "VenueCode": "CTRD",
    "VenueName": "City Pride: R Deccan"
  },
  "CVCT": {
    "AvailableFormats": "2D",
    "City": "Trichy",
    "Latitude": "10.8088",
    "Longitude": "78.6955",
    "RegionCode": "TRIC",
    "State": "Tamil Nadu",
    "SubRegionCode": "TRIC",
    "VenueAddress": "Heber Road, Palakarai, Trichy, Near Corporation Park, Trichy, Tamil Nadu 620001, India",
    "VenueCode": "CVCT",
    "VenueName": "Cauvery Cinemas 4K RGB LASER: Trichy"
  },
  "CWSC": {
    "AvailableFormats": "2D",
    "City": "Kanker",
    "Latitude": "20.2632",
    "Longitude": "81.5017",
    "RegionCode": "KANK",
    "State": "Chhattisgarh",
    "SubRegionCode": "KANK",
    "VenueAddress": "3rd Floor, City Center Kanker, Near New Bus Stand, Kanker, Chhattisgarh 494334, India",
    "VenueCode": "CWSC",
    "VenueName": "Cineworld City Center: Kanker"
  },
  "CXMK": {
    "AvailableFormats": "",
    "City": "Kodad",
    "FirstTracked": "2026-07-14",
    "Latitude": "16.99669",
    "Longitude": "79.96993",
    "RegionCode": "KODA",
    "State": "Telangana",
    "SubRegionCode": "KODA",
    "VenueAddress": "2nd Floor, GHR Honda Complex, Nayanagar Main Road, Suryapet, Kodad, Telangana 508206, India",
    "VenueCode": "CXMK",
    "VenueName": "Connplex Cinemas: Kodad"
  },
  "DACA": {
    "AvailableFormats": "",
    "City": "Danapur",
    "Latitude": "25.6369",
    "Longitude": "85.0458",
    "RegionCode": "PATN",
    "State": "Bihar",
    "SubRegionCode": "PATN",
    "VenueAddress": "Diana Cinema Road, Danapur Main Road, Near Danapur Bus Stand Road, Danapur, Bihar 801503, India",
    "VenueCode": "DACA",
    "VenueName": "Diana Danapur AC with New Full Screen Projection"
  },
  "DCCP": {
    "AvailableFormats": "2D",
    "City": "Pune",
    "Latitude": "18.7516",
    "Longitude": "73.8353",
    "RegionCode": "KHED",
    "State": "Maharashtra",
    "SubRegionCode": "KHED",
    "VenueAddress": "City Plaza, Talegaon, Chakan Road, Pune, Maharashtra 410501, India",
    "VenueCode": "DCCP",
    "VenueName": "Dharmatma Cinemark: Chakan, Pune"
  },
  "DCKT": {
    "AvailableFormats": "",
    "City": "Kurukshetra",
    "FirstTracked": "2026-07-14",
    "Latitude": "29.974691",
    "Longitude": "76.86679",
    "RegionCode": "KURU",
    "State": "Haryana",
    "SubRegionCode": "KURU",
    "VenueAddress": "Divine Business Park, New Bus Stand ,Pipli Road, Opposite New Bus Stand, Kurukshetra, Haryana 136118, India",
    "VenueCode": "DCKT",
    "VenueName": "Divine Cineplex: Kurukshetra"
  },
  "DCVV": {
    "AvailableFormats": "2D",
    "City": "Vadakkencherry",
    "Latitude": "10.5902",
    "Longitude": "76.4763",
    "RegionCode": "VDCY",
    "State": "Kerala",
    "SubRegionCode": "VDCY",
    "VenueAddress": "Vadakkencherry Road, Next to Q7 Bakery, Vadakkencherry, Kerala 678683, India",
    "VenueCode": "DCVV",
    "VenueName": "Dreambig Thankam Theatre: Vadakkencherry"
  },
  "DEMP": {
    "AvailableFormats": "2D",
    "City": "Thrissur",
    "Latitude": "10.4243",
    "Longitude": "76.1315",
    "RegionCode": "MANR",
    "State": "Kerala",
    "SubRegionCode": "MANR",
    "VenueAddress": "Kanjany Peringottukara Rd, Peringottukara,Kerala, Near Kanadi Kavu Temple, Thrissur, Kerala 680565, India",
    "VenueCode": "DEMP",
    "VenueName": "Deva Cinemas 4K Dolby Full Atmos: Peringottukara"
  },
  "DGGC": {
    "AvailableFormats": "2D",
    "City": "Goalpara",
    "Latitude": "26.1698",
    "Longitude": "90.6235",
    "RegionCode": "GOAL",
    "State": "Assam",
    "SubRegionCode": "GOAL",
    "VenueAddress": "Above Trends, Pancharatna Road, Near Canara Bank, Goalpara, Assam 783101, India",
    "VenueCode": "DGGC",
    "VenueName": "Diamond Cinema: Goalpara"
  },
  "DKTI": {
    "AvailableFormats": "2D",
    "City": "Bengaluru",
    "Latitude": "12.7978",
    "Longitude": "77.3838",
    "RegionCode": "BANG",
    "State": "Karnataka",
    "SubRegionCode": "BANG",
    "VenueAddress": "Nelligudda Tank Road, Next to Karnataka Bank, Behind Bidadi Bus Stand, Ramanagar District, Bengaluru, Karnataka 562109, India",
    "VenueCode": "DKTI",
    "VenueName": "Deepak Talkies: Bidadi"
  },
  "DMHA": {
    "AvailableFormats": "2D",
    "City": "Kalyani",
    "Latitude": "22.9673",
    "Longitude": "88.539",
    "RegionCode": "KALY",
    "State": "West Bengal",
    "SubRegionCode": "KALY",
    "VenueAddress": "2nd, Ward No 6 Balindi, Kalyani Road, Haringhata, Nadia, Kalyani, West Bengal 741246, India",
    "VenueCode": "DMHA",
    "VenueName": "Dolphin Multiplex: Haringhata (Dolby 7.1)"
  },
  "DNRP": {
    "AvailableFormats": "2D",
    "City": "Pathanamthitta",
    "Latitude": "9.26514",
    "Longitude": "76.7891",
    "RegionCode": "PTNM",
    "State": "Kerala",
    "SubRegionCode": "PTNM",
    "VenueAddress": "NH 183A Valanchuzhy, Pathanamthitta - Kadammanitta Road, Near Aananda Bavan Vegetarian Restaurant, Pathanamthitta, Kerala 689645, India",
    "VenueCode": "DNRP",
    "VenueName": "Dhanya Remya: Pathanamthitta"
  },
  "DREA": {
    "AvailableFormats": "",
    "City": "Mangaldoi",
    "FirstTracked": "2026-07-14",
    "Latitude": "26.44013",
    "Longitude": "92.03078",
    "RegionCode": "MANG",
    "State": "Assam",
    "SubRegionCode": "MANG",
    "VenueAddress": "2nd Floor, Sumitra Shopping Complex, LNB Road, Mangaldoi Darrang, Mangaldoi, Assam 784125, India",
    "VenueCode": "DREA",
    "VenueName": "FUN Cinemas Dream Theatre: Mangaldoi"
  },
  "DTDT": {
    "AvailableFormats": "3D|2D",
    "City": "Indore",
    "Latitude": "22.7035",
    "Longitude": "75.9178",
    "RegionCode": "IND",
    "State": "Madhya Pradesh",
    "SubRegionCode": "IND",
    "VenueAddress": "5th Floor, The Zodiac Mall, Scheme No. 140, Pipliyahana, Indore, Madhya Pradesh 452016, India",
    "VenueCode": "DTDT",
    "VenueName": "Drama Factory Cinema, Zodiac Mall: Indore"
  },
  "DVCA": {
    "AvailableFormats": "2D",
    "City": "Dhamtari",
    "Latitude": "20.7086",
    "Longitude": "81.5462",
    "RegionCode": "DHMT",
    "State": "Chhattisgarh",
    "SubRegionCode": "DHMT",
    "VenueAddress": "C/O Vimal Talkies, Dhamtari H.O, Near Bhagwati Lodge and Dawat Restaurat, Dhamtari, Chhattisgarh 493773, India",
    "VenueCode": "DVCA",
    "VenueName": "Devshri Cinema: Dhamtari"
  },
  "DZCM": {
    "AvailableFormats": "2D",
    "City": "Gangtok",
    "Latitude": "27.3264",
    "Longitude": "88.6114",
    "RegionCode": "GANG",
    "State": "Sikkim",
    "SubRegionCode": "GANG",
    "VenueAddress": "Lal Bazar Road, Opposite to Taxi Stand, Near Denzong Inn Hotel, Gangtok, Sikkim 737101, India",
    "VenueCode": "DZCM",
    "VenueName": "Denzong Cinema: Gangtok"
  },
  "ECVP": {
    "AvailableFormats": "",
    "City": "Vapi",
    "FirstTracked": "2026-07-14",
    "Latitude": "20.412039",
    "Longitude": "72.91532",
    "RegionCode": "DAMA",
    "State": "Gujarat",
    "SubRegionCode": "DAMA",
    "VenueAddress": "Empress Mall, 3rd Floor, National Highway No.8, Salvav, Near Swaminarayan School, Vapi, Gujarat 396191, India",
    "VenueCode": "ECVP",
    "VenueName": "Empress Cinemas: Vapi"
  },
  "ELMV": {
    "AvailableFormats": "",
    "City": "Vasco Da Gama",
    "FirstTracked": "2026-07-14",
    "Latitude": "15.400058",
    "Longitude": "73.804214",
    "RegionCode": "GOA",
    "State": "Goa",
    "SubRegionCode": "VAGG",
    "VenueAddress": "Alto Desterro, Harbour Road, Near Ganesh Temple,Bogda, Vasco Da Gama, Goa 403802, India",
    "VenueCode": "ELMV",
    "VenueName": "El Monte Cinema: Vasco Da Gama, Goa"
  },
  "EOCS": {
    "AvailableFormats": "2D",
    "City": "Sundargarh",
    "Latitude": "22.1043",
    "Longitude": "84.0378",
    "RegionCode": "SUND",
    "State": "Odisha",
    "SubRegionCode": "SUND",
    "VenueAddress": "Sankara City, Mission Road, Sankara Road, Sundargarh, Odisha 770001, India",
    "VenueCode": "EOCS",
    "VenueName": "EOS Cinema: Sundargarh"
  },
  "ESCP": {
    "AvailableFormats": "2D",
    "City": "Patna",
    "Latitude": "25.6177",
    "Longitude": "85.1486",
    "RegionCode": "PATN",
    "State": "Bihar",
    "SubRegionCode": "PATN",
    "VenueAddress": "East of Gandhi Maidan, Near Kargil Chowk, Bakarganj, Patna, Bihar 800004, India",
    "VenueCode": "ESCP",
    "VenueName": "Elphinstone Cinema"
  },
  "ESYM": {
    "AvailableFormats": "3D|2D",
    "City": "Yavatmal",
    "Latitude": "20.3575",
    "Longitude": "78.1019",
    "RegionCode": "YAVA",
    "State": "Maharashtra",
    "SubRegionCode": "YAVA",
    "VenueAddress": "Elements Mall, Ring Road, Tulja Nagari, SatyaNarayan Layout, Yavatmal, Maharashtra 445002, India",
    "VenueCode": "ESYM",
    "VenueName": "Elements Cinema: Yavatmal"
  },
  "EYCJ": {
    "AvailableFormats": "2D",
    "City": "Jharsuguda",
    "Latitude": "21.8505",
    "Longitude": "84.0129",
    "RegionCode": "JRSG",
    "State": "Odisha",
    "SubRegionCode": "JRSG",
    "VenueAddress": "Shanti City Center, Sarbahal Road, Jharsuguda, Odisha 768201, India",
    "VenueCode": "EYCJ",
    "VenueName": "Eylex Cinema: Jharsuguda"
  },
  "FCMC": {
    "AvailableFormats": "",
    "City": "Indore",
    "FirstTracked": "2026-07-14",
    "Latitude": "22.606922",
    "Longitude": "75.79433",
    "RegionCode": "IND",
    "State": "Madhya Pradesh",
    "SubRegionCode": "IND",
    "VenueAddress": "Trinity Mall, Mhow-Indore Road, Umariya, Indore, Madhya Pradesh 453331, India",
    "VenueCode": "FCMC",
    "VenueName": "Fortune Cinema: Mhow"
  },
  "FFCX": {
    "AvailableFormats": "2D|3D",
    "City": "Indore",
    "Latitude": "22.6197",
    "Longitude": "75.8018",
    "RegionCode": "IND",
    "State": "Madhya Pradesh",
    "SubRegionCode": "IND",
    "VenueAddress": "Fundore Mall, 1st floor, Ahead of Rau Circle and Opposite Guru Kripa Restaurant, Near Red Maple Mashal Resort, Rau, Indore, Madhya Pradesh 453331, India",
    "VenueCode": "FFCX",
    "VenueName": "Fundore Cinemas, Rau: Indore"
  },
  "FMKY": {
    "AvailableFormats": "2D|3D",
    "City": "Kalyan",
    "Latitude": "19.2299",
    "Longitude": "73.1232",
    "RegionCode": "MUMBAI",
    "State": "Maharashtra",
    "SubRegionCode": "KALYAN",
    "VenueAddress": "2nd Floor, Metro Junction Mall, Netivali Village, Kalyan Shilphata Road, Kalyan, Maharashtra 421306, India",
    "VenueCode": "FMKY",
    "VenueName": "INOX: Metro Mall Junction, Kalyan (E)"
  },
  "FNAN": {
    "AvailableFormats": "2D|3D",
    "City": "Mumbai",
    "Latitude": "19.1358",
    "Longitude": "72.8332",
    "RegionCode": "MUMBAI",
    "State": "Maharashtra",
    "SubRegionCode": "MWEST",
    "VenueAddress": "Plot No.844/4,Level 4, Shah Industrial Estate, Veera Desai Road, Andheri(West), Near ICICI Bank ATM, Mumbai, Maharashtra 400053, India",
    "VenueCode": "FNAN",
    "VenueName": "Cinepolis: Fun Republic Mall, Andheri (W)"
  },
  "FNGW": {
    "AvailableFormats": "2D|3D",
    "City": "Gwalior",
    "Latitude": "26.2094",
    "Longitude": "78.1663",
    "RegionCode": "GWAL",
    "State": "Madhya Pradesh",
    "SubRegionCode": "GWAL",
    "VenueAddress": "Dindayal City Mall, MLB Road, Lashkar, Opp Zoo, Gwalior, Madhya Pradesh 474001, India",
    "VenueCode": "FNGW",
    "VenueName": "Fun Cinemas: DD City Mall, Gwalior"
  },
  "FPPF": {
    "AvailableFormats": "2D",
    "City": "Ponkunnam",
    "Latitude": "9.56543",
    "Longitude": "76.7565",
    "RegionCode": "PONK",
    "State": "Kerala",
    "SubRegionCode": "PONK",
    "VenueAddress": "Post Office Road, Near Art Line Digital Studio, Ponkunnam, Kerala 686506, India",
    "VenueCode": "FPPF",
    "VenueName": "Focus Cinemas: Ponkunnam"
  },
  "FSMA": {
    "AvailableFormats": "2D",
    "City": "Angamaly",
    "Latitude": "10.2119",
    "Longitude": "76.4519",
    "RegionCode": "KLDY",
    "State": "Kerala",
    "SubRegionCode": "KLDY",
    "VenueAddress": "Canal Pass, Manjapra, Angamaly, Kerala 683581, India",
    "VenueCode": "FSMA",
    "VenueName": "Four Star Movies: Manjapra, Angamaly"
  },
  "GAGA": {
    "AvailableFormats": "2D",
    "City": "Nabarangpur",
    "Latitude": "19.2124",
    "Longitude": "82.5491",
    "RegionCode": "NAGU",
    "State": "Odisha",
    "SubRegionCode": "NAGU",
    "VenueAddress": "Glaze Hotel and Resorts Pvt Limited, National Highway, Chamuriyaguda, Nabarangpur, Odisha 764059, India",
    "VenueCode": "GAGA",
    "VenueName": "Glaze Cinemas: Nabarangpur"
  },
  "GATM": {
    "AvailableFormats": "2D",
    "City": "Mysuru (Mysore)",
    "Latitude": "12.3018",
    "Longitude": "76.651",
    "RegionCode": "MYS",
    "State": "Karnataka",
    "SubRegionCode": "MYS",
    "VenueAddress": "Chamaraja Double Road, K.R.Mohalla, Agrahara, Mysuru (Mysore), Karnataka 570024, India",
    "VenueCode": "GATM",
    "VenueName": "Gayathri Talkies: Mysuru, Christie Solaria 2K"
  },
  "GCAT": {
    "AvailableFormats": "2D",
    "City": "Golaghat",
    "Latitude": "26.5113",
    "Longitude": "93.9726",
    "RegionCode": "GHT",
    "State": "Assam",
    "SubRegionCode": "GHT",
    "VenueAddress": "Municipality Complex, Old Jail Road, Near Kutchina Modular Showroom, Golaghat, Assam 785621, India",
    "VenueCode": "GCAT",
    "VenueName": "Gold Cinema: Golaghat"
  },
  "GCDS": {
    "AvailableFormats": "2D",
    "City": "Sarangarh",
    "Latitude": "21.6384",
    "Longitude": "83.1056",
    "RegionCode": "SARH",
    "State": "Chhattisgarh",
    "SubRegionCode": "SARH",
    "VenueAddress": "33, Hardi Road, Sarangarh, Chhattisgarh 496450, India",
    "VenueCode": "GCDS",
    "VenueName": "Grand Cineplex: Sarangarh"
  },
  "GCIC": {
    "AvailableFormats": "2D",
    "City": "Ichalkaranji",
    "Latitude": "16.6985",
    "Longitude": "74.4577",
    "RegionCode": "ICHL",
    "State": "Maharashtra",
    "SubRegionCode": "ICHL",
    "VenueAddress": "Station Road, Vikash Nagar, Ichalkaranji, Maharashtra 416115, India",
    "VenueCode": "GCIC",
    "VenueName": "Guru Chitramandir: Ichalkaranji"
  },
  "GCMJ": {
    "AvailableFormats": "2D|3D",
    "City": "Jaipur",
    "Latitude": "26.8563",
    "Longitude": "75.8059",
    "RegionCode": "JAIP",
    "State": "Rajasthan",
    "SubRegionCode": "JAIP",
    "VenueAddress": "4th Floor, G.T Central Mall, Plot No.4, Indira Palace, Malviya Nagar, Jaipur, Rajasthan 302017, India",
    "VenueCode": "GCMJ",
    "VenueName": "INOX: GT Central Mall, Jaipur"
  },
  "GCSG": {
    "AvailableFormats": "2D",
    "City": "Similiguda",
    "Latitude": "18.7059",
    "Longitude": "82.8506",
    "RegionCode": "SIMI",
    "State": "Odisha",
    "SubRegionCode": "SIMI",
    "VenueAddress": "Himgiri Nagar, Koraput, Near State Bank of India, Similiguda, Odisha 764036, India",
    "VenueCode": "GCSG",
    "VenueName": "Galaxy Cinema: Semiliguda"
  },
  "GDBR": {
    "AvailableFormats": "2D",
    "City": "Beawar",
    "Latitude": "26.1053",
    "Longitude": "74.3131",
    "RegionCode": "BEAW",
    "State": "Rajasthan",
    "SubRegionCode": "BEAW",
    "VenueAddress": "8/12, Modi City Centre, Station Road, Beawar, Rajasthan 305901, India",
    "VenueCode": "GDBR",
    "VenueName": "Gold Cinema: Beawar"
  },
  "GDDR": {
    "AvailableFormats": "2D",
    "City": "Dausa",
    "Latitude": "26.9013",
    "Longitude": "76.34",
    "RegionCode": "DAUS",
    "State": "Rajasthan",
    "SubRegionCode": "DAUS",
    "VenueAddress": "Sunshine Complex, 1st Tower, Agra - Jaipur Road, Opposite P.G. College, Near Pinky Hotel, Dausa, Rajasthan 303303, India",
    "VenueCode": "GDDR",
    "VenueName": "Gold Cinema: Dausa"
  },
  "GECA": {
    "AvailableFormats": "2D",
    "City": "Kuju",
    "Latitude": "23.7285",
    "Longitude": "85.5079",
    "RegionCode": "GGHH",
    "State": "Jharkhand",
    "SubRegionCode": "GGHH",
    "VenueAddress": "Main Road, Hesagraha, Kuju, Jharkhand 825316, India",
    "VenueCode": "GECA",
    "VenueName": "Geetanjali Cinema (DOLBY LASER): Kuju, Ramgarh"
  },
  "GGGV": {
    "AvailableFormats": "2D",
    "City": "Karimganj",
    "Latitude": "24.8671",
    "Longitude": "92.3682",
    "RegionCode": "KRNJ",
    "State": "Assam",
    "SubRegionCode": "KRNJ",
    "VenueAddress": "Old Station Road, Next to CityLife Supermarket, Karimganj, Assam 788710, India",
    "VenueCode": "GGGV",
    "VenueName": "Genesis Gold Cinema: Karimganj"
  },
  "GIER": {
    "AvailableFormats": "2D",
    "City": "Berhampur",
    "Latitude": "19.3102",
    "Longitude": "84.7914",
    "RegionCode": "BERP",
    "State": "Odisha",
    "SubRegionCode": "BERP",
    "VenueAddress": "Janata City Centre, Telephone Bhawan Road, Gandhi Nagar, Berhampur, Odisha 760001, India",
    "VenueCode": "GIER",
    "VenueName": "Gayatri Cinemas: Berhampur"
  },
  "GLDA": {
    "AvailableFormats": "2D",
    "City": "Chhatrapati Sambhajinagar (Aurangabad)",
    "Latitude": "19.8626",
    "Longitude": "75.3154",
    "RegionCode": "AURA",
    "State": "Maharashtra",
    "SubRegionCode": "AURA",
    "VenueAddress": "Plot No. 5, Vedant Nagar, Railway Station Road, Beside Vedant Hotel,  Chhatrapati Sambhaji Nagar, Beside Vedant Hotel,  Chhatrapati Sambhaji Nagar, Chhatrapati Sambhajinagar (Aurangabad), Maharashtra ",
    "VenueCode": "GLDA",
    "VenueName": "Goldie Cinemark: Chhatrapati Sambhaji Nagar"
  },
  "GMMC": {
    "AvailableFormats": "2D",
    "City": "Madurai",
    "Latitude": "10.0308",
    "Longitude": "78.3397",
    "RegionCode": "MADU",
    "State": "Tamil Nadu",
    "SubRegionCode": "MADU",
    "VenueAddress": "584, Trichy - Madurai Highway, Melur, Madurai, Tamil Nadu 625106, India",
    "VenueCode": "GMMC",
    "VenueName": "Ganesh Cinemas (Melur) 4K RGB Laser & Dolby Atmos"
  },
  "GOST": {
    "AvailableFormats": "2D",
    "City": "Varadaiahpalem",
    "Latitude": "13.6011",
    "Longitude": "79.9331",
    "RegionCode": "VARA",
    "State": "Andhra Pradesh",
    "SubRegionCode": "VARA",
    "VenueAddress": "Tranku Road, Near APSRTC Bus Stand, Varadaiahpalem, Andhra Pradesh 517541, India",
    "VenueCode": "GOST",
    "VenueName": "Sri Gowrisankar Cinema`s A/C 4K Dolby 7.1 Surround"
  },
  "GPMY": {
    "AvailableFormats": "2D",
    "City": "Bengaluru",
    "Latitude": "12.9583",
    "Longitude": "77.5533",
    "RegionCode": "HOKT",
    "State": "Karnataka",
    "SubRegionCode": "HOKT",
    "VenueAddress": "Gopalan Legacy Mall, No 148 Mysore Road, Near Sirsi Circle, Bengaluru, Karnataka 560026, India",
    "VenueCode": "GPMY",
    "VenueName": "Gopalan Mall: Sirsi Circle"
  },
  "GRNG": {
    "AvailableFormats": "",
    "City": "Ghaziabad",
    "Latitude": "28.6549",
    "Longitude": "77.4356",
    "RegionCode": "NCR",
    "State": "NCR",
    "SubRegionCode": "GHAZ",
    "VenueAddress": "C-115, Grand Trunk Road, Model Town East, Gandhi Nagar, Nehru Nagar III, Ghaziabad, NCR 201001, India",
    "VenueCode": "GRNG",
    "VenueName": "Grand Cinemaz@Choudhry Mall"
  },
  "GTBY": {
    "AvailableFormats": "2D",
    "City": "Bellary",
    "Latitude": "15.1441",
    "Longitude": "76.9284",
    "RegionCode": "BLRY",
    "State": "Karnataka",
    "SubRegionCode": "BLRY",
    "VenueAddress": "Natraj Theater Royal Circle, Natraj Theater Complex, Old Katte Gudda, Cowl Bazaar, Bellary, Karnataka 583101, India",
    "VenueCode": "GTBY",
    "VenueName": "Ganga Theatre: Bellary"
  },
  "GTGA": {
    "AvailableFormats": "2D",
    "City": "Tiptur",
    "Latitude": "13.2589",
    "Longitude": "76.4848",
    "RegionCode": "TIPT",
    "State": "Karnataka",
    "SubRegionCode": "TIPT",
    "VenueAddress": "Bengaluru - Honnavar Road, Edenahalli, Tiptur, Karnataka 572201, India",
    "VenueCode": "GTGA",
    "VenueName": "Ganesh Theatre Laser Projection: Tiptur"
  },
  "GTUR": {
    "AvailableFormats": "2D",
    "City": "Tezpur",
    "Latitude": "26.6311",
    "Longitude": "92.8103",
    "RegionCode": "TEZP",
    "State": "Assam",
    "SubRegionCode": "TEZP",
    "VenueAddress": "Arhaans Royal Sensation, Barikachuburi, Near LGBRIMH New Gate, Ex Police Line Road, Tezpur, Assam 784001, India",
    "VenueCode": "GTUR",
    "VenueName": "Gold Cinema: Tezpur"
  },
  "GYBU": {
    "AvailableFormats": "2D|3D",
    "City": "Bengaluru",
    "Latitude": "13.0977",
    "Longitude": "77.5839",
    "RegionCode": "HOKT",
    "State": "Karnataka",
    "SubRegionCode": "HOKT",
    "VenueAddress": "INOX Leisure Ltd, 4th Floor, Garuda Yelahanka, 1st A Main Road, Yelahanka New Town, Bengaluru, Karnataka 560064, India",
    "VenueCode": "GYBU",
    "VenueName": "INOX: Garuda Yelahanka, Bengaluru"
  },
  "HCAJ": {
    "AvailableFormats": "2D",
    "City": "Jewar",
    "Latitude": "28.1206",
    "Longitude": "77.5563",
    "RegionCode": "JEWR",
    "State": "Uttar Pradesh",
    "SubRegionCode": "JEWR",
    "VenueAddress": "Amba Mall, Goyal Bhawan, Khurja Road, Noida, Opposite HDFC Bank, Jewar, Uttar Pradesh 203135, India",
    "VenueCode": "HCAJ",
    "VenueName": "Amba Cineplex: Jewar"
  },
  "HGSM": {
    "AvailableFormats": "2D",
    "City": "Muvattupuzha",
    "Latitude": "9.97568",
    "Longitude": "76.5801",
    "RegionCode": "MUVA",
    "State": "Kerala",
    "SubRegionCode": "MUVA",
    "VenueAddress": "Bus Stand, 130 Junction, MC Road, Near KSRTC, Thottumkalpeedika, Muvattupuzha, Kerala 686673, India",
    "VenueCode": "HGSM",
    "VenueName": "Highstreet Cinema: Canton Highstreet, Muvattupuzha"
  },
  "HMMW": {
    "AvailableFormats": "2D|3D",
    "City": "Washim",
    "Latitude": "20.1096",
    "Longitude": "77.1269",
    "RegionCode": "WASH",
    "State": "Maharashtra",
    "SubRegionCode": "WASH",
    "VenueAddress": "Upper Ground Floor,B-Wing, Patni Commercial Comple, Washim, Maharashtra 444505, India",
    "VenueCode": "HMMW",
    "VenueName": "H2M Movieplex: Washim"
  },
  "HVCA": {
    "AvailableFormats": "2D",
    "City": "Ahmedabad",
    "Latitude": "23.0115",
    "Longitude": "72.5976",
    "RegionCode": "AHD",
    "State": "Gujarat",
    "SubRegionCode": "AHD",
    "VenueAddress": "1st Floor, Eka Club by TransStadia, Kankaria Lake, Opposite Gate No.3, Ahmedabad, Gujarat 380022, India",
    "VenueCode": "HVCA",
    "VenueName": "Havelock Cineflix Cinemas: Maninagar, Ahmedabad"
  },
  "IDEN": {
    "AvailableFormats": "2D",
    "City": "Delhi",
    "Latitude": "28.5513",
    "Longitude": "77.2515",
    "RegionCode": "NCR",
    "State": "NCR",
    "SubRegionCode": "DELHI",
    "VenueAddress": "Lower Ground Floor, Epicuria, TDI South Bridge, Nehru Place Metro Station, PD Area, Delhi, NCR 110019, India",
    "VenueCode": "IDEN",
    "VenueName": "INOX: Insignia At Epicuria, Nehru Place"
  },
  "ILCM": {
    "AvailableFormats": "3D|2D",
    "City": "Lucknow",
    "Latitude": "26.8886",
    "Longitude": "81.0554",
    "RegionCode": "LUCK",
    "State": "Uttar Pradesh",
    "SubRegionCode": "LUCK",
    "VenueAddress": "INOX  Leisure LTD, 3rd Floor, Crown Mall, Faizabad Road, Atif Vihar, Opposite BBD University, Lucknow, Uttar Pradesh 226028, India",
    "VenueCode": "ILCM",
    "VenueName": "INOX: Crown Mall, Lucknow"
  },
  "IMJW": {
    "AvailableFormats": "3D|2D|IMAX 2D",
    "City": "Mumbai",
    "Latitude": "19.066",
    "Longitude": "72.8668",
    "RegionCode": "MUMBAI",
    "State": "Maharashtra",
    "SubRegionCode": "MWEST",
    "VenueAddress": "3rd Floor, Jio World Plaza, G Block BKC, Bandra Kurla Complex, Bandra East, Mumbai, Maharashtra 400055, India",
    "VenueCode": "IMJW",
    "VenueName": "Maison INOX: Jio World Plaza, BKC"
  },
  "INAC": {
    "AvailableFormats": "2D|3D",
    "City": "Ajmer",
    "Latitude": "26.5147",
    "Longitude": "74.6339",
    "RegionCode": "AJMER",
    "State": "Rajasthan",
    "SubRegionCode": "AJMER",
    "VenueAddress": "3rd Floor, City Square Mall, A Block Panchsheel Colony, Makarwali Road, Ajmer, Rajasthan 305004, India",
    "VenueCode": "INAC",
    "VenueName": "INOX: City Square Mall, Ajmer"
  },
  "INBL": {
    "AvailableFormats": "2D|3D",
    "City": "Belagavi (Belgaum)",
    "Latitude": "15.8531",
    "Longitude": "74.5092",
    "RegionCode": "BELG",
    "State": "Karnataka",
    "SubRegionCode": "BELG",
    "VenueAddress": "Near BSNL Office, Head Post Office Road, Belgaum Camp, Near BSNL office, Belagavi (Belgaum), Karnataka 590001, India",
    "VenueCode": "INBL",
    "VenueName": "INOX: Camp Road, Belagavi"
  },
  "INCS": {
    "AvailableFormats": "3D|2D",
    "City": "Cuttack",
    "Latitude": "20.4613",
    "Longitude": "85.8691",
    "RegionCode": "CUTT",
    "State": "Odisha",
    "SubRegionCode": "CUTT",
    "VenueAddress": "SGBL Square,Town Hall Road, Unit No. 15, Choudhury Bazar, Cuttack, Odisha 753009, India",
    "VenueCode": "INCS",
    "VenueName": "INOX: Cuttack SGBL Square Mall"
  },
  "INGW": {
    "AvailableFormats": "2D|3D",
    "City": "Gwalior",
    "Latitude": "26.2162",
    "Longitude": "78.185",
    "RegionCode": "GWAL",
    "State": "Madhya Pradesh",
    "SubRegionCode": "GWAL",
    "VenueAddress": "2nd Floor, DB Mall, Race course Road, Old MPSRTC Work Station, Opposite Gwalior Railway Station, Gwalior, Madhya Pradesh 474002, India",
    "VenueCode": "INGW",
    "VenueName": "INOX: DB Mall, Gwalior"
  },
  "INKS": {
    "AvailableFormats": "2D|3D",
    "City": "Kolkata",
    "Latitude": "22.5712",
    "Longitude": "88.4011",
    "RegionCode": "KOLK",
    "State": "West Bengal",
    "SubRegionCode": "KOLK",
    "VenueAddress": "INOX Leisure Ltd, 89C, Moulana Abul Kalam Azad Sarani, Kolkata, West Bengal 700054, India",
    "VenueCode": "INKS",
    "VenueName": "INOX: Swabhumi, Maulana Azad Sarani"
  },
  "INOA": {
    "AvailableFormats": "2D|3D",
    "City": "Goa",
    "Latitude": "15.2859",
    "Longitude": "73.9572",
    "RegionCode": "BTBM",
    "State": "Goa",
    "SubRegionCode": "BTBM",
    "VenueAddress": "A Wing, 2nd Floor, Osia Commercial Arcade, SGPDA Market Complex, Margao, Goa, Goa 403601, India",
    "VenueCode": "INOA",
    "VenueName": "INOX: Osia A Wing Margao, Goa"
  },
  "INPS": {
    "AvailableFormats": "2D|3D",
    "City": "Jaipur",
    "Latitude": "26.9031",
    "Longitude": "75.8364",
    "RegionCode": "JAIP",
    "State": "Rajasthan",
    "SubRegionCode": "JAIP",
    "VenueAddress": "Raja Park, Govind Marg, Pink Square Mall, Jaipur, Rajasthan 302004, India",
    "VenueCode": "INPS",
    "VenueName": "INOX: Pink Square Mall, Adarsh Nagar"
  },
  "INRR": {
    "AvailableFormats": "2D",
    "City": "Rajkot",
    "Latitude": "22.3026",
    "Longitude": "70.7965",
    "RegionCode": "RAJK",
    "State": "Gujarat",
    "SubRegionCode": "RAJK",
    "VenueAddress": "Old Dharam Cinema Building, Kasturba Road, Naval Nagar, Near Saurashtra Cricket Association, Rajkot, Gujarat 360001, India",
    "VenueCode": "INRR",
    "VenueName": "INOX: Rajkot R World"
  },
  "INTA": {
    "AvailableFormats": "2D",
    "City": "Manapparai",
    "Latitude": "10.6097",
    "Longitude": "78.4233",
    "RegionCode": "MAPI",
    "State": "Tamil Nadu",
    "SubRegionCode": "MAPI",
    "VenueAddress": "Boys Town, Kulithalai - Manapparai Road, Nea Aavin Shop, Manapparai, Tamil Nadu 621306, India",
    "VenueCode": "INTA",
    "VenueName": "INDIRA CINEMAS A/C DOLBY 7.1: MANAPPARAI"
  },
  "INVJ": {
    "AvailableFormats": "2D",
    "City": "Vijayawada",
    "Latitude": "16.5172",
    "Longitude": "80.631",
    "RegionCode": "KADU",
    "State": "Andhra Pradesh",
    "SubRegionCode": "KADU",
    "VenueAddress": "Urvashi Theatre Complex, 26-2-66/A, Andhra Ratna Road, Gandhi Nagar, Vijayawada, Andhra Pradesh 520003, India",
    "VenueCode": "INVJ",
    "VenueName": "INOX: Urvasi Complex, Gandhi Nagar"
  },
  "INZD": {
    "AvailableFormats": "2D",
    "City": "Zirakpur",
    "Latitude": "30.6199",
    "Longitude": "76.8231",
    "RegionCode": "CHD",
    "State": "Punjab",
    "SubRegionCode": "ZRIK",
    "VenueAddress": "INOX Leisure Ltd, 2nd Floor, Dhillon Square Mall, Chhatbir Road, Chandigarh - Ambala Highway, Zirakpur, Zirakpur, Punjab 140603, India",
    "VenueCode": "INZD",
    "VenueName": "INOX: Dhillon Plaza (Zirakpur)"
  },
  "IPBG": {
    "AvailableFormats": "2D|3D",
    "City": "Navi Mumbai",
    "Latitude": "19.0853",
    "Longitude": "73.0076",
    "RegionCode": "MUMBAI",
    "State": "Maharashtra",
    "SubRegionCode": "THAN",
    "VenueAddress": "INOX Leisure Ltd, Plot No.17, Palm Beach Galleria Mall, Sector 19D, Palm Beach Road, Vashi, Navi Mumbai, Maharashtra 400703, India",
    "VenueCode": "IPBG",
    "VenueName": "INOX: Palm Beach Galleria Mall, Navi Mumbai"
  },
  "IRGT": {
    "AvailableFormats": "2D|3D",
    "City": "Thane",
    "Latitude": "19.2304",
    "Longitude": "72.9774",
    "RegionCode": "MUMBAI",
    "State": "Maharashtra",
    "SubRegionCode": "THNE",
    "VenueAddress": "3rd Floor, R Mall,Ghodbunder Road, Opposite Lokim Company, Dokali Pada, Dhokali, Thane West, Thane, Maharashtra 400607, India",
    "VenueCode": "IRGT",
    "VenueName": "INOX: Insignia at R Mall, Thane"
  },
  "ISTJ": {
    "AvailableFormats": "2D|3D",
    "City": "Jaipur",
    "Latitude": "26.8768",
    "Longitude": "75.7608",
    "RegionCode": "JAIP",
    "State": "Rajasthan",
    "SubRegionCode": "JAIP",
    "VenueAddress": "Sunny Trade Center, 3rd Floor, New Aatish Market, Jaipur, Rajasthan 302020, India",
    "VenueCode": "ISTJ",
    "VenueName": "INOX: Sunny Trade Center, Jaipur"
  },
  "JACP": {
    "AvailableFormats": "2D",
    "City": "Jajpur Road",
    "Latitude": "20.9459",
    "Longitude": "86.1311",
    "RegionCode": "JAJP",
    "State": "Odisha",
    "SubRegionCode": "JAJP",
    "VenueAddress": "New Bus Stand, Bypass Road, Umapada, Jajpur Road, Odisha 755019, India",
    "VenueCode": "JACP",
    "VenueName": "Jagannath Cine Palace: Jajpur Road"
  },
  "JBTV": {
    "AvailableFormats": "2D",
    "City": "Vadakkencherry",
    "Latitude": "10.5977",
    "Longitude": "76.4814",
    "RegionCode": "VDCY",
    "State": "Kerala",
    "SubRegionCode": "VDCY",
    "VenueAddress": "Vadakkanchery - Padur Road, Karayankadu, Vadakkencherry, Kerala 678683, India",
    "VenueCode": "JBTV",
    "VenueName": "Jayabharath Theatre: Vadakkencherry"
  },
  "JCPC": {
    "AvailableFormats": "2D",
    "City": "Badaun",
    "Latitude": "28.0354",
    "Longitude": "79.1234",
    "RegionCode": "BADN",
    "State": "Uttar Pradesh",
    "SubRegionCode": "BADN",
    "VenueAddress": "Sotha Mohallah, Opposite Bada Gost Bazaar, Badaun, Uttar Pradesh 243601, India",
    "VenueCode": "JCPC",
    "VenueName": "J C Picture Palace: Budaun"
  },
  "JGDM": {
    "AvailableFormats": "",
    "City": "Vizag",
    "Latitude": "17.7122",
    "Longitude": "83.3022",
    "RegionCode": "VIZA",
    "State": "Andhra Pradesh",
    "SubRegionCode": "VIZA",
    "VenueAddress": "Chitralaya Road, Jagadamba Junction, Near South Indian Bank ATM, Vizag, Andhra Pradesh 530020, India",
    "VenueCode": "JGDM",
    "VenueName": "Jagadamba Complex A/C 4K Dolby Atmos : Vizag"
  },
  "JJPP": {
    "AvailableFormats": "2D",
    "City": "Hyderabad",
    "Latitude": "17.4951",
    "Longitude": "78.3341",
    "RegionCode": "HYD",
    "State": "Telangana",
    "SubRegionCode": "HYD",
    "VenueAddress": "Shop No. W-4, Tapadia Maruti Infinity Mall, Door No. 2-132, Chanda Nagar, Hyderabad, Telangana 500050, India",
    "VenueCode": "JJPP",
    "VenueName": "JP Cinemas: Chandanagar"
  },
  "JMEX": {
    "AvailableFormats": "2D",
    "City": "Malkangiri",
    "Latitude": "18.364",
    "Longitude": "81.9024",
    "RegionCode": "MALG",
    "State": "Odisha",
    "SubRegionCode": "MALG",
    "VenueAddress": "National Highway 326, Near Kaniska Automobiles, Malkangiri, Odisha 764045, India",
    "VenueCode": "JMEX",
    "VenueName": "J Max Cinemas: Malkangiri"
  },
  "JPCJ": {
    "AvailableFormats": "2D",
    "City": "Jalalabad",
    "Latitude": "30.6035",
    "Longitude": "74.2602",
    "RegionCode": "JLAB",
    "State": "Punjab",
    "SubRegionCode": "JLAB",
    "VenueAddress": "J P Cinema, Muktsar Road, Jalalabad, Punjab 152024, India",
    "VenueCode": "JPCJ",
    "VenueName": "JP Cinema: Jalalabad"
  },
  "JTAP": {
    "AvailableFormats": "",
    "City": "Thirubhuvanai",
    "FirstTracked": "2026-07-14",
    "Latitude": "11.918086",
    "Longitude": "79.64769",
    "RegionCode": "THRU",
    "State": "Tamil Nadu",
    "SubRegionCode": "THRU",
    "VenueAddress": "197 Main Road, Puducherry - Vilupuram Road, Thirubhuvanai, Tamil Nadu 605102, India",
    "VenueCode": "JTAP",
    "VenueName": "Central Talkies: Thirubuvanai"
  },
  "JTJL": {
    "AvailableFormats": "2D",
    "City": "Edlapadu",
    "Latitude": "16.1719",
    "Longitude": "80.2287",
    "RegionCode": "EDLP",
    "State": "Andhra Pradesh",
    "SubRegionCode": "EDLP",
    "VenueAddress": "NH 16, Chennai - Srikakualm Highway, Near Virinchi Gardens, Edlapadu, Andhra Pradesh 522233, India",
    "VenueCode": "JTJL",
    "VenueName": "Jayalakshmi Movie Land: Edlapadu"
  },
  "JTMV": {
    "AvailableFormats": "2D",
    "City": "Chennai",
    "Latitude": "13.3357",
    "Longitude": "80.1947",
    "RegionCode": "CHEN",
    "State": "Tamil Nadu",
    "SubRegionCode": "CHEN",
    "VenueAddress": "57,Newcar Street, Thiruvallur Dist,NGO Nagar Extension,Chennai, Tamil Nadu 601204, India",
    "VenueCode": "JTMV",
    "VenueName": "VVM Cinemas 3D 2K AC Dts, Ponneri: Chennai"
  },
  "JTRA": {
    "AvailableFormats": "2D",
    "City": "Anakapalle",
    "Latitude": "17.6927",
    "Longitude": "83.0018",
    "RegionCode": "ANKP",
    "State": "Andhra Pradesh",
    "SubRegionCode": "ANKP",
    "VenueAddress": "Narasinga Rao Peta, Near Tata Docomo Store, Anakapalle, Andhra Pradesh 531001, India",
    "VenueCode": "JTRA",
    "VenueName": "Ramachandra Theatre: Anakapalle"
  },
  "JTSX": {
    "AvailableFormats": "",
    "City": "Vizag",
    "FirstTracked": "2026-07-14",
    "Latitude": "17.749195",
    "Longitude": "83.21968",
    "RegionCode": "SABB",
    "State": "Andhra Pradesh",
    "SubRegionCode": "SABB",
    "VenueAddress": "14-244, Gopalpatnam Main Road, Vizag, Andhra Pradesh 530027, India",
    "VenueCode": "JTSX",
    "VenueName": "Sukanya Complex: Vizag"
  },
  "JVRC": {
    "AvailableFormats": "2D",
    "City": "Jaggampeta",
    "Latitude": "17.1769",
    "Longitude": "82.0616",
    "RegionCode": "JAGG",
    "State": "Andhra Pradesh",
    "SubRegionCode": "JAGG",
    "VenueAddress": "Gollalagunta Road, Near by Ravulamma Talli Temple, Jaggampeta, Andhra Pradesh 533435, India",
    "VenueCode": "JVRC",
    "VenueName": "JVR Cinemas: Jaggampeta"
  },
  "JYYN": {
    "AvailableFormats": "2D",
    "City": "Nagpur",
    "Latitude": "21.1415",
    "Longitude": "79.0833",
    "RegionCode": "NAGP",
    "State": "Maharashtra",
    "SubRegionCode": "NAGP",
    "VenueAddress": "Abhyankar Marg, Sitabuldi, Near Maharashtra Bank, Nagpur, Maharashtra 440012, India",
    "VenueCode": "JYYN",
    "VenueName": "Janki Theatre (2K Laser,5.1 Dolby): Sitabuldi"
  },
  "KANT": {
    "AvailableFormats": "2D|3D",
    "City": "Betul",
    "Latitude": "21.8984",
    "Longitude": "77.9051",
    "RegionCode": "BETU",
    "State": "Madhya Pradesh",
    "SubRegionCode": "BETU",
    "VenueAddress": "Near Railway Station, Betulganj, Near Kantishiva Chowk, Betul, Madhya Pradesh 460001, India",
    "VenueCode": "KANT",
    "VenueName": "Kantishiva Multiplex: Betul"
  },
  "KBPM": {
    "AvailableFormats": "2D",
    "City": "Pamuru",
    "Latitude": "15.0961",
    "Longitude": "79.4099",
    "RegionCode": "PMMR",
    "State": "Andhra Pradesh",
    "SubRegionCode": "PMMR",
    "VenueAddress": "Chitralaya Street, Near SBI, Pamuru, Andhra Pradesh 523108, India",
    "VenueCode": "KBPM",
    "VenueName": "KB Srinivasa A/C 2K Dolby 7.1: Pamuru"
  },
  "KCKG": {
    "AvailableFormats": "2D|3D",
    "City": "Kopargaon",
    "Latitude": "19.8833",
    "Longitude": "74.4762",
    "RegionCode": "KOPG",
    "State": "Maharashtra",
    "SubRegionCode": "KOPG",
    "VenueAddress": "2061,1st Floor, K City Centre, Gurudwara Road, Dist.Ahmednagar, Kopargaon, Maharashtra 423601, India",
    "VenueCode": "KCKG",
    "VenueName": "K Cineplex: Kopargaon"
  },
  "KCSA": {
    "AvailableFormats": "",
    "City": "Namakkal",
    "FirstTracked": "2026-07-14",
    "Latitude": "11.22639",
    "Longitude": "78.16373",
    "RegionCode": "NMKL",
    "State": "Tamil Nadu",
    "SubRegionCode": "NMKL",
    "VenueAddress": "49, R.P Pudur, Salem - Namakkal Road, Namakkal, Tamil Nadu 637001, India",
    "VenueCode": "KCSA",
    "VenueName": "KS Cineplex Screen 1 by DNC Theatres: Namakkal"
  },
  "KDCT": {
    "AvailableFormats": "2D",
    "City": "Madurai",
    "Latitude": "9.88219",
    "Longitude": "78.0614",
    "RegionCode": "MADU",
    "State": "Tamil Nadu",
    "SubRegionCode": "MADU",
    "VenueAddress": "Sannathi Street,12/1, Pandiyan Nagar, Madurai, Tamil Nadu 625005, India",
    "VenueCode": "KDCT",
    "VenueName": "Kannan Devi Cinemas, Tirunagar: Madurai"
  },
  "KHMJ": {
    "AvailableFormats": "2D",
    "City": "Jalna",
    "Latitude": "19.8322",
    "Longitude": "75.9121",
    "RegionCode": "JALN",
    "State": "Maharashtra",
    "SubRegionCode": "JALN",
    "VenueAddress": "Krishna Mall, Krishna Vihar, Mantha Ambad Bypass Ring Road, Jalna, Maharashtra 431203, India",
    "VenueCode": "KHMJ",
    "VenueName": "Krishna Multiplex: Jalna"
  },
  "KKMA": {
    "AvailableFormats": "2D",
    "City": "Silvassa",
    "Latitude": "20.2716",
    "Longitude": "72.9916",
    "RegionCode": "SILV",
    "State": "Gujarat",
    "SubRegionCode": "SILV",
    "VenueAddress": "Prithviraj Chauhan Marg, Gujarat State Highway 185p, ,Opposite Yatri Niwas Hotel, Silvassa, Gujarat 396230, India",
    "VenueCode": "KKMA",
    "VenueName": "The Cine Station: Silvassa"
  },
  "KLMS": {
    "AvailableFormats": "2D",
    "City": "Kim",
    "Latitude": "21.4049",
    "Longitude": "72.9148",
    "RegionCode": "SURT",
    "State": "Gujarat",
    "SubRegionCode": "SURT",
    "VenueAddress": "3rd Floor, Laxmi Arcade, Kim Olpad Road, Mulad Village, Near Laxmi Bungalow, Kim, Gujarat 394110, India",
    "VenueCode": "KLMS",
    "VenueName": "KD Laxmi Multiplex (Dolby 7.1): Kim, Surat"
  },
  "KMPG": {
    "AvailableFormats": "2D",
    "City": "Ganapavaram",
    "Latitude": "16.7032",
    "Longitude": "81.4632",
    "RegionCode": "GANP",
    "State": "Andhra Pradesh",
    "SubRegionCode": "GANP",
    "VenueAddress": "Ganapavaram - Pippara Road, Near Ganapavaram Panchayat Office, Ganapavaram, Andhra Pradesh 534198, India",
    "VenueCode": "KMPG",
    "VenueName": "Kumari Picture Palace A/C Dts: Ganapavaram"
  },
  "KOVI": {
    "AvailableFormats": "2D",
    "City": "Coimbatore",
    "Latitude": "10.9989",
    "Longitude": "76.9686",
    "RegionCode": "COIM",
    "State": "Tamil Nadu",
    "SubRegionCode": "COIM",
    "VenueAddress": "7/21, State Bank Road, Gopala Puram, Near Annamali hotel, Coimbatore, Tamil Nadu 641018, India",
    "VenueCode": "KOVI",
    "VenueName": "Kovai Shanti Complex 4K 3D: Coimbatore"
  },
  "KRGD": {
    "AvailableFormats": "2D",
    "City": "Giddalur",
    "Latitude": "15.3809",
    "Longitude": "78.9312",
    "RegionCode": "GDAL",
    "State": "Andhra Pradesh",
    "SubRegionCode": "GDAL",
    "VenueAddress": "Racherla Gate Center, Racherla Road, Giddalur, Andhra Pradesh 523357, India",
    "VenueCode": "KRGD",
    "VenueName": "Krishna Theater: Giddalur"
  },
  "KRTO": {
    "AvailableFormats": "",
    "City": "Ongole",
    "FirstTracked": "2026-07-14",
    "Latitude": "15.509667",
    "Longitude": "80.0479",
    "RegionCode": "ADKI",
    "State": "Andhra Pradesh",
    "SubRegionCode": "ADKI",
    "VenueAddress": "Islampet, Gopal Nagar, Near Fire Station, Ongole, Andhra Pradesh 523001, India",
    "VenueCode": "KRTO",
    "VenueName": "Krishna Theatre: Ongole"
  },
  "KSKL": {
    "AvailableFormats": "2D",
    "City": "Karnal",
    "Latitude": "29.6935",
    "Longitude": "77.0028",
    "RegionCode": "KARN",
    "State": "Haryana",
    "SubRegionCode": "KARN",
    "VenueAddress": "Sector 12, Main Road, Karnal, Haryana 132001, India",
    "VenueCode": "KSKL",
    "VenueName": "Harsh A Movie: Karnal"
  },
  "KSTR": {
    "AvailableFormats": "2D",
    "City": "Alappuzha",
    "Latitude": "9.49605",
    "Longitude": "76.3412",
    "RegionCode": "CRTL",
    "State": "Kerala",
    "SubRegionCode": "CRTL",
    "VenueAddress": "CCNB Road, Erezha, Mullakkal, Near St George Lodgings, Alappuzha, Kerala 688011, India",
    "VenueCode": "KSTR",
    "VenueName": "Kairali Sree Theater: Alappuzha"
  },
  "KTKO": {
    "AvailableFormats": "2D",
    "City": "B.Kothakota",
    "Latitude": "13.6586",
    "Longitude": "78.2672",
    "RegionCode": "BKOT",
    "State": "Andhra Pradesh",
    "SubRegionCode": "BKOT",
    "VenueAddress": "Bypass Road, Handadi, B.Kothakota, Andhra Pradesh 517370, India",
    "VenueCode": "KTKO",
    "VenueName": "Sri Venkateswara Theater Dolby Digital"
  },
  "KVCS": {
    "AvailableFormats": "2D",
    "City": "Chennai",
    "Latitude": "13.0345",
    "Longitude": "80.2306",
    "RegionCode": "CHEN",
    "State": "Tamil Nadu",
    "SubRegionCode": "CHEN",
    "VenueAddress": "No 3 Usman Road, T. Nagar, Chennai, Near Mehta Hospitals Pvt Ltd, Chennai, Tamil Nadu 600017, India",
    "VenueCode": "KVCS",
    "VenueName": "KC(KrishnaveniCinemas) RG3 LASER DOLBYATMOS TNAGAR"
  },
  "LAIM": {
    "AvailableFormats": "2D",
    "City": "Vijayawada",
    "Latitude": "16.5066",
    "Longitude": "80.6285",
    "RegionCode": "VIJA",
    "State": "Andhra Pradesh",
    "SubRegionCode": "VIJA",
    "VenueAddress": "4th Floor, Laila Mall, M.G. Road, Vijayawada, Andhra Pradesh 520002, India",
    "VenueCode": "LAIM",
    "VenueName": "INOX: Laila Mall, M.G. Road"
  },
  "LBCN": {
    "AvailableFormats": "",
    "City": "Nanded",
    "FirstTracked": "2026-07-14",
    "Latitude": "19.146639",
    "Longitude": "77.322266",
    "RegionCode": "NAND",
    "State": "Maharashtra",
    "SubRegionCode": "NAND",
    "VenueAddress": "Gadipura, Khadakpura, Nanded, Maharashtra 431604, India",
    "VenueCode": "LBCN",
    "VenueName": "Liberty Cinema: Nanded"
  },
  "LCPC": {
    "AvailableFormats": "2D",
    "City": "Pune",
    "Latitude": "19.1187",
    "Longitude": "73.9729",
    "RegionCode": "PUNE",
    "State": "Maharashtra",
    "SubRegionCode": "PUNE",
    "VenueAddress": "Telephone Exchange Road, Narayan Gaon, Near Shinde Market, Pune, Maharashtra 410504, India",
    "VenueCode": "LCPC",
    "VenueName": "Laxmi Cineplex: Narayangaon"
  },
  "LGTV": {
    "AvailableFormats": "2D",
    "City": "Vizianagaram",
    "Latitude": "18.1103",
    "Longitude": "83.3976",
    "RegionCode": "VIZI",
    "State": "Andhra Pradesh",
    "SubRegionCode": "VIZI",
    "VenueAddress": "Fort City Central Mall, Railway Station Road, Gadi Khana, Pedavemali, Beside Leela Mahal theatre, Vizianagaram, Andhra Pradesh 535001, India",
    "VenueCode": "LGTV",
    "VenueName": "LGT Cinemas: Vizianagaram"
  },
  "LKMT": {
    "AvailableFormats": "2D",
    "City": "Hyderabad",
    "Latitude": "17.4948",
    "Longitude": "78.5112",
    "RegionCode": "HYD",
    "State": "Telangana",
    "SubRegionCode": "HYD",
    "VenueAddress": "Shop No: 14 - 69, Lothukunta Road, Lothkunta, Alwal, Secunderabad, Near Alwal City Bus Stop, Next to Sona Wines, Hyderabad, Telangana 500015, India",
    "VenueCode": "LKMT",
    "VenueName": "Lakshmi Kala Mandir: Alwal"
  },
  "LLCT": {
    "AvailableFormats": "2D",
    "City": "Tanda",
    "Latitude": "31.6758",
    "Longitude": "75.6348",
    "RegionCode": "TNDA",
    "State": "Punjab",
    "SubRegionCode": "TNDA",
    "VenueAddress": "Gurdaspur Road, Near Civil Hospital, Tanda, Punjab 144204, India",
    "VenueCode": "LLCT",
    "VenueName": "Lakhi Cinemas: Tanda"
  },
  "LPTH": {
    "AvailableFormats": "2D",
    "City": "Hospet",
    "Latitude": "15.2733",
    "Longitude": "76.3918",
    "RegionCode": "HOSP",
    "State": "Karnataka",
    "SubRegionCode": "HOSP",
    "VenueAddress": "No. 202, Jn Road, Saraswati Picture Palace, Near Malligi Hotel, Hospet, Karnataka 583201, India",
    "VenueCode": "LPTH",
    "VenueName": "Lakshmi Picture Palace: Hospet"
  },
  "LTTP": {
    "AvailableFormats": "2D",
    "City": "Madurai",
    "Latitude": "9.87549",
    "Longitude": "78.0653",
    "RegionCode": "MADU",
    "State": "Tamil Nadu",
    "SubRegionCode": "MADU",
    "VenueAddress": "Thirupparankundram Road, Avaniyapuram, Near Kasi Viswanathar Temple, Madurai, Tamil Nadu 625005, India",
    "VenueCode": "LTTP",
    "VenueName": "Sri Lakshmi Theatre: Thirupparankundram"
  },
  "LYAS": {
    "AvailableFormats": "2D",
    "City": "Solapur",
    "Latitude": "17.6533",
    "Longitude": "75.9318",
    "RegionCode": "SOLA",
    "State": "Maharashtra",
    "SubRegionCode": "SOLA",
    "VenueAddress": "S.No.218/2 C, Adarsh Nagar, Akashwai Kendra Road, Opposite MIDC, Solapur, Maharashtra 413006, India",
    "VenueCode": "LYAS",
    "VenueName": "Laxminarayan Cinema: Solapur"
  },
  "MACB": {
    "AvailableFormats": "2D|3D",
    "City": "Banswara",
    "Latitude": "23.5537",
    "Longitude": "74.4264",
    "RegionCode": "BANS",
    "State": "Rajasthan",
    "SubRegionCode": "BANS",
    "VenueAddress": "3rd Floor, Nakshatra Mall, Udaipur Dungarpur Link Road, Banswara, Rajasthan 327001, India",
    "VenueCode": "MACB",
    "VenueName": "Mukta A2 Cinemas: Nakshatra Mall, Banswara"
  },
  "MAFC": {
    "AvailableFormats": "2D",
    "City": "Sangli",
    "Latitude": "16.8603",
    "Longitude": "74.5698",
    "RegionCode": "SANG",
    "State": "Maharashtra",
    "SubRegionCode": "SANG",
    "VenueAddress": "3rd Floor, SFC Mega Mall, Station Road, Sangli, Maharashtra 416416, India",
    "VenueCode": "MAFC",
    "VenueName": "Mukta A2 Cinemas: SFC Mega Mall, Sangli"
  },
  "MAJU": {
    "AvailableFormats": "2D",
    "City": "Bhusawal",
    "Latitude": "21.0482",
    "Longitude": "75.7777",
    "RegionCode": "BHUS",
    "State": "Maharashtra",
    "SubRegionCode": "BHUS",
    "VenueAddress": "Juna Satara, Mahatma Fule Nagar, Mamaji Talkies Road, Bhusawal, Maharashtra 425201, India",
    "VenueCode": "MAJU",
    "VenueName": "Shree Mamaji Talkies: Bhusawal"
  },
  "MARS": {
    "AvailableFormats": "2D",
    "City": "Sarsiwa",
    "Latitude": "21.6194",
    "Longitude": "82.9572",
    "RegionCode": "SARS",
    "State": "Chhattisgarh",
    "SubRegionCode": "SARS",
    "VenueAddress": "Marko cineplex, Near Maruti Petroleum, Tilaipali, Sarsiwa, Chhattisgarh 493559, India",
    "VenueCode": "MARS",
    "VenueName": "Marko Cineplex: Sarsiwa"
  },
  "MAXX": {
    "AvailableFormats": "2D",
    "City": "Sonipat",
    "Latitude": "29.004",
    "Longitude": "77.0332",
    "RegionCode": "RAIH",
    "State": "Haryana",
    "SubRegionCode": "RAIH",
    "VenueAddress": "3rd Floor MG Mall, Sector 14, Sonipat, Haryana 131001, India",
    "VenueCode": "MAXX",
    "VenueName": "Maxx Cinema: Sonipat"
  },
  "MBKR": {
    "AvailableFormats": "2D",
    "City": "Khariar Road",
    "Latitude": "20.8599",
    "Longitude": "82.5139",
    "RegionCode": "KHRR",
    "State": "Odisha",
    "SubRegionCode": "KHRR",
    "VenueAddress": "Dumerpani, Nandapur, Khariar Road, Odisha 766104, India",
    "VenueCode": "MBKR",
    "VenueName": "MB Cinema: Khariar Road"
  },
  "MCBG": {
    "AvailableFormats": "2D|3D",
    "City": "Balaghat",
    "Latitude": "21.8173",
    "Longitude": "80.1916",
    "RegionCode": "BLGT",
    "State": "Madhya Pradesh",
    "SubRegionCode": "BLGT",
    "VenueAddress": "Kalptaru Mall, Chitragupt Nagar, Near Mahavir Chowk, Balaghat, Madhya Pradesh 481001, India",
    "VenueCode": "MCBG",
    "VenueName": "Miraj Cinemas: Balaghat"
  },
  "MCDA": {
    "AvailableFormats": "2D",
    "City": "Dalli Rajhara",
    "Latitude": "20.5958",
    "Longitude": "81.0725",
    "RegionCode": "DALL",
    "State": "Chhattisgarh",
    "SubRegionCode": "DALL",
    "VenueAddress": "Chiklakasa, Durga Dalli Rajhara Road, Near Chikhlakasa Petrol Pump, Dalli Rajhara, Chhattisgarh 491228, India",
    "VenueCode": "MCDA",
    "VenueName": "Mathur Cineplex: Dalli Rajhara"
  },
  "MCGN": {
    "AvailableFormats": "3D|2D",
    "City": "Gurugram (Gurgaon)",
    "Latitude": "28.4274",
    "Longitude": "77.0361",
    "RegionCode": "NCR",
    "State": "NCR",
    "SubRegionCode": "GURG",
    "VenueAddress": "4th Floor, Celebration Mall, Sohna Road, Sector 48, Gurugram (Gurgaon), NCR 122001, India",
    "VenueCode": "MCGN",
    "VenueName": "Movietime Cinemas: Celebration Mall, Gurgaon"
  },
  "MCIK": {
    "AvailableFormats": "2D",
    "City": "Kochi",
    "Latitude": "10.0799",
    "Longitude": "76.2704",
    "RegionCode": "PALY",
    "State": "Kerala",
    "SubRegionCode": "PALY",
    "VenueAddress": "Chettibhagam Main Rd, Varapuzha, Near Christ The King Roman Catholic Church, Kochi, Kerala 683517, India",
    "VenueCode": "MCIK",
    "VenueName": "M Cinemas 4K 3D Dolby ATMOS: Varapuzha"
  },
  "MCKT": {
    "AvailableFormats": "",
    "City": "Hyderabad",
    "FirstTracked": "2026-07-14",
    "Latitude": "17.3696",
    "Longitude": "78.5396",
    "RegionCode": "HYD",
    "State": "Telangana",
    "SubRegionCode": "HYD",
    "VenueAddress": "Laxmi Nagar Colony, Kothapet Road, Near Axis Bank, Hyderabad, Telangana 500102, India",
    "VenueCode": "MCKT",
    "VenueName": "Mahalaxmi Complex: Kothapet"
  },
  "MCNE": {
    "AvailableFormats": "2D|3D",
    "City": "Mumbai",
    "Latitude": "18.9375",
    "Longitude": "72.8336",
    "RegionCode": "MUMBAI",
    "State": "Maharashtra",
    "SubRegionCode": "MCENT",
    "VenueAddress": "24, A K Nayak Marg, Near VT Station, Azad Maidan, Fort, Near Central Bank Of India, Mumbai, Maharashtra 400001, India",
    "VenueCode": "MCNE",
    "VenueName": "Mukta A2 Cinemas: New Excelsior, Fort"
  },
  "MCSA": {
    "AvailableFormats": "2D",
    "City": "Atpadi",
    "Latitude": "17.4277",
    "Longitude": "74.9392",
    "RegionCode": "ATPA",
    "State": "Maharashtra",
    "SubRegionCode": "ATPA",
    "VenueAddress": "Theater Chowk, Pandharpur Road, Opposite Parvati Lodge, Atpadi, Maharashtra 415301, India",
    "VenueCode": "MCSA",
    "VenueName": "Shri Siddanath Chitra Mandir: Atpadi"
  },
  "MCTC": {
    "AvailableFormats": "2D",
    "City": "Coimbatore",
    "Latitude": "11.0776",
    "Longitude": "76.9419",
    "RegionCode": "COIM",
    "State": "Tamil Nadu",
    "SubRegionCode": "COIM",
    "VenueAddress": "Mettupalayam Road, Cheran Colony, Thudiyalur, Near Raj Driving School, Coimbatore, Tamil Nadu 641034, India",
    "VenueCode": "MCTC",
    "VenueName": "Murugan Cinemas A/C 4K Atmos: Thudiyalur"
  },
  "MCXE": {
    "AvailableFormats": "2D",
    "City": "Erandol",
    "Latitude": "20.9247",
    "Longitude": "75.3321",
    "RegionCode": "JALG",
    "State": "Maharashtra",
    "SubRegionCode": "JALG",
    "VenueAddress": "Mahasawad Naka, Onkaro Jadhav Nagar, Erandol, Maharashtra 425109, India",
    "VenueCode": "MCXE",
    "VenueName": "Morya Cineplex: Erandol"
  },
  "MDKI": {
    "AvailableFormats": "2D",
    "City": "Bengaluru",
    "Latitude": "12.9157",
    "Longitude": "77.5632",
    "RegionCode": "HOKT",
    "State": "Karnataka",
    "SubRegionCode": "HOKT",
    "VenueAddress": "Subramanyapura Main Road, Padmanabhanagar, Near Kadirenahalli Outer Ring Road Junction, Behind The Bangalore City Co-operative Bank Ltd (Padmanabhanagar Branch), 6th Cross, Banashankari 2nd Stage, Ben",
    "VenueCode": "MDKI",
    "VenueName": "Mahadeshwara Cinema 4K Dolby ATMOS AC Banashankari"
  },
  "MEMB": {
    "AvailableFormats": "2D",
    "City": "Baddi",
    "Latitude": "30.9255",
    "Longitude": "76.7993",
    "RegionCode": "BADD",
    "State": "Himachal Pradesh",
    "SubRegionCode": "BADD",
    "VenueAddress": "Motia Plaza, Barotiwala Road, Baddi, Himachal Pradesh 173205, India",
    "VenueCode": "MEMB",
    "VenueName": "Maurice Multiplex: Baddi"
  },
  "MFCP": {
    "AvailableFormats": "2D",
    "City": "Pattambi",
    "Latitude": "10.8044",
    "Longitude": "76.1948",
    "RegionCode": "PTMB",
    "State": "Kerala",
    "SubRegionCode": "PTMB",
    "VenueAddress": "Magic Frames, Vadakumuri, Pattambi, Kerala 679303, India",
    "VenueCode": "MFCP",
    "VenueName": "Magic Frames Cinemas 4K Laser 3D Atmos: Pattambi"
  },
  "MHKT": {
    "AvailableFormats": "2D",
    "City": "Kanpur",
    "Latitude": "26.4673",
    "Longitude": "80.3172",
    "RegionCode": "KANP",
    "State": "Uttar Pradesh",
    "SubRegionCode": "KANP",
    "VenueAddress": "1st Floor Ratan Himachal Mall Ghumti No-5, Naseemabad Road, Kaushalpuri Darshan Purwa, Kanpur, Uttar Pradesh 208012, India",
    "VenueCode": "MHKT",
    "VenueName": "Movietime Cinemas: Ratan Himachal Mall, Kanpur"
  },
  "MIRN": {
    "AvailableFormats": "2D|3D",
    "City": "Nandurbar",
    "Latitude": "21.3537",
    "Longitude": "74.2424",
    "RegionCode": "NDNB",
    "State": "Maharashtra",
    "SubRegionCode": "NDNB",
    "VenueAddress": "Nandurbar Business Centre, S. No 387/2, Surat Bypass Road, Nandurbar, Maharashtra 425412, India",
    "VenueCode": "MIRN",
    "VenueName": "Miraj Cinemas: NBC, Nandurbar"
  },
  "MJMM": {
    "AvailableFormats": "",
    "City": "Gurugram (Gurgaon)",
    "Latitude": "28.4793",
    "Longitude": "77.0829",
    "RegionCode": "NCR",
    "State": "NCR",
    "SubRegionCode": "GURG",
    "VenueAddress": "2nd Floor, MGF Metropolis Mall, Near MG Metro Station, Mehrauli-Gurgaon Road, Sector 28, Gurugram (Gurgaon), NCR 122002, India",
    "VenueCode": "MJMM",
    "VenueName": "Miraj Maximum: Metropollis Mall, Gurgaon"
  },
  "MKSB": {
    "AvailableFormats": "3D|2D",
    "City": "Surat",
    "Latitude": "21.1504",
    "Longitude": "72.822",
    "RegionCode": "SURT",
    "State": "Gujarat",
    "SubRegionCode": "SURT",
    "VenueAddress": "KSB Olympia Mall, Block No 171 Kailash Chowkdi, Near D-mart,  Althan-Bamroli BRTS Road, Bamroli, Surat, Gujarat 394221, India",
    "VenueCode": "MKSB",
    "VenueName": "Miraj Cinemas: KSB Olympia, Surat"
  },
  "MLMT": {
    "AvailableFormats": "2D|3D",
    "City": "Tiruvallur",
    "Latitude": "13.1159",
    "Longitude": "79.9095",
    "RegionCode": "TRVL",
    "State": "Tamil Nadu",
    "SubRegionCode": "TRVL",
    "VenueAddress": "State Highway 57, Tiruvallur, Tiruvallur, Tamil Nadu 602003, India",
    "VenueCode": "MLMT",
    "VenueName": "Marvel Movie Max 4K Laser Dolby Atmos: Tiruvallur"
  },
  "MMCV": {
    "AvailableFormats": "2D",
    "City": "Mumbai",
    "Latitude": "19.4712",
    "Longitude": "72.8363",
    "RegionCode": "MUMBAI",
    "State": "Maharashtra",
    "SubRegionCode": "MWEST",
    "VenueAddress": "1st Floor, Gala No 2,Riddhi Siddhi Industrial Complex, Chandansar, Virar East, Palghar, Mumbai, Maharashtra 401303, India",
    "VenueCode": "MMCV",
    "VenueName": "Movie Max V Cinema: Virar (E)"
  },
  "MMLB": {
    "AvailableFormats": "",
    "City": "Bareilly",
    "FirstTracked": "2026-07-14",
    "Latitude": "28.3485",
    "Longitude": "79.4179",
    "RegionCode": "BARE",
    "State": "Uttar Pradesh",
    "SubRegionCode": "BARE",
    "VenueAddress": "98, Civil Lines, Bareilly, Uttar Pradesh 243001, India",
    "VenueCode": "MMLB",
    "VenueName": "MovieMax City Centre LA Mall: Bareilly"
  },
  "MMPR": {
    "AvailableFormats": "",
    "City": "Chennai",
    "FirstTracked": "2026-07-14",
    "Latitude": "13.1017",
    "Longitude": "80.2747",
    "RegionCode": "CHEN",
    "State": "Tamil Nadu",
    "SubRegionCode": "CHEN",
    "VenueAddress": "PR MAll, Prince Ratnapuri Garden residency, New No. 29, Old No. 16, Wall Tax Road, Kondithope, George Town, Chennai, Tamil Nadu 600001, India",
    "VenueCode": "MMPR",
    "VenueName": "MovieMax: PR Mall, Wall Tax Road, Chennai"
  },
  "MMVI": {
    "AvailableFormats": "2D",
    "City": "Irinjalakuda",
    "Latitude": "10.3507",
    "Longitude": "76.2139",
    "RegionCode": "THSR",
    "State": "Kerala",
    "SubRegionCode": "THSR",
    "VenueAddress": "Njavarikulam Road, Irinjalakuda, Near Chembakassery MultiMall, Irinjalakuda, Kerala 680121, India",
    "VenueCode": "MMVI",
    "VenueName": "Mas Movies Irinjalakuda"
  },
  "MNCA": {
    "AvailableFormats": "2D",
    "City": "Chhatrapati Sambhajinagar (Aurangabad)",
    "Latitude": "19.8883",
    "Longitude": "75.3334",
    "RegionCode": "AURA",
    "State": "Maharashtra",
    "SubRegionCode": "AURA",
    "VenueAddress": "Sarafa Road, Sarafa Bazar, Shahgunj, Chhatrapati Sambhaji Nagar, Chhatrapati Sambhajinagar (Aurangabad), Maharashtra 431001, India",
    "VenueCode": "MNCA",
    "VenueName": "MohanNova Cinemaz: Chhatrapati SambhajiNagar"
  },
  "MNTG": {
    "AvailableFormats": "",
    "City": "Gangavati",
    "FirstTracked": "2026-07-14",
    "Latitude": "15.433454",
    "Longitude": "76.52679",
    "RegionCode": "GAVT",
    "State": "Karnataka",
    "SubRegionCode": "GAVT",
    "VenueAddress": "SH 29, Vidya Nagar, Near Sri Raksha Enterprises, Gangavati, Karnataka 583227, India",
    "VenueCode": "MNTG",
    "VenueName": "Amar Talkies: Gangavati"
  },
  "MRAD": {
    "AvailableFormats": "",
    "City": "Hyderabad",
    "Latitude": "17.3842",
    "Longitude": "78.3601",
    "RegionCode": "HYD",
    "State": "Telangana",
    "SubRegionCode": "HYD",
    "VenueAddress": "Anand Mall and Movies, Narsingi Village, Hyderabad, Telangana 500075, India",
    "VenueCode": "MRAD",
    "VenueName": "Miraj Cinemas: Anand Mall and Movies, Narsingi"
  },
  "MRIY": {
    "AvailableFormats": "2D",
    "City": "Trichy",
    "Latitude": "10.7984",
    "Longitude": "78.7042",
    "RegionCode": "TRIC",
    "State": "Tamil Nadu",
    "SubRegionCode": "TRIC",
    "VenueAddress": "No-228/1, Sangiliyandapuram Main Road, Trichy, Tamil Nadu 620001, India",
    "VenueCode": "MRIY",
    "VenueName": "Mariyam Cinemas A/C 4K: Trichy"
  },
  "MSAA": {
    "AvailableFormats": "",
    "City": "Amravati",
    "FirstTracked": "2026-07-14",
    "Latitude": "20.899939",
    "Longitude": "77.748405",
    "RegionCode": "AMRA",
    "State": "Maharashtra",
    "SubRegionCode": "AMRA",
    "VenueAddress": "Gopal Nagar Square, Badnera Road, Amravati, Maharashtra 444607, India",
    "VenueCode": "MSAA",
    "VenueName": "7D Masti: Tapadia City Center, Amravati"
  },
  "MSMC": {
    "AvailableFormats": "2D",
    "City": "Biaora",
    "Latitude": "23.927",
    "Longitude": "76.9134",
    "RegionCode": "BIAR",
    "State": "Madhya Pradesh",
    "SubRegionCode": "BIAR",
    "VenueAddress": "NH2, Old AB Road, Krishna Puram Colony, Biaora, Madhya Pradesh 465674, India",
    "VenueCode": "MSMC",
    "VenueName": "MSM Cineplex: Biaora"
  },
  "MTBO": {
    "AvailableFormats": "2D",
    "City": "Berhampore",
    "Latitude": "24.0903",
    "Longitude": "88.2503",
    "RegionCode": "BEHA",
    "State": "West Bengal",
    "SubRegionCode": "BEHA",
    "VenueAddress": "22 Sahid Surya Sen Road, Murshidabad, Berhampore, West Bengal 742101, India",
    "VenueCode": "MTBO",
    "VenueName": "Mohan Talkies: Berhampore"
  },
  "MTGG": {
    "AvailableFormats": "2D",
    "City": "Gangavati",
    "Latitude": "15.4327",
    "Longitude": "76.528",
    "RegionCode": "GAVT",
    "State": "Karnataka",
    "SubRegionCode": "GAVT",
    "VenueAddress": "Gandhi Chowk, Vidya Nagar, M.G. Road, Gangavati, Karnataka 583227, India",
    "VenueCode": "MTGG",
    "VenueName": "Mohiuddin Talkies: Gangavati"
  },
  "MTMA": {
    "AvailableFormats": "3D|2D",
    "City": "Mumbai",
    "Latitude": "19.1892",
    "Longitude": "72.8349",
    "RegionCode": "MUMBAI",
    "State": "Maharashtra",
    "SubRegionCode": "MWEST",
    "VenueAddress": "Jagdamba Commercial Complex, Besides Sai Palace Grand, Link Road, Evershine Nagar, Malad West, Mumbai, Maharashtra 400064, India",
    "VenueCode": "MTMA",
    "VenueName": "MOVIETIME: MALAD (WEST)"
  },
  "MTSC": {
    "AvailableFormats": "3D|2D",
    "City": "Mumbai",
    "Latitude": "19.0283",
    "Longitude": "72.8442",
    "RegionCode": "MUMBAI",
    "State": "Maharashtra",
    "SubRegionCode": "MCENT",
    "VenueAddress": "Bijlee Barkha Complex, Junction of Manmala Tank Road, Taikalwadi Road, Matunga(W), Near Maharashtra Municipal School, Mumbai, Maharashtra 400016, India",
    "VenueCode": "MTSC",
    "VenueName": "Movietime Star City: Matunga (W)"
  },
  "MUPX": {
    "AvailableFormats": "2D",
    "City": "Mahalingpur",
    "Latitude": "16.3903",
    "Longitude": "75.1067",
    "RegionCode": "MAGP",
    "State": "Karnataka",
    "SubRegionCode": "MAGP",
    "VenueAddress": "CMC No:880/1, Near Neelakanteshwara Temple, Mahalingpur, Karnataka 587312, India",
    "VenueCode": "MUPX",
    "VenueName": "Smart Moviz (Maruthi Cineplex): Mahalingpur"
  },
  "MVSK": {
    "AvailableFormats": "",
    "City": "Ahmedabad",
    "Latitude": "22.9926",
    "Longitude": "72.3694",
    "RegionCode": "AHD",
    "State": "Gujarat",
    "SubRegionCode": "AHD",
    "VenueAddress": "Vardhman Square, 3rd Floor, Sanand, Ahmedabad, Gujarat 382110, India",
    "VenueCode": "MVSK",
    "VenueName": "Miraj Cinemas: Vardhman Square, Sanand"
  },
  "MXGN": {
    "AvailableFormats": "2D",
    "City": "Noida",
    "Latitude": "28.5085",
    "Longitude": "77.3871",
    "RegionCode": "NCR",
    "State": "NCR",
    "SubRegionCode": "NOIDA",
    "VenueAddress": "MovieMax Gulshan One 29 Mall C-3, Sector 129, Noida, NCR 201301, India",
    "VenueCode": "MXGN",
    "VenueName": "MovieMax Laserplex: Gulshan One 29 Mall, Noida"
  },
  "MYDC": {
    "AvailableFormats": "2D",
    "City": "Doimukh",
    "Latitude": "27.1454",
    "Longitude": "93.7539",
    "RegionCode": "MDHK",
    "State": "Arunachal Pradesh",
    "SubRegionCode": "MDHK",
    "VenueAddress": "M.Y. Digital Cinema Hall, Opposite - Main Market, Doimukh, Arunachal Pradesh 791112, India",
    "VenueCode": "MYDC",
    "VenueName": "MY Digital Cinema: Doimukh"
  },
  "NACM": {
    "AvailableFormats": "",
    "City": "Mullanpur",
    "FirstTracked": "2026-07-14",
    "Latitude": "30.844576",
    "Longitude": "75.67572",
    "RegionCode": "MULL",
    "State": "Punjab",
    "SubRegionCode": "MULL",
    "VenueAddress": "On Cinema Road,opposite Harjindra Cinema, Mandi Mullanpur, Mullanpur, Punjab 141101, India",
    "VenueCode": "NACM",
    "VenueName": "4G Nova Cinemaz: Mullanpur"
  },
  "NCAM": {
    "AvailableFormats": "",
    "City": "Ratlam",
    "FirstTracked": "2026-07-14",
    "Latitude": "23.332882",
    "Longitude": "75.05844",
    "RegionCode": "RATL",
    "State": "Madhya Pradesh",
    "SubRegionCode": "RATL",
    "VenueAddress": "Anand Big Mall, Dmart Road, Bypass Road, Near Midtown Township, Ratlam, Madhya Pradesh 457001, India",
    "VenueCode": "NCAM",
    "VenueName": "NY Cinemas: Anand Big Mall, Ratlam"
  },
  "NCJN": {
    "AvailableFormats": "2D",
    "City": "Jalna",
    "Latitude": "19.8446",
    "Longitude": "75.8953",
    "RegionCode": "JALN",
    "State": "Maharashtra",
    "SubRegionCode": "JALN",
    "VenueAddress": "Lokhandi Pool Road, Sangram Nagar, Rahman Ganj, Jalna, Maharashtra 431203, India",
    "VenueCode": "NCJN",
    "VenueName": "Natraj Cinema: Jalna"
  },
  "NCUK": {
    "AvailableFormats": "2D",
    "City": "Kanpur",
    "Latitude": "26.4647",
    "Longitude": "80.3463",
    "RegionCode": "KANP",
    "State": "Uttar Pradesh",
    "SubRegionCode": "KANP",
    "VenueAddress": "77/151, Latouche Road, Khoya Bazar, Mulganj, Kanpur, Uttar Pradesh 208001, India",
    "VenueCode": "NCUK",
    "VenueName": "Novelty Cinema: Kanpur"
  },
  "NEWS": {
    "AvailableFormats": "2D",
    "City": "Bhawanipatna",
    "Latitude": "19.9265",
    "Longitude": "83.1518",
    "RegionCode": "BHAW",
    "State": "Odisha",
    "SubRegionCode": "BHAW",
    "VenueAddress": "Bhawanipatna - Raipur Highway, Parmanandapur, Opposite of OMFED Dairy, Bhawanipatna, Odisha 766002, India",
    "VenueCode": "NEWS",
    "VenueName": "New Star Cineplex: Bhawanipatna"
  },
  "NKCP": {
    "AvailableFormats": "2D",
    "City": "Jodhpur",
    "Latitude": "26.2772",
    "Longitude": "72.9952",
    "RegionCode": "JODH",
    "State": "Rajasthan",
    "SubRegionCode": "JODH",
    "VenueAddress": "6th Upper Chopasni Road, Akhaliya Vikas Yojana, Choraha, Jodhpur, Rajasthan 342001, India",
    "VenueCode": "NKCP",
    "VenueName": "New Kohinoor Cinema: Jodhpur"
  },