{
  "AAAS": {
    "AvailableFormats": "2D|3D",
    "City": "Mumbai",
    "Latitude": "19.2289",
    "Longitude": "72.8542",
    "RegionCode": "MUMBAI",
    "State": "Maharashtra",
    "SubRegionCode": "MWEST",
    "VenueAddress": "4th Floor, Ajanta Square Mall, Lokmanya Tilak Road, Borivali West, Mumbai, Maharashtra 400092, India",
    "VenueCode": "AAAS",
    "VenueName": "Ajanta Cinema Cinex: Borivali (W) Newly Renovated"
  },
  "AAPP": {
    "AvailableFormats": "2D",
    "City": "Ghorasahan",
    "Latitude": "26.8219",
    "Longitude": "85.1337",
    "RegionCode": "GHOR",
    "State": "Bihar",
    "SubRegionCode": "GHOR",
    "VenueAddress": "Next to Soni Pustak Bhawan, Near Obebo Clothing Global Pvt Ltd, Ghorasahan, Bihar 845303, India",
    "VenueCode": "AAPP",
    "VenueName": "Ambika Cineplex: Ghorasahan"
  },
  "ABCR": {
    "AvailableFormats": "",
    "City": "Vijayawada",
    "Latitude": "16.4859",
    "Longitude": "80.6828",
    "RegionCode": "VIJA",
    "State": "Andhra Pradesh",
    "SubRegionCode": "VIJA",
    "VenueAddress": "Elevate Mall, Pune-Machilipatnam Highway, Kanuru, Vijayawada, Andhra Pradesh 520007, India",
    "VenueCode": "ABCR",
    "VenueName": "ABR Cinemas Neo Screen X:  Kanuru, Vijayawada"
  },
  "ABTS": {
    "AvailableFormats": "2D",
    "City": "Palakollu",
    "Latitude": "16.5167",
    "Longitude": "81.7258",
    "RegionCode": "PLKL",
    "State": "Andhra Pradesh",
    "SubRegionCode": "PLKL",
    "VenueAddress": "Money Market Road, Near Kanaka Durga Maa Temple, Palakollu, Andhra Pradesh 534260, India",
    "VenueCode": "ABTS",
    "VenueName": "Adabala Theatre Screen 1: Palakollu"
  },
  "ACDC": {
    "AvailableFormats": "2D",
    "City": "Chhatarpur",
    "Latitude": "24.8849",
    "Longitude": "79.5946",
    "RegionCode": "CHHT",
    "State": "Madhya Pradesh",
    "SubRegionCode": "CHHT",
    "VenueAddress": "Green Avenue Colony, Next to Dr. Radhakrishna Higher Secondary School, Chhatarpur, Madhya Pradesh 471001, India",
    "VenueCode": "ACDC",
    "VenueName": "Ashoka Cineplex: Chhatarpur"
  },
  "ACJA": {
    "AvailableFormats": "2D",
    "City": "Surat",
    "Latitude": "21.2463",
    "Longitude": "72.7925",
    "RegionCode": "SURT",
    "State": "Gujarat",
    "SubRegionCode": "SURT",
    "VenueAddress": "6th Floor, Exxoniic Mall, Jahangirpura Variyaav Road, Near Iskon Temple, Jahangirpura, Surat, Gujarat 395005, India",
    "VenueCode": "ACJA",
    "VenueName": "Apple Cinema: Jahangirpura, Surat"
  },
  "ACMM": {
    "AvailableFormats": "2D",
    "City": "Bilimora",
    "Latitude": "20.7681",
    "Longitude": "72.9731",
    "RegionCode": "BILI",
    "State": "Gujarat",
    "SubRegionCode": "BILI",
    "VenueAddress": "Sardar Patel Market Road, Triveni Society, Maruti Nagar, Bilimora, Gujarat 396321, India",
    "VenueCode": "ACMM",
    "VenueName": "Anand Cine Magic Multiplex: Bilimora Renovated"
  },
  "ACPR": {
    "AvailableFormats": "2D",
    "City": "Payyanur",
    "Latitude": "12.1084",
    "Longitude": "75.2125",
    "RegionCode": "PAYY",
    "State": "Kerala",
    "SubRegionCode": "PAYY",
    "VenueAddress": "No 4657, Kokkanissery Road, Payyanur, Kerala 670307, India",
    "VenueCode": "ACPR",
    "VenueName": "Archana Cineplex RGB Laser 4K 3D ATMOS: Payyanur"
  },
  "ACWH": {
    "AvailableFormats": "2D",
    "City": "Warangal",
    "Latitude": "18.0062",
    "Longitude": "79.5731",
    "RegionCode": "WAR",
    "State": "Telangana",
    "SubRegionCode": "WAR",
    "VenueAddress": "Warangal - Hyderabad Road, Enugula Gadda, Hanmakonda, Near Amrutha Gardens Marriage Hall, Warangal, Telangana 506001, India",
    "VenueCode": "ACWH",
    "VenueName": "Amrutha Cinema: Hanumakonda"
  },
  "ADGC": {
    "AvailableFormats": "2D",
    "City": "Narayanpur (CH)",
    "Latitude": "19.7218",
    "Longitude": "81.2415",
    "RegionCode": "NRYA",
    "State": "Chhattisgarh",
    "SubRegionCode": "NRYA",
    "VenueAddress": "Collectorate Road, Near Sports Ground, Narayanpur (CH), Chhattisgarh 494661, India",
    "VenueCode": "ADGC",
    "VenueName": "Adeshwar Global Cinemas: Narayanpur"
  },
  "AGSM": {
    "AvailableFormats": "2D",
    "City": "Chennai",
    "Latitude": "13.0601",
    "Longitude": "80.1648",
    "RegionCode": "CHEN",
    "State": "Tamil Nadu",
    "SubRegionCode": "CHEN",
    "VenueAddress": "No 3/47, Alapakkam Main Road, Subramaniapuram, Pallavan Nagar, Chennai, Tamil Nadu 600095, India",
    "VenueCode": "AGSM",
    "VenueName": "AGS Cinemas: Maduravoyal"
  },
  "AKCP": {
    "AvailableFormats": "2D",
    "City": "Palakkad",
    "Latitude": "10.7654",
    "Longitude": "76.549",
    "RegionCode": "PLKK",
    "State": "Kerala",
    "SubRegionCode": "PLKK",
    "VenueAddress": "Kottayi Pudur Parali Road, Kottayi, Near Ayilam Akhileshwara Swamy Temple, Palakkad, Kerala 678572, India",
    "VenueCode": "AKCP",
    "VenueName": "Avishkar Cinemas Dolby Atmos: Kottayi"
  },
  "ALAT": {
    "AvailableFormats": "2D",
    "City": "Ponnamaravathi",
    "Latitude": "10.2757",
    "Longitude": "78.5367",
    "RegionCode": "PONM",
    "State": "Tamil Nadu",
    "SubRegionCode": "PONM",
    "VenueAddress": "Amman Kovil Street, Ponnamaravathy, Near Ponnamaravathi Police Station, Ponnamaravathi, Tamil Nadu 622407, India",
    "VenueCode": "ALAT",
    "VenueName": "Alankar Theatre 2K 7.1: Ponnamaravathi"
  },
  "AMBT": {
    "AvailableFormats": "3D|2D",
    "City": "Nagpur",
    "Latitude": "21.1163",
    "Longitude": "79.0128",
    "RegionCode": "NAGP",
    "State": "Maharashtra",
    "SubRegionCode": "NAGP",
    "VenueAddress": "Bansi Nagar, S R P Camp, Digdoh, Nagpur, Maharashtra 440016, India",
    "VenueCode": "AMBT",
    "VenueName": "AM Cinema: Bansi Nagar, Nagpur"
  },
  "AMHR": {
    "AvailableFormats": "2D",
    "City": "Virudhunagar",
    "Latitude": "9.59045",
    "Longitude": "77.9527",
    "RegionCode": "VIRU",
    "State": "Tamil Nadu",
    "SubRegionCode": "VIRU",
    "VenueAddress": "RR Nagar, Sivagami Puram, Virudhunagar, Tamil Nadu 626001, India",
    "VenueCode": "AMHR",
    "VenueName": "Amirtharaj Theatre A/C 2K Dolby 7.1: Virudhunagar"
  },
  "AMRT": {
    "AvailableFormats": "2D",
    "City": "Bengaluru",
    "Latitude": "13.0124",
    "Longitude": "77.6263",
    "RegionCode": "BANG",
    "State": "Karnataka",
    "SubRegionCode": "BANG",
    "VenueAddress": "No 1075, Near Lingarajpuram Fly Over, Hennur Main Road, St Thomas Town, Bengaluru, Karnataka 560084, India",
    "VenueCode": "AMRT",
    "VenueName": "Amruth Digital 2K A/C Cinema: Lingarajapuram"
  },
  "ANCB": {
    "AvailableFormats": "2D",
    "City": "Barmer",
    "Latitude": "25.7618",
    "Longitude": "71.4177",
    "RegionCode": "BARM",
    "State": "Rajasthan",
    "SubRegionCode": "BARM",
    "VenueAddress": "NH25, Baldev Nagar, Uttarlai Road, Barmer, Rajasthan 344001, India",
    "VenueCode": "ANCB",
    "VenueName": "Aanchal Cinema: Barmer"
  },
  "ANPT": {
    "AvailableFormats": "2D",
    "City": "Pithapuram",
    "Latitude": "17.1142",
    "Longitude": "82.2588",
    "RegionCode": "PITA",
    "State": "Andhra Pradesh",
    "SubRegionCode": "PITA",
    "VenueAddress": "Uppada - Pithapuram Road, Madhava Nagar, Pithapuram, Andhra Pradesh 533450, India",
    "VenueCode": "ANPT",
    "VenueName": "Sri Annapoorna Theatre 2K A/C DTS: Pithapuram"
  },
  "AOCH": {
    "AvailableFormats": "2D",
    "City": "Nabadwip",
    "Latitude": "23.4051",
    "Longitude": "88.3661",
    "RegionCode": "NABB",
    "State": "West Bengal",
    "SubRegionCode": "NABB",
    "VenueAddress": "78, Banerjee Para Road, Near Allahabad Bank, Nabadwip, West Bengal 741302, India",
    "VenueCode": "AOCH",
    "VenueName": "Alochaya Cinema: Nabadwip"
  },
  "APLP": {
    "AvailableFormats": "2D",
    "City": "Surat",
    "Latitude": "21.1812",
    "Longitude": "72.7679",
    "RegionCode": "SURT",
    "State": "Gujarat",
    "SubRegionCode": "SURT",
    "VenueAddress": "4th Floor, Zircon Arena, Pal Bhatha, Surat, Gujarat 394510, India",
    "VenueCode": "APLP",
    "VenueName": "Apple Cinema: Pal Bhatha"
  },
  "APTS": {
    "AvailableFormats": "2D",
    "City": "Samastipur",
    "Latitude": "25.8609",
    "Longitude": "85.7938",
    "RegionCode": "SMST",
    "State": "Bihar",
    "SubRegionCode": "SMST",
    "VenueAddress": "Bahadurpur, Samastipur, Samastipur, Bihar 848101, India",
    "VenueCode": "APTS",
    "VenueName": "Anuroop Talkies: Samastipur"
  },
  "ARDD": {
    "AvailableFormats": "2D",
    "City": "Veraval",
    "Latitude": "20.91",
    "Longitude": "70.3689",
    "RegionCode": "VRAL",
    "State": "Gujarat",
    "SubRegionCode": "VRAL",
    "VenueAddress": "Railway Station Area, Jobanpura, Near Aradhana Complex, Veraval, Gujarat 362265, India",
    "VenueCode": "ARDD",
    "VenueName": "FUN Cinemas Aradhana Cinema: Veraval"
  },
  "ARUT": {
    "AvailableFormats": "2D",
    "City": "Anakapalle",
    "Latitude": "17.6874",
    "Longitude": "83.0143",
    "RegionCode": "ANKP",
    "State": "Andhra Pradesh",
    "SubRegionCode": "ANKP",
    "VenueAddress": "No. 10-16, 30, Niddanam Doddi, Gavarapalem, Anakapalle, Andhra Pradesh 531001, India",
    "VenueCode": "ARUT",
    "VenueName": "Sri Satyanarayana Picture Palace AC DTS:Anakapalle"
  },
  "ASGM": {
    "AvailableFormats": "2D",
    "City": "Warangal",
    "Latitude": "17.9879",
    "Longitude": "79.5927",
    "RegionCode": "WAR",
    "State": "Telangana",
    "SubRegionCode": "WAR",
    "VenueAddress": "SVN Road, Mattewada, Phatak Mohalla, Warangal, Telangana 506002, India",
    "VenueCode": "ASGM",
    "VenueName": "Asian Gemini Theatre: Warangal"
  },
  "ASMR": {
    "AvailableFormats": "2D",
    "City": "Miryalaguda",
    "Latitude": "16.8703",
    "Longitude": "79.5631",
    "RegionCode": "MRGD",
    "State": "Telangana",
    "SubRegionCode": "MRGD",
    "VenueAddress": "Islampura Road, Beside Madhusudhan Reddy Hospital, Miryalaguda, Telangana 508207, India",
    "VenueCode": "ASMR",
    "VenueName": "Asian Srinivasa Theater: Miryalaguda"
  },
  "ASSK": {
    "AvailableFormats": "2D",
    "City": "Khammam",
    "Latitude": "17.25",
    "Longitude": "80.1403",
    "RegionCode": "KHAM",
    "State": "Telangana",
    "SubRegionCode": "KHAM",
    "VenueAddress": "9-2-15/A, Station Road, Braman Bazar, Khammam, Telangana 507001, India",
    "VenueCode": "ASSK",
    "VenueName": "Asian Srinivasa: Khammam"
  },
  "ASWN": {
    "AvailableFormats": "2D",
    "City": "Piduguralla",
    "Latitude": "16.4806",
    "Longitude": "79.8909",
    "RegionCode": "PIDU",
    "State": "Andhra Pradesh",
    "SubRegionCode": "PIDU",
    "VenueAddress": "Tangeda Road, Near Bharat Petrol Bunk, Piduguralla, Andhra Pradesh 522413, India",
    "VenueCode": "ASWN",
    "VenueName": "Aswini Deluxe A/C Dolby Atmos: Piduguralla"
  },
  "ATJA": {
    "AvailableFormats": "2D|3D",
    "City": "Kolkata",
    "Latitude": "22.5081",
    "Longitude": "88.3203",
    "RegionCode": "BARR",
    "State": "West Bengal",
    "SubRegionCode": "BARR",
    "VenueAddress": "No.30, Diamond Harbour Road, Barabagan, Naskarpur, Behala, Kolkata, West Bengal 700038, India",
    "VenueCode": "ATJA",
    "VenueName": "SSR Ajanta Cinema: Behala"
  },
  "ATTS": {
    "AvailableFormats": "2D",
    "City": "Hoshiarpur",
    "Latitude": "31.5552",
    "Longitude": "75.8694",
    "RegionCode": "TNDA",
    "State": "Punjab",
    "SubRegionCode": "TNDA",
    "VenueAddress": "Tanda Road, Bharat Petroleum, Hoshiarpur, Hoshiarpur, Punjab 146001, India",
    "VenueCode": "ATTS",
    "VenueName": "AG Star Cinemaz Hoshiarpur (Near Amber Palace)"
  },
  "AVCS": {
    "AvailableFormats": "2D",
    "City": "Pollachi",
    "Latitude": "10.5644",
    "Longitude": "76.9216",
    "RegionCode": "POLL",
    "State": "Tamil Nadu",
    "SubRegionCode": "POLL",
    "VenueAddress": "Sethumadai Road, Vettaikaranpudur, Pollachi, Tamil Nadu 642129, India",
    "VenueCode": "AVCS",
    "VenueName": "Abirami Vishal Cinemas 4K Laser: Vettaikaranpudur"
  },
  "AXMP": {
    "AvailableFormats": "2D",
    "City": "Pattambi",
    "Latitude": "10.8064",
    "Longitude": "76.1899",
    "RegionCode": "PTMB",
    "State": "Kerala",
    "SubRegionCode": "PTMB",
    "VenueAddress": "Alex Theatre, Kaithali Temple Road, Near ICICI Bank Pattambi, Pattambi, Kerala 679303, India",
    "VenueCode": "AXMP",
    "VenueName": "Alex Movies: Christe Rbe Laser Pattambi"
  },
  "BAKM": {
    "AvailableFormats": "2D",
    "City": "Mulugu",
    "Latitude": "18.1934",
    "Longitude": "79.9478",
    "RegionCode": "KMLA",
    "State": "Telangana",
    "SubRegionCode": "KMLA",
    "VenueAddress": "Theatre Road, Ambedkar Colony, Near Borra Honda, Mulugu, Telangana 506343, India",
    "VenueCode": "BAKM",
    "VenueName": "Balaji Air Conditioned: Mulugu"
  },
  "BBPC": {
    "AvailableFormats": "2D",
    "City": "Pusad",
    "Latitude": "19.9081",
    "Longitude": "77.5721",
    "RegionCode": "PUSD",
    "State": "Maharashtra",
    "SubRegionCode": "PUSD",
    "VenueAddress": "27, Pusad Road, Near Pusad Court, Near State Bank Of India, Pusad, Maharashtra 445204, India",
    "VenueCode": "BBPC",
    "VenueName": "Barkha Cinema: Pusad"
  },
  "BCKU": {
    "AvailableFormats": "2D|3D",
    "City": "Kundapura",
    "Latitude": "13.5862",
    "Longitude": "74.6984",
    "RegionCode": "KUNA",
    "State": "Karnataka",
    "SubRegionCode": "KUNA",
    "VenueAddress": "2nd Floor, Costal Crown, NH 66, Koteshwara, Kundapura, Karnataka 576222, India",
    "VenueCode": "BCKU",
    "VenueName": "Bharath Cinemas: Kundapura"
  },
  "BHAC": {
    "AvailableFormats": "2D",
    "City": "Bengaluru",
    "Latitude": "13.0415",
    "Longitude": "77.5175",
    "RegionCode": "HOKT",
    "State": "Karnataka",
    "SubRegionCode": "HOKT",
    "VenueAddress": "Prashanth Nagar, T. Dasarahalli, Dasara Halli Cross, Next To Rockline Mall, Bengaluru, Karnataka 560057, India",
    "VenueCode": "BHAC",
    "VenueName": "Bharathi Theatre (Peenya) A/C 4K 7.1 Dolby Digital"
  },
  "BIKB": {
    "AvailableFormats": "2D|3D",
    "City": "Belagavi (Belgaum)",
    "Latitude": "15.8588",
    "Longitude": "74.5083",
    "RegionCode": "BELG",
    "State": "Karnataka",
    "SubRegionCode": "BELG",
    "VenueAddress": "Nucleus Mall, Old Kapeel Theatre, Ramling Khind Galli, Belagavi (Belgaum), Karnataka 590002, India",
    "VenueCode": "BIKB",
    "VenueName": "Kapeel Cinema Nucleus Mall"
  },
  "BLBR": {
    "AvailableFormats": "2D",
    "City": "Burhar",
    "Latitude": "23.202",
    "Longitude": "81.535",
    "RegionCode": "BRHR",
    "State": "Madhya Pradesh",
    "SubRegionCode": "BRHR",
    "VenueAddress": "Shree Shraja Mall, Shree Shraja Mall, Burhar, Madhya Pradesh 484110, India",
    "VenueCode": "BLBR",
    "VenueName": "Bliss Multiplex: Burhar"
  },
  "BMRV": {
    "AvailableFormats": "2D",
    "City": "Veeraghattam",
    "Latitude": "18.6896",
    "Longitude": "83.6086",
    "RegionCode": "VEER",
    "State": "Andhra Pradesh",
    "SubRegionCode": "VEER",
    "VenueAddress": "Jiyyammavalasa Road, Down street, Veeraghattam, Andhra Pradesh 532460, India",
    "VenueCode": "BMRV",
    "VenueName": "BMR CINEMAX: Veeraghattam"
  },
  "BRTP": {
    "AvailableFormats": "2D",
    "City": "Palasa",
    "Latitude": "18.7661",
    "Longitude": "84.4217",
    "RegionCode": "PALS",
    "State": "Andhra Pradesh",
    "SubRegionCode": "PALS",
    "VenueAddress": "Shivaji Nagar, Kasibugga, Near Mandala Parishat Office, Palasa, Andhra Pradesh 532222, India",
    "VenueCode": "BRTP",
    "VenueName": "Bhaskara Rama A/C Dts: Palasa"
  },
  "BSSO": {
    "AvailableFormats": "2D",
    "City": "Ahmedabad",
    "Latitude": "23.0415",
    "Longitude": "72.4983",
    "RegionCode": "AHD",
    "State": "Gujarat",
    "SubRegionCode": "AHD",
    "VenueAddress": "312-314-315, Times Square Grand, Sindhu Bhavan Marg, Thaltej, Ahmedabad, Gujarat 380059, India",
    "VenueCode": "BSSO",
    "VenueName": "Sanelite Cinemas (Banana Smartplex): SBR, Thaltej"
  },
  "BTMV": {
    "AvailableFormats": "2D",
    "City": "Vadodara",
    "Latitude": "22.267",
    "Longitude": "73.2227",
    "RegionCode": "VAD",
    "State": "Gujarat",
    "SubRegionCode": "VAD",
    "VenueAddress": "Amar Shraddha Society, Danteshwar, Tarsali, Vadodara, Gujarat 390004, India",
    "VenueCode": "BTMV",
    "VenueName": "Bansal Movieplex: Tarsali, Vadodara"
  },
  "CAGL": {
    "AvailableFormats": "3D|2D",
    "City": "Navi Mumbai",
    "Latitude": "19.1203",
    "Longitude": "73.0071",
    "RegionCode": "MUMBAI",
    "State": "Maharashtra",
    "SubRegionCode": "THAN",
    "VenueAddress": "Cinepolis India Pvt Ltd  Aurum Square, Aurum Q Parc, Ghansoli, Navi Mumbai, Maharashtra 400701, India",
    "VenueCode": "CAGL",
    "VenueName": "Cinepolis: Aurum, Ghansoli, Navi Mumbai"
  },
  "CBZZ": {
    "AvailableFormats": "2D",
    "City": "Jalpaiguri",
    "Latitude": "26.5285",
    "Longitude": "88.7193",
    "RegionCode": "JPG",
    "State": "West Bengal",
    "SubRegionCode": "JPG",
    "VenueAddress": "3rd Floor, Palm Plaza, Ukil Para, Silpasamiti Para, Opposite Union Bank, Jalpaiguri, West Bengal 735101, India",
    "VenueCode": "CBZZ",
    "VenueName": "Cinebazz: Jalpaiguri"
  },
  "CCGW": {
    "AvailableFormats": "2D",
    "City": "Guwahati",
    "Latitude": "26.1573",
    "Longitude": "91.7781",
    "RegionCode": "GUW",
    "State": "Assam",
    "SubRegionCode": "GUW",
    "VenueAddress": "Christian Basti, G.S. Road, Guwahati, Assam 781005, India",
    "VenueCode": "CCGW",
    "VenueName": "PVR: City Centre, Guwahati"
  },
  "CCMF": {
    "AvailableFormats": "2D",
    "City": "Charkhi Dadri",
    "Latitude": "28.5937",
    "Longitude": "76.2574",
    "RegionCode": "CCDD",
    "State": "Haryana",
    "SubRegionCode": "CCDD",
    "VenueAddress": "Main Loharu Road, Rose Petals Hotel Restaurant, Charkhi Dadri, Haryana 127306, India",
    "VenueCode": "CCMF",
    "VenueName": "Chhotu Maharaj Cine Cafe: Charkhi Dadri"
  },
  "CCPM": {
    "AvailableFormats": "2D",
    "City": "Malout",
    "Latitude": "30.2105",
    "Longitude": "74.4858",
    "RegionCode": "MALO",
    "State": "Punjab",
    "SubRegionCode": "MALO",
    "VenueAddress": "City Crown Plaza, SH16, Muktsar Road, Near Pritam Palace, Malout, Punjab 152107, India",
    "VenueCode": "CCPM",
    "VenueName": "CCP Cineplex: Malout"
  },
  "CCVZ": {
    "AvailableFormats": "2D",
    "City": "Naharlagun",
    "Latitude": "27.0996",
    "Longitude": "93.6858",
    "RegionCode": "NAHA",
    "State": "Arunachal Pradesh",
    "SubRegionCode": "NAHA",
    "VenueAddress": "Carnival Chakang Cinemas, Barapani, Naharlagun, Arunachal Pradesh 791110, India",
    "VenueCode": "CCVZ",
    "VenueName": "C3: Naharlagun"
  },
  "CDWP": {
    "AvailableFormats": "",
    "City": "Surat",
    "Latitude": "21.1957",
    "Longitude": "72.8598",
    "RegionCode": "SURT",
    "State": "Gujarat",
    "SubRegionCode": "SURT",
    "VenueAddress": "4th Floor, DR World Mall, Aai Mata Road, Surat, Gujarat 395010, India",
    "VenueCode": "CDWP",
    "VenueName": "Coconut Cinema DR World Parvat Patiya: Surat"
  },
  "CFBS": {
    "AvailableFormats": "2D|IMAX 2D|4DX|3D",
    "City": "Bengaluru",
    "Latitude": "12.9894",
    "Longitude": "77.7279",
    "RegionCode": "HOKT",
    "State": "Karnataka",
    "SubRegionCode": "HOKT",
    "VenueAddress": "3rd Floor, Nexus Shantiniketan Mall, Opposite Manipal Hospital, ITPL Main Road, Whitefield, Bengaluru, Karnataka 560067, India",
    "VenueCode": "CFBS",
    "VenueName": "Cinepolis: Nexus Shantiniketan, Bengaluru"
  },
  "CGKD": {
    "AvailableFormats": "2D",
    "City": "Kadi",
    "Latitude": "23.2914",
    "Longitude": "72.3363",
    "RegionCode": "KADI",
    "State": "Gujarat",
    "SubRegionCode": "KADI",
    "VenueAddress": "City Park Road, Bhaupura, Near Kadi Fire Station, Kadi, Gujarat 382715, India",
    "VenueCode": "CGKD",
    "VenueName": "City Gold: Kadi"
  },
  "CHOE": {
    "AvailableFormats": "2D",
    "City": "Vellakoil",
    "Latitude": "10.9596",
    "Longitude": "77.7168",
    "RegionCode": "VELI",
    "State": "Tamil Nadu",
    "SubRegionCode": "VELI",
    "VenueAddress": "1197/A1A2B, Kamala Mill, Bus Stop, Vellakoil, Tamil Nadu 638111, India",
    "VenueCode": "CHOE",
    "VenueName": "Chhotu Maharaj Cine Cafe: Vellakoil"
  },
  "CICM": {
    "AvailableFormats": "2D",
    "City": "Math Chandipur",
    "Latitude": "22.0886",
    "Longitude": "87.8576",
    "RegionCode": "MPUR",
    "State": "West Bengal",
    "SubRegionCode": "MPUR",
    "VenueAddress": "Mayukh Gift Corner, Nandigram Road, Math Chandipur, West Bengal 721659, India",
    "VenueCode": "CICM",
    "VenueName": "Chitranjali Cinema: Math Chandipur"
  },
  "CJJB": {
    "AvailableFormats": "",
    "City": "Jabalpur",
    "Latitude": "23.2455",
    "Longitude": "79.881",
    "RegionCode": "JABL",
    "State": "Madhya Pradesh",
    "SubRegionCode": "JABL",
    "VenueAddress": "Servay no 14 Gram Magela Road, Post Gram Surtalai Tehsil Panagar, Jabalpur, Madhya Pradesh 482002, India",
    "VenueCode": "CJJB",
    "VenueName": "Chhotu Maharaj Cine Cafe: Jabalpur, MP"
  },
  "CLDR": {
    "AvailableFormats": "2D",
    "City": "Ramanathapuram",
    "Latitude": "9.35868",
    "Longitude": "78.8433",
    "RegionCode": "RAPU",
    "State": "Tamil Nadu",
    "SubRegionCode": "RAPU",
    "VenueAddress": "9R5V+F8C, Mandapam Road, Kadampa Nagar, Ramanathapuram, Tamil Nadu 623501, India",
    "VenueCode": "CLDR",
    "VenueName": "The Cine Lounge Dolby 7.1: GSM Mall Ramanathapuram"
  },
  "CLTP": {
    "AvailableFormats": "",
    "City": "Pune",
    "Latitude": "18.4768",
    "Longitude": "73.9083",
    "RegionCode": "PUNE",
    "State": "Maharashtra",
    "SubRegionCode": "PUNE",
    "VenueAddress": "1st Floor, Tribeca Highstreet, NIBM Post Office Road, Pune, Maharashtra 411048, India",
    "VenueCode": "CLTP",
    "VenueName": "Connplex Cinemas (Luxuriance): Tribeca Highstreet"
  },
  "CMKR": {
    "AvailableFormats": "2D",
    "City": "Sikar",
    "Latitude": "27.6219",
    "Longitude": "75.1464",
    "RegionCode": "SIKR",
    "State": "Rajasthan",
    "SubRegionCode": "SIKR",
    "VenueAddress": "04th Floor, Shiv Mandir Cinemall, Fatehpur Road, Sikar, Rajasthan 332001, India",
    "VenueCode": "CMKR",
    "VenueName": "Cine Square Cinemas: Sikar"
  },
  "CMMX": {
    "AvailableFormats": "2D",
    "City": "Lakhimpur Kheri",
    "Latitude": "27.946",
    "Longitude": "80.2186",
    "RegionCode": "LKPK",
    "State": "Uttar Pradesh",
    "SubRegionCode": "LKPK",
    "VenueAddress": "Shiv Sagar Cineplex and Cafe. 2.Gata no.536, Ishlamabad, (Gureaila Chauraha Se Ramlila Maidan Road), Mohammadi, Lakhimpur Kheri, Uttar Pradesh 262804, India",
    "VenueCode": "CMMX",
    "VenueName": "Chhotu Maharaj Cine Cafe: Mohammadi, Kheri"
  },
  "CMVB": {
    "AvailableFormats": "2D",
    "City": "Vikarabad",
    "Latitude": "17.3464",
    "Longitude": "77.9056",
    "RegionCode": "VKBD",
    "State": "Telangana",
    "SubRegionCode": "VKBD",
    "VenueAddress": "Vikarabad - Mominpet Road, Alampally, Near Petrol Pump, Opposite Fathe Garden Function Hall, Vikarabad, Telangana 501101, India",
    "VenueCode": "CMVB",
    "VenueName": "Cinemax: Vikarabad"
  },
  "CNCL": {
    "AvailableFormats": "2D",
    "City": "Lonavala",
    "Latitude": "18.747",
    "Longitude": "73.409",
    "RegionCode": "LNVL",
    "State": "Maharashtra",
    "SubRegionCode": "LNVL",
    "VenueAddress": "Neelkamal, Siddharth Nagar, Near DTDC - Pune-Lonavala, Lonavala, Maharashtra 410401, India",
    "VenueCode": "CNCL",
    "VenueName": "Cinebliss Neelkamal Cinema: Lonavala"
  },
  "CNIS": {
    "AvailableFormats": "2D|3D",
    "City": "Surat",
    "Latitude": "21.1867",
    "Longitude": "72.7934",
    "RegionCode": "SURT",
    "State": "Gujarat",
    "SubRegionCode": "SURT",
    "VenueAddress": "3rd Floor Imperial Square Mall, Upper Star Bazaar, Pal Hazira Road, Adajan, Surat, Gujarat 395009, India",
    "VenueCode": "CNIS",
    "VenueName": "Cinepolis: Imperial Square Mall, Surat"
  },
  "CNRA": {
    "AvailableFormats": "2D",
    "City": "Abu Road",
    "Latitude": "24.4982",
    "Longitude": "72.766",
    "RegionCode": "ABRD",
    "State": "Rajasthan",
    "SubRegionCode": "ABRD",
    "VenueAddress": "New Town Housing, Revdar Road, Manpur Rural, Abu Road, Rajasthan 307026, India",
    "VenueCode": "CNRA",
    "VenueName": "Cineplus Multiplex: Abu Road"
  },
  "COAC": {
    "AvailableFormats": "3D|2D",
    "City": "Lucknow",
    "Latitude": "26.8624",
    "Longitude": "81.0105",
    "RegionCode": "LUCK",
    "State": "Uttar Pradesh",
    "SubRegionCode": "LUCK",
    "VenueAddress": "Plot No 384, Vibhuti Khand, Gomti Nagar, Gomti Nagar Road, Lucknow, Uttar Pradesh 226010, India",
    "VenueCode": "COAC",
    "VenueName": "Cinepolis: One Awadh Centre, Lucknow"
  },
  "COSM": {
    "AvailableFormats": "2D",
    "City": "Rajkot",
    "Latitude": "22.271",
    "Longitude": "70.7418",
    "RegionCode": "RAJK",
    "State": "Gujarat",
    "SubRegionCode": "RAJK",
    "VenueAddress": "Mota Mauva Road, Kalawad Road, Near Rangoli Park Restaurant, Rajkot, Gujarat 360001, India",
    "VenueCode": "COSM",
    "VenueName": "Cosmoplex Multiplex: Rajkot"
  },
  "CPEB": {
    "AvailableFormats": "2D",
    "City": "Bengaluru",
    "Latitude": "12.9676",
    "Longitude": "77.5584",
    "RegionCode": "HOKT",
    "State": "Karnataka",
    "SubRegionCode": "HOKT",
    "VenueAddress": "ETA Namma Mall, Binneypet, Magadi Road, Bengaluru, Karnataka 560023, India",
    "VenueCode": "CPEB",
    "VenueName": "Cinepolis: Binnypet Mall"
  },
  "CPJR": {
    "AvailableFormats": "2D",
    "City": "Bengaluru",
    "Latitude": "12.8915",
    "Longitude": "77.598",
    "RegionCode": "HOKT",
    "State": "Karnataka",
    "SubRegionCode": "HOKT",
    "VenueAddress": "SJR Spectrum Mall, Near Arkere Gate Signal, Bengaluru, Karnataka 560076, India",
    "VenueCode": "CPJR",
    "VenueName": "Cinepolis: SJR (Central Mall) Arekere, Bannergatta"
  },
  "CPMJ": {
    "AvailableFormats": "2D",
    "City": "Jagdalpur",
    "Latitude": "19.0887",
    "Longitude": "82.0118",
    "RegionCode": "JAGD",
    "State": "Chhattisgarh",
    "SubRegionCode": "JAGD",
    "VenueAddress": "Binaka Mall, Chitrakote Road, Jagdalpur, Chhattisgarh 493773, India",
    "VenueCode": "CPMJ",
    "VenueName": "Cine Plus Multiplex: Jagdalpur"
  },
  "CPRP": {
    "AvailableFormats": "2D|3D",
    "City": "Pune",
    "Latitude": "18.5933",
    "Longitude": "73.7864",
    "RegionCode": "PUNE",
    "State": "Maharashtra",
    "SubRegionCode": "PUNE",
    "VenueAddress": "Spot-18 Mall, 3rd Floor, Rahatani Rd, Pimpri Chinchwad, Pune, Maharashtra 411017, India",
    "VenueCode": "CPRP",
    "VenueName": "City Pride Royal Cinemas: Rahatani"
  },
  "CPUS": {
    "AvailableFormats": "2D",
    "City": "Surat",
    "Latitude": "21.1361",
    "Longitude": "72.7521",
    "RegionCode": "SURT",
    "State": "Gujarat",
    "SubRegionCode": "SURT",
    "VenueAddress": "Dumas Road, Opposite L and T Colony, Near Magdalla Circle, Surat, Gujarat 395007, India",
    "VenueCode": "CPUS",
    "VenueName": "City Plus Multiplex: Surat"
  },
  "CRPR": {
    "AvailableFormats": "2D",
    "City": "Puthoor",
    "Latitude": "9.040496",
    "Longitude": "76.715786",
    "RegionCode": "PUTR",
    "State": "Kerala",
    "SubRegionCode": "PUTR",
    "VenueAddress": "Cheerankavu, Maranadu, Puthoor, Kerala 691507, India",
    "VenueCode": "CRPR",
    "VenueName": "Chellam Theatre 4K Laser Dolby Atmos: Puthoor"
  },
  "CSHM": {
    "AvailableFormats": "2D",
    "City": "Mehsana",
    "Latitude": "23.6178",
    "Longitude": "72.3471",
    "RegionCode": "MEHS",
    "State": "Gujarat",
    "SubRegionCode": "MEHS",
    "VenueAddress": "B110, 1st Floor, Trogon Two, D,Mart Circle, Near Mehsana Bypass Road, Mehsana, Gujarat 384002, India",
    "VenueCode": "CSHM",
    "VenueName": "Connplex Cinemas: D`Mart Circle, Mehsana"
  },
  "CSTE": {
    "AvailableFormats": "2D",
    "City": "Ahmedabad",
    "Latitude": "23.1067",
    "Longitude": "72.5418",
    "RegionCode": "AHD",
    "State": "Gujarat",
    "SubRegionCode": "AHD",
    "VenueAddress": "RCC ROAD, 1st Floor, The Link, 100 FT, Krishna Hardware Road, Near JLR Showroom, Ahmedabad, Gujarat 382481, India",
    "VenueCode": "CSTE",
    "VenueName": "Connplex Cinemas (Signature): Gota"
  },
  "CTKR": {
    "AvailableFormats": "2D",
    "City": "Kannur",
    "Latitude": "11.8646",
    "Longitude": "75.409",
    "RegionCode": "KANN",
    "State": "Kerala",
    "SubRegionCode": "KANN",
    "VenueAddress": "3rd Floor, Secura Centre Mall, BA 233/18, Thazhachovva, Elayavoor, Kannur, Kerala 670018, India",
    "VenueCode": "CTKR",
    "VenueName": "Cinepolis: Secura Centre, Kannur"
  },
  "CTNK": {
    "AvailableFormats": "2D|3D",
    "City": "Nashik",
    "Latitude": "19.9906",
    "Longitude": "73.7614",
    "RegionCode": "NASK",
    "State": "Maharashtra",
    "SubRegionCode": "NASK",
    "VenueAddress": "Sambaji Chowk, Lawate Nagar, Banyan Square, Untwadi, Nashik, Maharashtra 422009, India",
    "VenueCode": "CTNK",
    "VenueName": "PVR: City Center, Nashik"
  },
  "CVCG": {
    "AvailableFormats": "2D",
    "City": "Gudur",
    "Latitude": "14.1492",
    "Longitude": "79.8469",
    "RegionCode": "GUDR",
    "State": "Andhra Pradesh",
    "SubRegionCode": "GUDR",
    "VenueAddress": "Sri Venkateshwara Cine Complex, Gamallapalem Street, Vivekananda Road, Swarna Bharathi Nagar, Gudur, Andhra Pradesh 524101, India",
    "VenueCode": "CVCG",
    "VenueName": "V Cinemas, Screen 1: Gudur"
  },
  "CWSC": {
    "AvailableFormats": "2D",
    "City": "Kanker",
    "Latitude": "20.2632",
    "Longitude": "81.5017",
    "RegionCode": "KANK",
    "State": "Chhattisgarh",
    "SubRegionCode": "KANK",
    "VenueAddress": "3rd Floor, City Center Kanker, Near New Bus Stand, Kanker, Chhattisgarh 494334, India",
    "VenueCode": "CWSC",
    "VenueName": "Cineworld City Center: Kanker"
  },
  "CXTE": {
    "AvailableFormats": "2D",
    "City": "Umerkote",
    "Latitude": "19.6555",
    "Longitude": "82.2213",
    "RegionCode": "UMEK",
    "State": "Odisha",
    "SubRegionCode": "UMEK",
    "VenueAddress": "JK Plaza, Infront of Reliance Trends, Dongriguda Road, Shanti Nagar, Umerkote, Odisha 764073, India",
    "VenueCode": "CXTE",
    "VenueName": "Connplex Cinemas: Umerkote"
  },
  "DCAK": {
    "AvailableFormats": "2D",
    "City": "Kodungallur",
    "Latitude": "10.2315",
    "Longitude": "76.1974",
    "RegionCode": "KODU",
    "State": "Kerala",
    "SubRegionCode": "KODU",
    "VenueAddress": "Kalpaka Road, Star Nagar, Kodungallur, Kerala 680668, India",
    "VenueCode": "DCAK",
    "VenueName": "D CINEMAA: MUGHAL MALL BARCO 4K LASER, KODUNGALLUR"
  },
  "DCJN": {
    "AvailableFormats": "2D",
    "City": "Jhunjhunu",
    "Latitude": "28.128",
    "Longitude": "75.4101",
    "RegionCode": "JHUN",
    "State": "Rajasthan",
    "SubRegionCode": "JHUN",
    "VenueAddress": "2nd Floor, 109, MG Mall, Tall Road, Near Khemi Sati Bus Stand, Jhunjhunu, Rajasthan 333001, India",
    "VenueCode": "DCJN",
    "VenueName": "Dhishoom Cinemas: Jhunjhunu"
  },
  "DCTW": {
    "AvailableFormats": "2D",
    "City": "Thane",
    "Latitude": "19.254465",
    "Longitude": "72.985121",
    "RegionCode": "THNE",
    "State": "Maharashtra",
    "SubRegionCode": "THNE",
    "VenueAddress": "Hiranandani Estate, Villa Grand Road, Thane, Maharashtra 400607, India",
    "VenueCode": "DCTW",
    "VenueName": "Devgn CineX: The Walk, Thane"
  },
  "DEMP": {
    "AvailableFormats": "2D",
    "City": "Thrissur",
    "Latitude": "10.4243",
    "Longitude": "76.1315",
    "RegionCode": "MANR",
    "State": "Kerala",
    "SubRegionCode": "MANR",
    "VenueAddress": "Kanjany Peringottukara Rd, Peringottukara,Kerala, Near Kanadi Kavu Temple, Thrissur, Kerala 680565, India",
    "VenueCode": "DEMP",
    "VenueName": "Deva Cinemas 4K Dolby Full Atmos: Peringottukara"
  },
  "DHCL": {
    "AvailableFormats": "2D",
    "City": "Badaun",
    "Latitude": "28.0319",
    "Longitude": "79.125",
    "RegionCode": "BADN",
    "State": "Uttar Pradesh",
    "SubRegionCode": "BADN",
    "VenueAddress": "Dhishoom Cinemas, 3rd floor City Mall, Labela Road, Badaun, Uttar Pradesh 243601, India",
    "VenueCode": "DHCL",
    "VenueName": "Dhishoom Cinemas, City Mall: Budaun"
  },
  "DLCN": {
    "AvailableFormats": "2D",
    "City": "Nenmara",
    "Latitude": "10.5908",
    "Longitude": "76.5954",
    "RegionCode": "NENM",
    "State": "Kerala",
    "SubRegionCode": "NENM",
    "VenueAddress": "State Highway 58, MG Road, Nenmara, Kerala 678508, India",
    "VenueCode": "DLCN",
    "VenueName": "Dhanalakshmi Cinemas: Nenmara"
  },
  "DMPZ": {
    "AvailableFormats": "2D|3D",
    "City": "Kolkata",
    "Latitude": "22.6153",
    "Longitude": "88.4126",
    "RegionCode": "KOLK",
    "State": "West Bengal",
    "SubRegionCode": "KOLK",
    "VenueAddress": "Diamond City Mall,5 Floor, 68, Jessore Rd, Satgachi, Jagat Banerjee Ghat Road, Kolkata, West Bengal 700055, India",
    "VenueCode": "DMPZ",
    "VenueName": "PVR: Diamond Plaza, Jessore Kolkata"
  },
  "DPDC": {
    "AvailableFormats": "2D|3D",
    "City": "Delhi",
    "Latitude": "28.5412",
    "Longitude": "77.1552",
    "RegionCode": "NCR",
    "State": "NCR",
    "SubRegionCode": "DELHI",
    "VenueAddress": "Ambience Mall, Vasant Phase-2, Nelson Mandela Road, Vasant Kunj, Near Lifestyle Showroom, Delhi, NCR 110070, India",
    "VenueCode": "DPDC",
    "VenueName": "Delhi: PVR Director`s Cut, Ambience Mall"
  },
  "DTCK": {
    "AvailableFormats": "2D",
    "City": "Kalimpong",
    "Latitude": "27.0648",
    "Longitude": "88.4667",
    "RegionCode": "KALI",
    "State": "West Bengal",
    "SubRegionCode": "KALI",
    "VenueAddress": "9th Mile, Trimoti Shopping complex, Mongbol Busty, Alipurduar Road, Rishi Road, Near Hotel Jiwan Jyoti, Kalimpong, West Bengal 734301, India",
    "VenueCode": "DTCK",
    "VenueName": "Dream Theatre Cineplex: Kalimpong"
  },
  "DURG": {
    "AvailableFormats": "2D",
    "City": "Banki",
    "Latitude": "20.3791",
    "Longitude": "85.531",
    "RegionCode": "BANK",
    "State": "Odisha",
    "SubRegionCode": "BANK",
    "VenueAddress": "Near SBI Bank, Cuttack - Banki Road, Banki, Odisha 754008, India",
    "VenueCode": "DURG",
    "VenueName": "Durga Talkies: Banki"
  },
  "DXEC": {
    "AvailableFormats": "",
    "City": "Ottapalam",
    "Latitude": "10.7413",
    "Longitude": "76.3901",
    "RegionCode": "THSR",
    "State": "Kerala",
    "SubRegionCode": "THSR",
    "VenueAddress": "Chelakkara, Kondazhi Mayannur Road, Ottapalam, Kerala 679105, India",
    "VenueCode": "DXEC",
    "VenueName": "Dreamax E Cinemas: Mayannur"
  },
  "ECRR": {
    "AvailableFormats": "2D",
    "City": "Ramgarh",
    "Latitude": "23.6398",
    "Longitude": "85.5119",
    "RegionCode": "GGHH",
    "State": "Jharkhand",
    "SubRegionCode": "GGHH",
    "VenueAddress": "Emvee Square, Opposite FBB, Near Balaji Bazar, Ramgarh Cantonment, Ramgarh, Jharkhand 829122, India",
    "VenueCode": "ECRR",
    "VenueName": "Eylex Cinemas: Ramgarh"
  },
  "EMCC": {
    "AvailableFormats": "2D",
    "City": "Kozhikode",
    "Latitude": "11.2701",
    "Longitude": "75.8443",
    "RegionCode": "KOZH",
    "State": "Kerala",
    "SubRegionCode": "KOZH",
    "VenueAddress": "Velliparamba, Kozhikode, Near Medical collage Hospital, Kozhikode, Kerala 673008, India",
    "VenueCode": "EMCC",
    "VenueName": "E Max Cinemas Dolby Atmos RGB Laser: Calicut"
  },
  "ESBW": {
    "AvailableFormats": "2D|3D",
    "City": "Pune",
    "Latitude": "18.5471",
    "Longitude": "73.9294",
    "RegionCode": "PUNE",
    "State": "Maharashtra",
    "SubRegionCode": "PUNE",
    "VenueAddress": "Old Mundhwa Road, Sector Number 3, Maruti Nagar, Kharadi, Wadgaon Sheri Bypass, Pune, Maharashtra 411014, India",
    "VenueCode": "ESBW",
    "VenueName": "Bollywood Multiplex: Kharadi"
  },
  "ETPB": {
    "AvailableFormats": "2D",
    "City": "Bhavnagar",
    "Latitude": "21.7716",
    "Longitude": "72.1462",
    "RegionCode": "BHNG",
    "State": "Gujarat",
    "SubRegionCode": "BHNG",
    "VenueAddress": "Shiva Blessing 2, Shilpi Nagar, Opposite Bhavnagar Municipal Corporation, Bhavnagar, Gujarat 364001, India",
    "VenueCode": "ETPB",
    "VenueName": "The Entertainment Park: Bhavnagar"
  },
  "EYHZ": {
    "AvailableFormats": "2D",
    "City": "Hazaribagh",
    "Latitude": "23.9914",
    "Longitude": "85.3541",
    "RegionCode": "HAZA",
    "State": "Jharkhand",
    "SubRegionCode": "HAZA",
    "VenueAddress": "Indralok Tower, 4th floor, Main Road Gwal Toli Chowk, Azad Mahalla, Hazaribagh, Jharkhand 825301, India",
    "VenueCode": "EYHZ",
    "VenueName": "Eylex Cinema: Hazaribagh"
  },
  "FDDH": {
    "AvailableFormats": "2D",
    "City": "Etawah",
    "Latitude": "26.7709",
    "Longitude": "79.0256",
    "RegionCode": "ETWH",
    "State": "Uttar Pradesh",
    "SubRegionCode": "ETWH",
    "VenueAddress": "Ram Lila Road, Anand Nagar, Lalpura, Etawah, Uttar Pradesh 206001, India",
    "VenueCode": "FDDH",
    "VenueName": "Fun DD Cinema: Etawah"
  },
  "FMJP": {
    "AvailableFormats": "3D|2D",
    "City": "Pune",
    "Latitude": "18.6486",
    "Longitude": "73.7847",
    "RegionCode": "PUNE",
    "State": "Maharashtra",
    "SubRegionCode": "PUNE",
    "VenueAddress": "Jai Ganesh Vision Mall, Akurdi Chowk, Ganga Nagar, Behind Greaves Cotton Company, Pune, Maharashtra 411035, India",
    "VenueCode": "FMJP",
    "VenueName": "INOX: Jai Ganesh, Akurdi"
  },
  "FNAN": {
    "AvailableFormats": "2D|3D",
    "City": "Mumbai",
    "Latitude": "19.1358",
    "Longitude": "72.8332",
    "RegionCode": "MUMBAI",
    "State": "Maharashtra",
    "SubRegionCode": "MWEST",
    "VenueAddress": "Plot No.844/4,Level 4, Shah Industrial Estate, Veera Desai Road, Andheri(West), Near ICICI Bank ATM, Mumbai, Maharashtra 400053, India",
    "VenueCode": "FNAN",
    "VenueName": "Cinepolis: Fun Republic Mall, Andheri (W)"
  },
  "FNGW": {
    "AvailableFormats": "2D|3D",
    "City": "Gwalior",
    "Latitude": "26.2094",
    "Longitude": "78.1663",
    "RegionCode": "GWAL",
    "State": "Madhya Pradesh",
    "SubRegionCode": "GWAL",
    "VenueAddress": "Dindayal City Mall, MLB Road, Lashkar, Opp Zoo, Gwalior, Madhya Pradesh 474001, India",
    "VenueCode": "FNGW",
    "VenueName": "Fun Cinemas: DD City Mall, Gwalior"
  },
  "FPPF": {
    "AvailableFormats": "2D",
    "City": "Ponkunnam",
    "Latitude": "9.56543",
    "Longitude": "76.7565",
    "RegionCode": "PONK",
    "State": "Kerala",
    "SubRegionCode": "PONK",
    "VenueAddress": "Post Office Road, Near Art Line Digital Studio, Ponkunnam, Kerala 686506, India",
    "VenueCode": "FPPF",
    "VenueName": "Focus Cinemas: Ponkunnam"
  },
  "FSMA": {
    "AvailableFormats": "2D",
    "City": "Angamaly",
    "Latitude": "10.2119",
    "Longitude": "76.4519",
    "RegionCode": "KLDY",
    "State": "Kerala",
    "SubRegionCode": "KLDY",
    "VenueAddress": "Canal Pass, Manjapra, Angamaly, Kerala 683581, India",
    "VenueCode": "FSMA",
    "VenueName": "Four Star Movies: Manjapra, Angamaly"
  },
  "GAGA": {
    "AvailableFormats": "2D",
    "City": "Nabarangpur",
    "Latitude": "19.2124",
    "Longitude": "82.5491",
    "RegionCode": "NAGU",
    "State": "Odisha",
    "SubRegionCode": "NAGU",
    "VenueAddress": "Glaze Hotel and Resorts Pvt Limited, National Highway, Chamuriyaguda, Nabarangpur, Odisha 764059, India",
    "VenueCode": "GAGA",
    "VenueName": "Glaze Cinemas: Nabarangpur"
  },
  "GATP": {
    "AvailableFormats": "2D",
    "City": "Palakollu",
    "Latitude": "16.5176",
    "Longitude": "81.7184",
    "RegionCode": "PLKL",
    "State": "Andhra Pradesh",
    "SubRegionCode": "PLKL",
    "VenueAddress": "PP Road, Near Krishna Bhavani Hospital, Palakollu, Andhra Pradesh 534260, India",
    "VenueCode": "GATP",
    "VenueName": "Geetha Annapurna Theatre: Palakollu"
  },
  "GCBA": {
    "AvailableFormats": "2D",
    "City": "Barnala",
    "Latitude": "30.2621",
    "Longitude": "75.2356",
    "RegionCode": "BAR",
    "State": "Punjab",
    "SubRegionCode": "BAR",
    "VenueAddress": "Bathinda Road, Near T-Point, Barnala, Punjab 148101, India",
    "VenueCode": "GCBA",
    "VenueName": "GE Cinemas: Barnala"
  },
  "GCFA": {
    "AvailableFormats": "2D",
    "City": "Fulkusma",
    "Latitude": "22.7119",
    "Longitude": "86.8696",
    "RegionCode": "FULK",
    "State": "West Bengal",
    "SubRegionCode": "FULK",
    "VenueAddress": "Gandheswari Chitralaya, Bankura Road, Fulkusma, West Bengal 722134, India",
    "VenueCode": "GCFA",
    "VenueName": "Gandheswari Chitralaya: Fulkushma"
  },
  "GCMA": {
    "AvailableFormats": "2D",
    "City": "Morena",
    "Latitude": "26.4905",
    "Longitude": "77.9869",
    "RegionCode": "MRMP",
    "State": "Madhya Pradesh",
    "SubRegionCode": "MRMP",
    "VenueAddress": "Hariraj Palace, M S Road, Morena, Madhya Pradesh 476001, India",
    "VenueCode": "GCMA",
    "VenueName": "Gold Cinema: Morena"
  },
  "GCRP": {
    "AvailableFormats": "2D",
    "City": "Chennai",
    "Latitude": "13.0999",
    "Longitude": "80.1795",
    "RegionCode": "CHEN",
    "State": "Tamil Nadu",
    "SubRegionCode": "CHEN",
    "VenueAddress": "64, Periyar Nagar, Mes Colony, Chennai, Tamil Nadu 600050, India",
    "VenueCode": "GCRP",
    "VenueName": "Green Cinemas 4K Atmos, PLF: Padi"
  },
  "GCYC": {
    "AvailableFormats": "2D",
    "City": "Yewat",
    "Latitude": "18.4758",
    "Longitude": "74.2682",
    "RegionCode": "YEWE",
    "State": "Maharashtra",
    "SubRegionCode": "YEWE",
    "VenueAddress": "Yawat Dorgewadi Road, Yavat, Yewat, Maharashtra 412214, India",
    "VenueCode": "GCYC",
    "VenueName": "Gunjan Cinema: Yewat"
  },
  "GDCS": {
    "AvailableFormats": "2D",
    "City": "Silchar",
    "Latitude": "24.8284",
    "Longitude": "92.8033",
    "RegionCode": "SIL",
    "State": "Assam",
    "SubRegionCode": "SIL",
    "VenueAddress": "Entertainment Plaza, Barak Cha Sramik Union Building Complex, Sadarghat Road, Waris Industries, Silchar, Assam 788001, India",
    "VenueCode": "GDCS",
    "VenueName": "Gold Cinema, Sadarghat Road: Silchar"
  },
  "GDTY": {
    "AvailableFormats": "2D",
    "City": "Bengaluru",
    "Latitude": "13.0216",
    "Longitude": "77.5513",
    "RegionCode": "BANG",
    "State": "Karnataka",
    "SubRegionCode": "BANG",
    "VenueAddress": "46/2, Industrial Surab, Tumkur Road, Yeshwanthpur, Near Yeshwantpur Railway Station, Bengaluru, Karnataka 560022, India",
    "VenueCode": "GDTY",
    "VenueName": "Goverdhan Theatre: Yeshwantpur"
  },
  "GGCV": {
    "AvailableFormats": "2D",
    "City": "Vapi",
    "Latitude": "20.3756",
    "Longitude": "72.9212",
    "RegionCode": "VAPI",
    "State": "Gujarat",
    "SubRegionCode": "VAPI",
    "VenueAddress": "CM O No 11, Geet Cinema, Gunjan Road, GIDC, Vapi, Gujarat 396195, India",
    "VenueCode": "GGCV",
    "VenueName": "Gunjan Geet Cinema: Vapi"
  },
  "GKCP": {
    "AvailableFormats": "2D|3D",
    "City": "Chennai",
    "Latitude": "13.0337",
    "Longitude": "80.1611",
    "RegionCode": "CHEN",
    "State": "Tamil Nadu",
    "SubRegionCode": "CHEN",
    "VenueAddress": "No 93, Lakshmi Nagar, Near Madurai Kannappar Mess, Chennai, Tamil Nadu 600116, India",
    "VenueCode": "GKCP",
    "VenueName": "GK Cinemas RGB + Laser SRL 4D: Porur"
  },
  "GLXJ": {
    "AvailableFormats": "2D",
    "City": "Jaipur",
    "Latitude": "26.8337",
    "Longitude": "75.7783",
    "RegionCode": "JAIP",
    "State": "Rajasthan",
    "SubRegionCode": "JAIP",
    "VenueAddress": "SP, 9, Shipra Path, RIICO Industrial Area, Mansarovar, Jaipur, Rajasthan 302020, India",
    "VenueCode": "GLXJ",
    "VenueName": "Galaxy Cinema Mansarovar: Jaipur"
  },
  "GODH": {
    "AvailableFormats": "2D",
    "City": "Dharamsala",
    "Latitude": "32.2143",
    "Longitude": "76.3171",
    "RegionCode": "DMSL",
    "State": "Himachal Pradesh",
    "SubRegionCode": "DMSL",
    "VenueAddress": "Maximus Mall, Mann Filling Station, Kotwali Bazar, Dharamsala, Himachal Pradesh 176215, India",
    "VenueCode": "GODH",
    "VenueName": "Gold Cinema: Dharamsala"
  },
  "GPMF": {
    "AvailableFormats": "2D",
    "City": "Faridkot",
    "Latitude": "30.6768",
    "Longitude": "74.7611",
    "RegionCode": "DKOT",
    "State": "Punjab",
    "SubRegionCode": "DKOT",
    "VenueAddress": "Gills Palace, Circular Road, Balbir Basti, Faridkot, Punjab 151203, India",
    "VenueCode": "GPMF",
    "VenueName": "Gill Plaza Multiplex: Faridkot"
  },
  "GRTC": {
    "AvailableFormats": "2D",
    "City": "Chennai",
    "Latitude": "13.0039",
    "Longitude": "80.2563",
    "RegionCode": "CHEN",
    "State": "Tamil Nadu",
    "SubRegionCode": "CHEN",
    "VenueAddress": "101 Lattice Bridge Road, Adyar, Kamaraj Nagar 1st Cross St, Chennai, Tamil Nadu 600020, India",
    "VenueCode": "GRTC",
    "VenueName": "GanapathyRam Theatre 4K Dolby 7.1: Chennai"
  },
  "GTDN": {
    "AvailableFormats": "2D",
    "City": "Davanagere",
    "Latitude": "14.4664",
    "Longitude": "75.9254",
    "RegionCode": "DAVA",
    "State": "Karnataka",
    "SubRegionCode": "DAVA",
    "VenueAddress": "KB Extension, Near Lingeshwara Temple, Davanagere, Karnataka 577001, India",
    "VenueCode": "GTDN",
    "VenueName": "Geetanjali Theatre: Davangere"
  },
  "GTTT": {
    "AvailableFormats": "2D",
    "City": "Ooty",
    "Latitude": "11.406",
    "Longitude": "76.701",
    "RegionCode": "OOTY",
    "State": "Tamil Nadu",
    "SubRegionCode": "OOTY",
    "VenueAddress": "Ganapathy Theatre Road, Upper Bazar, Ooty, Tamil Nadu 643001, India",
    "VenueCode": "GTTT",
    "VenueName": "Ganapathy Theatre: Ooty"
  },
  "GXYN": {
    "AvailableFormats": "2D",
    "City": "Nawapara",
    "Latitude": "20.9732",
    "Longitude": "81.8549",
    "RegionCode": "NAWA",
    "State": "Chhattisgarh",
    "SubRegionCode": "NAWA",
    "VenueAddress": "Nawapara Nagar, Abhanpur-Rajim Road, Near HP Petrol Pump, Nawapara, Chhattisgarh 493881, India",
    "VenueCode": "GXYN",
    "VenueName": "Galaxy Cinema: Nawapara"
  },
  "HCAJ": {
    "AvailableFormats": "2D",
    "City": "Jewar",
    "Latitude": "28.1206",
    "Longitude": "77.5563",
    "RegionCode": "JEWR",
    "State": "Uttar Pradesh",
    "SubRegionCode": "JEWR",
    "VenueAddress": "Amba Mall, Goyal Bhawan, Khurja Road, Noida, Opposite HDFC Bank, Jewar, Uttar Pradesh 203135, India",
    "VenueCode": "HCAJ",
    "VenueName": "Amba Cineplex: Jewar"
  },
  "HMHD": {
    "AvailableFormats": "2D|3D",
    "City": "Hyderabad",
    "Latitude": "17.4445",
    "Longitude": "78.3882",
    "RegionCode": "HYD",
    "State": "Telangana",
    "SubRegionCode": "HYD",
    "VenueAddress": "Hitech City Road, Sri Sai Nagar, Madhapur, Near State Bank Of India, Hyderabad, Telangana 500034, India",
    "VenueCode": "HMHD",
    "VenueName": "BR Hitech 70mm: Madhapur"
  },
  "IAET": {
    "AvailableFormats": "2D",
    "City": "Baraut",
    "Latitude": "29.1011",
    "Longitude": "77.2744",
    "RegionCode": "BARL",
    "State": "Uttar Pradesh",
    "SubRegionCode": "BARL",
    "VenueAddress": "Binoli Road, Near Vishnu Palace, Baraut, Uttar Pradesh 250611, India",
    "VenueCode": "IAET",
    "VenueName": "Imusica Entertainment: Baraut"
  },
  "IEFM": {
    "AvailableFormats": "3D|2D",
    "City": "Faridabad",
    "Latitude": "28.4076",
    "Longitude": "77.3101",
    "RegionCode": "NCR",
    "State": "NCR",
    "SubRegionCode": "FARI",
    "VenueAddress": "EROS EF3 Mall 3rd Floor, Sector 20 - A, Mathura Road, Faridabad, NCR 121001, India",
    "VenueCode": "IEFM",
    "VenueName": "INOX: EF3 Mall, Faridabad"
  },
  "ILUM": {
    "AvailableFormats": "3D|2D",
    "City": "Lucknow",
    "Latitude": "26.8713",
    "Longitude": "80.9584",
    "RegionCode": "LUCK",
    "State": "Uttar Pradesh",
    "SubRegionCode": "LUCK",
    "VenueAddress": "INOX Leisure LTD, 2nd Floor, Umrao Mall, Mahanagar, Near Badshah Nagar Metro Station, Lucknow, Uttar Pradesh 226006, India",
    "VenueCode": "ILUM",
    "VenueName": "INOX: Umrao Mall, Mahanagar"
  },
  "IMOB": {
    "AvailableFormats": "2D|IMAX 2D|4DX|3D",
    "City": "Mumbai",
    "Latitude": "19.2218",
    "Longitude": "72.8629",
    "RegionCode": "MUMBAI",
    "State": "Maharashtra",
    "SubRegionCode": "MWEST",
    "VenueAddress": "Oberoi Sky City Mall, Datta Pada Road, Borivali East, Devi Pada Metro Station, Mumbai, Maharashtra 400066, India",
    "VenueCode": "IMOB",
    "VenueName": "INOX Megaplex: Sky City Mall, Borivali"
  },
  "INAP": {
    "AvailableFormats": "2D|3D",
    "City": "Udaipur",
    "Latitude": "24.5863",
    "Longitude": "73.7104",
    "RegionCode": "UDAI",
    "State": "Rajasthan",
    "SubRegionCode": "UDAI",
    "VenueAddress": "5th Floor,Lake City Mall, University Road, Ashok Nagar, Near Porwal Ji Ki Badi, Udaipur, Rajasthan 313001, India",
    "VenueCode": "INAP",
    "VenueName": "INOX: Lake City Mall"
  },
  "INBS": {
    "AvailableFormats": "2D",
    "City": "Jorhat",
    "Latitude": "26.7543",
    "Longitude": "94.2181",
    "RegionCode": "JORT",
    "State": "Assam",
    "SubRegionCode": "JORT",
    "VenueAddress": "4th Floor, ABS Mall, AT Rd, Gar-Ali, Opposite Prince Of Wales, Jorhat, Assam 785001, India",
    "VenueCode": "INBS",
    "VenueName": "INOX: ABS Mall, Jorhat"
  },
  "INER": {
    "AvailableFormats": "2D|3D",
    "City": "Kolkata",
    "Latitude": "22.5386",
    "Longitude": "88.3515",
    "RegionCode": "KOLK",
    "State": "West Bengal",
    "SubRegionCode": "KOLK",
    "VenueAddress": "Lala Lajpat, Rai Sarani, Bhawanipur, Kolkata, West Bengal 700020, India",
    "VenueCode": "INER",
    "VenueName": "INOX: Forum Mall, Elgin Road"
  },
  "INIC": {
    "AvailableFormats": "2D|3D",
    "City": "Indore",
    "Latitude": "22.7181",
    "Longitude": "75.8713",
    "RegionCode": "IND",
    "State": "Madhya Pradesh",
    "SubRegionCode": "IND",
    "VenueAddress": "170,R.N.T. Marg, Regal Square, Flim Colony, South Tukoganj, 4th Floor, Indore Central, Indore, Madhya Pradesh 452001, India",
    "VenueCode": "INIC",
    "VenueName": "INOX: Nexus Indore Central Mall, Regal Square"
  },
  "INMK": {
    "AvailableFormats": "2D|3D",
    "City": "Kolhapur",
    "Latitude": "16.6987",
    "Longitude": "74.2312",
    "RegionCode": "KOLH",
    "State": "Maharashtra",
    "SubRegionCode": "KOLH",
    "VenueAddress": "2nd Floor, Reliance Mega Mall, Old Dalal Market, Laxmipuri, Near Lakshmi Vilas bank, Kolhapur, Maharashtra 416002, India",
    "VenueCode": "INMK",
    "VenueName": "INOX: Reliance Mega Mall, Kolhapur"
  },
  "INPM": {
    "AvailableFormats": "3D|2D",
    "City": "Meerut",
    "Latitude": "28.9528",
    "Longitude": "77.7315",
    "RegionCode": "MERT",
    "State": "Uttar Pradesh",
    "SubRegionCode": "MERT",
    "VenueAddress": "PVS Multiplex India Ltd, PVS Mall, 2nd Floor, I Block, Shastri Nagar, Meerut, Uttar Pradesh 250001, India",
    "VenueCode": "INPM",
    "VenueName": "INOX: PVS Mall, Meerut"
  },
  "INRD": {
    "AvailableFormats": "3D|2D",
    "City": "Delhi",
    "Latitude": "28.6506",
    "Longitude": "77.1219",
    "RegionCode": "NCR",
    "State": "NCR",
    "SubRegionCode": "DELHI",
    "VenueAddress": "R Cube Monad Mall, Shivaji Place District Centre, Raja Garden, Delhi, NCR 110027, India",
    "VenueCode": "INRD",
    "VenueName": "INOX: RCube, Monad Mall: Delhi"
  },
  "INSG": {
    "AvailableFormats": "2D|3D",
    "City": "Gurugram (Gurgaon)",
    "Latitude": "28.4047",
    "Longitude": "76.9359",
    "RegionCode": "NCR",
    "State": "NCR",
    "SubRegionCode": "GURG",
    "VenueAddress": "INOX Leisure Ltd, 2nd Floor, Sapphire 90 Mall, sector 90, Haryana, Gurugram (Gurgaon), NCR 122505, India",
    "VenueCode": "INSG",
    "VenueName": "INOX Sapphire 90 Mall: Gurugram"
  },
  "INTS": {
    "AvailableFormats": "2D",
    "City": "Srinagar",
    "Latitude": "34.0652",
    "Longitude": "74.8456",
    "RegionCode": "SRNG",
    "State": "Jammu and Kashmir",
    "SubRegionCode": "SRNG",
    "VenueAddress": "Taksal Hospitality Pvt. Ltd. Khasra No: 946/802, Mouza, Shivpora, Srinagar, Jammu and Kashmir 190004, India",
    "VenueCode": "INTS",
    "VenueName": "INOX: Srinagar Shivpora"
  },
  "INVS": {
    "AvailableFormats": "2D",
    "City": "Madurai",
    "Latitude": "9.93825",
    "Longitude": "78.136",
    "RegionCode": "MADU",
    "State": "Tamil Nadu",
    "SubRegionCode": "MADU",
    "VenueAddress": "No. 31, 5th Floor, Vishaal De Mall, Gokhale Road, Chinna Chokkikulam, Madurai, Tamil Nadu 625002, India",
    "VenueCode": "INVS",
    "VenueName": "INOX: Vishaal De Mall"
  },
  "IOMM": {
    "AvailableFormats": "2D|3D",
    "City": "Gorakhpur",
    "Latitude": "26.7498",
    "Longitude": "83.4007",
    "RegionCode": "GRKP",
    "State": "Uttar Pradesh",
    "SubRegionCode": "GRKP",
    "VenueAddress": "INOX Leisure Ltd, 4th Floor, Orion Mall, Mohaddipur, Gorakhpur, Uttar Pradesh 273010, India",
    "VenueCode": "IOMM",
    "VenueName": "INOX: Orion Mall, Gorakhpur"
  },
  "IPPL": {
    "AvailableFormats": "2D|MX4D|IMAX 2D|3D|MX4D 3D",
    "City": "Lucknow",
    "Latitude": "26.8085",
    "Longitude": "81.0123",
    "RegionCode": "LUCK",
    "State": "Uttar Pradesh",
    "SubRegionCode": "LUCK",
    "VenueAddress": "INOX Leisure Ltd., 3rd Floor, Phoenix Palassio Mall Amar Saheed Path, Gomti Nagar Extension, Lucknow, Uttar Pradesh 226010, India",
    "VenueCode": "IPPL",
    "VenueName": "INOX: Megaplex Phoenix Palassio Mall"
  },
  "ISMR": {
    "AvailableFormats": "2D",
    "City": "Dharwad",
    "Latitude": "15.4452",
    "Longitude": "75.0136",
    "RegionCode": "DHAW",
    "State": "Karnataka",
    "SubRegionCode": "DHAW",
    "VenueAddress": "2nd Floor, Smart City Mall, Lakamanahalli, P B Road, Dharwad, Karnataka 580001, India",
    "VenueCode": "ISMR",
    "VenueName": "INOX: Smartcity Mall, Dharwad"
  },
  "IZOP": {
    "AvailableFormats": "IMAX 2D",
    "City": "Delhi",
    "Latitude": "28.5472",
    "Longitude": "77.2519",
    "RegionCode": "NCR",
    "State": "NCR",
    "SubRegionCode": "DELHI",
    "VenueAddress": "1st Floor, Paras Cinema Building, Nehru Place, Delhi, NCR 110019, India",
    "VenueCode": "IZOP",
    "VenueName": "INOX: COCA-COLA IMAX Paras, Nehru Place, Delhi"
  },
  "JBTT": {
    "AvailableFormats": "2D",
    "City": "Tumakuru (Tumkur)",
    "Latitude": "13.345",
    "Longitude": "77.0969",
    "RegionCode": "TUMK",
    "State": "Karnataka",
    "SubRegionCode": "TUMK",
    "VenueAddress": "Mandipet Main Road, Opposite Church Road, New Mandipet, Tumakuru (Tumkur), Karnataka 572101, India",
    "VenueCode": "JBTT",
    "VenueName": "Jai Bharath Theater 4K Atmos: Tumkur"
  },
  "JCNM": {
    "AvailableFormats": "2D",
    "City": "Dindigul",
    "Latitude": "10.288",
    "Longitude": "77.9201",
    "RegionCode": "DIND",
    "State": "Tamil Nadu",
    "SubRegionCode": "DIND",
    "VenueAddress": "Balasubramanian Street, Keelakottai, Chinnalapatti, Dindigul, Tamil Nadu 624301, India",
    "VenueCode": "JCNM",
    "VenueName": "J Cinemas A/C 7.1 Laser Projector: Chinnalapatti"
  },
  "JGTK": {
    "AvailableFormats": "2D",
    "City": "Jayamkondacholapuram",
    "Latitude": "11.2136",
    "Longitude": "79.3569",
    "RegionCode": "JYAM",
    "State": "Tamil Nadu",
    "SubRegionCode": "JYAM",
    "VenueAddress": "National Highway 227, Jayankondam, Near Mangalam mahal, Jayamkondacholapuram, Tamil Nadu 621802, India",
    "VenueCode": "JGTK",
    "VenueName": "JANAGAR CINEMAS A/C DOLBY 7.1"
  },
  "JKCT": {
    "AvailableFormats": "2D",
    "City": "Thrissur",
    "Latitude": "10.4195",
    "Longitude": "76.106",
    "RegionCode": "THAI",
    "State": "Kerala",
    "SubRegionCode": "THAI",
    "VenueAddress": "Ground Floor,Dheehini Shopping Complex, Nattika,Thriprayar, Near Sree Narayana Hall, Thrissur, Kerala 680566, India",
    "VenueCode": "JKCT",
    "VenueName": "JK Cinemas 4K Dolby Atmos: Thriprayar"
  },
  "JMMA": {
    "AvailableFormats": "2D",
    "City": "Angamaly",
    "Latitude": "10.2254",
    "Longitude": "76.4137",
    "RegionCode": "KLDY",
    "State": "Kerala",
    "SubRegionCode": "KLDY",
    "VenueAddress": "Mookkannoor, Ezhattumugham Road, Josh Mall, Angamaly, Kerala 683577, India",
    "VenueCode": "JMMA",
    "VenueName": "JM Movies Josh Mall: Mookkannoor Angamaly"
  },
  "JSAI": {
    "AvailableFormats": "2D",
    "City": "Virudhachalam",
    "Latitude": "11.5248",
    "Longitude": "79.3221",
    "RegionCode": "VIDM",
    "State": "Tamil Nadu",
    "SubRegionCode": "VIDM",
    "VenueAddress": "State Highway 69, Mullai Nagar, Near A to Z Super Market, Virudhachalam, Tamil Nadu 606001, India",
    "VenueCode": "JSAI",
    "VenueName": "Jai Sai Krishna Cinemas A/C: Virudhachalam"
  },
  "JTGT": {
    "AvailableFormats": "2D",
    "City": "Payakaraopeta",
    "Latitude": "17.3622",
    "Longitude": "82.5493",
    "RegionCode": "PATE",
    "State": "Andhra Pradesh",
    "SubRegionCode": "PATE",
    "VenueAddress": "Tuni, Payakaraopeta Town Road, Near Panduranga Swamy Temple, Payakaraopeta, Andhra Pradesh 531126, India",
    "VenueCode": "JTGT",
    "VenueName": "Gautham Theatre: Payakaraopeta"
  },
  "JTNP": {
    "AvailableFormats": "2D",
    "City": "Narsampet",
    "Latitude": "17.9291",
    "Longitude": "79.8887",
    "RegionCode": "NASP",
    "State": "Telangana",
    "SubRegionCode": "NASP",
    "VenueAddress": "Narsampet Main Road, Opposite State Bank Of India, Near Mee Seva Center, Narsampet, Telangana 506132, India",
    "VenueCode": "JTNP",
    "VenueName": "Jayasri Talkies: Narsampet"
  },
  "JTSM": {
    "AvailableFormats": "2D",
    "City": "Nellore",
    "Latitude": "14.4561",
    "Longitude": "79.9816",
    "RegionCode": "NELL",
    "State": "Andhra Pradesh",
    "SubRegionCode": "NELL",
    "VenueAddress": "Ramji Nagar, ., Nellore, Andhra Pradesh 524001, India",
    "VenueCode": "JTSM",
    "VenueName": "Siri Multiplex: Nellore"
  },
  "JUGA": {
    "AvailableFormats": "2D",
    "City": "Kanpur",
    "Latitude": "26.4218",
    "Longitude": "80.3734",
    "RegionCode": "KANP",
    "State": "Uttar Pradesh",
    "SubRegionCode": "KANP",
    "VenueAddress": "GT Road, Krishna Nagar, Near State Bank, Kanpur, Uttar Pradesh 208010, India",
    "VenueCode": "JUGA",
    "VenueName": "Jugul Palace Cinema: Kanpur"
  },
  "JYOE": {
    "AvailableFormats": "2D",
    "City": "Dhule",
    "Latitude": "20.9061",
    "Longitude": "74.7762",
    "RegionCode": "DHLE",
    "State": "Maharashtra",
    "SubRegionCode": "DHLE",
    "VenueAddress": "City Survey No. 3488/3A, Kajwe Road, Dhule, Maharashtra 424001, India",
    "VenueCode": "JYOE",
    "VenueName": "Jyoti Chitra Mandir: Dhule"
  },
  "KARP": {
    "AvailableFormats": "2D",
    "City": "Coimbatore",
    "Latitude": "11.0194",
    "Longitude": "76.9638",
    "RegionCode": "COIM",
    "State": "Tamil Nadu",
    "SubRegionCode": "COIM",
    "VenueAddress": "No-161, 100 Feet Road, Gandhi Puram, Opposite Bharath Electronics, Coimbatore, Tamil Nadu 641012, India",
    "VenueCode": "KARP",
    "VenueName": "Karpagam Theatres 4K Dolby Atmos: Coimbatore"
  },
  "KCBI": {
    "AvailableFormats": "3D|2D",
    "City": "Bengaluru",
    "Latitude": "12.9233",
    "Longitude": "77.5533",
    "RegionCode": "HOKT",
    "State": "Karnataka",
    "SubRegionCode": "HOKT",
    "VenueAddress": "No.43/2, 1st Cross, 5th Block, 100 feet Road, Katriguppe, Banashankari 3rd Stage, Near Union Bank Of India ATM, Bengaluru, Karnataka 560085, India",
    "VenueCode": "KCBI",
    "VenueName": "Kamakya 4K Dolby Atmos 3D A/C Cinema: Banashankari"
  },
  "KCMR": {
    "AvailableFormats": "2D",
    "City": "Udgir",
    "Latitude": "18.3814",
    "Longitude": "77.1251",
    "RegionCode": "UDGR",
    "State": "Maharashtra",
    "SubRegionCode": "UDGR",
    "VenueAddress": "Shelhal Road, Vikas Nagar, Udgir, Maharashtra 413517, India",
    "VenueCode": "KCMR",
    "VenueName": "Kalpana Chitra Mandir: Udgir"
  },
  "KDIN": {
    "AvailableFormats": "2D",
    "City": "Indore",
    "Latitude": "22.7127",
    "Longitude": "75.8382",
    "RegionCode": "IND",
    "State": "Madhya Pradesh",
    "SubRegionCode": "IND",
    "VenueAddress": "258, Labriya Bheru, Dhar Road, Near Gangawal Bus Stand, Indore, Madhya Pradesh 452002, India",
    "VenueCode": "KDIN",
    "VenueName": "Kastur Deluxe Theatre: Indore"
  },
  "KINO": {
    "AvailableFormats": "2D",
    "City": "Bengaluru",
    "Latitude": "13.0131",
    "Longitude": "77.7614",
    "RegionCode": "BANG",
    "State": "Karnataka",
    "SubRegionCode": "BANG",
    "VenueAddress": "Survey No. 84, Greenfield Hub, Block C, Seegehalli Road, Kadugodi, Bengaluru, Karnataka 560067, India",
    "VenueCode": "KINO",
    "VenueName": "Kino Cinemas: Seegehalli Kadugodi, Bengaluru"
  },
  "KKUI": {
    "AvailableFormats": "2D",
    "City": "Mumbai",
    "Latitude": "19.3785",
    "Longitude": "72.8287",
    "RegionCode": "MUMBAI",
    "State": "Maharashtra",
    "SubRegionCode": "MWEST",
    "VenueAddress": "Navghar Road, Anand Nagar, Opposite - West Panchal Nagar Walkway, Vasai West, Mumbai, Maharashtra 401202, India",
    "VenueCode": "KKUI",
    "VenueName": "KT Vision Cinema: Vasai(Screen 1)"
  },
  "KMMV": {
    "AvailableFormats": "2D|3D",
    "City": "Mumbai",
    "Latitude": "19.3708",
    "Longitude": "72.8137",
    "RegionCode": "MUMBAI",
    "State": "Maharashtra",
    "SubRegionCode": "MWEST",
    "VenueAddress": "Kauls Mall, Agarwal Complex, Bhabola Chulna Road, Kaul Heritage City, Vasai (West), Mumbai, Maharashtra 401202, India",
    "VenueCode": "KMMV",
    "VenueName": "K Movie Star Multiplex: Vasai (W)"
  },
  "KPPB": {
    "AvailableFormats": "2D",
    "City": "Bahraich",
    "Latitude": "27.5715",
    "Longitude": "81.6027",
    "RegionCode": "BHRH",
    "State": "Uttar Pradesh",
    "SubRegionCode": "BHRH",
    "VenueAddress": "Kanoon Go Pura South, Brahmnipura, Near Disha Complex, Bahraich, Uttar Pradesh 271801, India",
    "VenueCode": "KPPB",
    "VenueName": "K Cinemas: Bahraich"
  },
  "KRMT": {
    "AvailableFormats": "2D",
    "City": "Sakti",
    "Latitude": "22.0182",
    "Longitude": "82.9593",
    "RegionCode": "SAKT",
    "State": "Chhattisgarh",
    "SubRegionCode": "SAKT",
    "VenueAddress": "1st Floor, Jindal Plaza Station Road, Sakti Marg, Sakti, Chhattisgarh 495689, India",
    "VenueCode": "KRMT",
    "VenueName": "Krishna Metro Cinema: Sakti"
  },
  "KSGK": {
    "AvailableFormats": "2D",
    "City": "Vizag (Visakhapatnam)",
    "Latitude": "17.6864",
    "Longitude": "83.208",
    "RegionCode": "SABB",
    "State": "Andhra Pradesh",
    "SubRegionCode": "SABB",
    "VenueAddress": "Main Road, Old Gajuwaka, Near Mamata Hospital, Vizag (Visakhapatnam), Andhra Pradesh 530026, India",
    "VenueCode": "KSGK",
    "VenueName": "Sree Kanya Cinemas: Gajuwaka"
  },
  "KSTR": {
    "AvailableFormats": "2D",
    "City": "Alappuzha",
    "Latitude": "9.49605",
    "Longitude": "76.3412",
    "RegionCode": "CRTL",
    "State": "Kerala",
    "SubRegionCode": "CRTL",
    "VenueAddress": "CCNB Road, Erezha, Mullakkal, Near St George Lodgings, Alappuzha, Kerala 688011, India",
    "VenueCode": "KSTR",
    "VenueName": "Kairali Sree Theater: Alappuzha"
  },
  "KTPC": {
    "AvailableFormats": "3D|2D",
    "City": "Patna",
    "Latitude": "25.5998",
    "Longitude": "85.2214",
    "RegionCode": "PATN",
    "State": "Bihar",
    "SubRegionCode": "PATN",
    "VenueAddress": "Sadar Gali, Khaje Kalan, Khamji Begum Colony, Sadikpur, Patna, Bihar 800008, India",
    "VenueCode": "KTPC",
    "VenueName": "Krishna Talkies: Patna"
  },
  "LALK": {
    "AvailableFormats": "2D",
    "City": "Kanpur",
    "Latitude": "26.4401",
    "Longitude": "80.3238",
    "RegionCode": "KANP",
    "State": "Uttar Pradesh",
    "SubRegionCode": "KANP",
    "VenueAddress": "127/401 A, Block S, Kanpur Nagar, Kanpur, Uttar Pradesh 208014, India",
    "VenueCode": "LALK",
    "VenueName": "Lal Palace: Kanpur"
  },
  "LCNS": {
    "AvailableFormats": "2D",
    "City": "Nagpur",
    "Latitude": "21.1576",
    "Longitude": "79.0798",
    "RegionCode": "NAGP",
    "State": "Maharashtra",
    "SubRegionCode": "NAGP",
    "VenueAddress": "Besides Hotel Tuli Residency Road, Bazar Road Sadar Bazar Liberty Chowk, Mangalwari Bazar, Nagpur, Maharashtra 440001, India",
    "VenueCode": "LCNS",
    "VenueName": "Liberty Cinema: Sadar"
  },
  "LGTV": {
    "AvailableFormats": "2D",
    "City": "Vizianagaram",
    "Latitude": "18.1103",
    "Longitude": "83.3976",
    "RegionCode": "VIZI",
    "State": "Andhra Pradesh",
    "SubRegionCode": "VIZI",
    "VenueAddress": "Fort City Central Mall, Railway Station Road, Gadi Khana, Pedavemali, Beside Leela Mahal theatre, Vizianagaram, Andhra Pradesh 535001, India",
    "VenueCode": "LGTV",
    "VenueName": "LGT Cinemas: Vizianagaram"
  },
  "LKMY": {
    "AvailableFormats": "2D",
    "City": "Yellandu",
    "Latitude": "17.5845",
    "Longitude": "80.3226",
    "RegionCode": "YRLL",
    "State": "Telangana",
    "SubRegionCode": "YRLL",
    "VenueAddress": "Khammam - Yellandu Road, Bhagya Nagar Thanda, Yellandu, Telangana 507123, India",
    "VenueCode": "LKMY",
    "VenueName": "Lalitha Kala Mandir: Yellandu"
  },
  "LMCI": {
    "AvailableFormats": "2D",
    "City": "Ichchapuram",
    "Latitude": "19.1297",
    "Longitude": "84.6921",
    "RegionCode": "ICPR",
    "State": "Andhra Pradesh",
    "SubRegionCode": "ICPR",
    "VenueAddress": "Amin Sahib Peta, Oppsite NECC Office, Ichchapuram, Andhra Pradesh 532312, India",
    "VenueCode": "LMCI",
    "VenueName": "L Max Cinemas AC (2K JBL Dolby Digital 7.1)"
  },
  "LPTY": {
    "AvailableFormats": "2D",
    "City": "Thalassery",
    "Latitude": "11.7463",
    "Longitude": "75.4954",
    "RegionCode": "THAY",
    "State": "Kerala",
    "SubRegionCode": "THAY",
    "VenueAddress": "AVK Nair Road, Pilakool, Thalassery, Kerala 670103, India",
    "VenueCode": "LPTY",
    "VenueName": "Liberty Paradise: Thalassery"
  },
  "LUCP": {
    "AvailableFormats": "2D",
    "City": "Petlad",
    "Latitude": "22.4641",
    "Longitude": "72.7938",
    "RegionCode": "BORM",
    "State": "Gujarat",
    "SubRegionCode": "BORM",
    "VenueAddress": "3rd Floor Yogi Icon, GJ SH 89, Shekhadi, Near Nayara Petrol Pump, Petlad, Gujarat 388450, India",
    "VenueCode": "LUCP",
    "VenueName": "The Lux Cinema: Petlad"
  },
  "MAAG": {
    "AvailableFormats": "2D",
    "City": "Navsari",
    "Latitude": "20.9502",
    "Longitude": "72.9171",
    "RegionCode": "NVSR",
    "State": "Gujarat",
    "SubRegionCode": "NVSR",
    "VenueAddress": "Mukta A2 Cinemas, Giriraj, Station Road, Taskand Nagar, Vejalpore, Near Udipi Hotel, Navsari, Gujarat 396445, India",
    "VenueCode": "MAAG",
    "VenueName": "Mukta A2 Cinemas: Giriraj"
  },
  "MACZ": {
    "AvailableFormats": "2D|3D",
    "City": "Ahmedabad",
    "Latitude": "22.9929",
    "Longitude": "72.5438",
    "RegionCode": "AHD",
    "State": "Gujarat",
    "SubRegionCode": "AHD",
    "VenueAddress": "Mukta A2 Cinema 7th Floor, Rajyash Rise, Behind Vishala Hotel, Rajyesh City, South Vasana Narol Round, Ahmedabad, Gujarat 380007, India",
    "VenueCode": "MACZ",
    "VenueName": "Mukta A2 Cinemas: Rajyash, South Vasna, Ahmedabad"
  },
  "MAJB": {
    "AvailableFormats": "3D|2D",
    "City": "Mumbai",
    "Latitude": "18.986",
    "Longitude": "72.8359",
    "RegionCode": "MUMBAI",
    "State": "Maharashtra",
    "SubRegionCode": "MCENT",
    "VenueAddress": "Lal Baug, Dr.B.R.Ambedkar Road, Near Voltas Building, Mumbai, Maharashtra 400033, India",
    "VenueCode": "MAJB",
    "VenueName": "Mukta A2 Cinemas: Jai Hind, Lalbaugh"
  },
  "MATK": {
    "AvailableFormats": "2D|3D",
    "City": "Pune",
    "Latitude": "18.5189",
    "Longitude": "73.9357",
    "RegionCode": "PUNE",
    "State": "Maharashtra",
    "SubRegionCode": "PUNE",
    "VenueAddress": "MovieMax, Amanora Town Centre, Amanora Park Town, Hadapsar, Pune, Maharashtra 411028, India",
    "VenueCode": "MATK",
    "VenueName": "MovieMax: Amanora Town Centre, Pune(Now Renovated)"
  },
  "MBCR": {
    "AvailableFormats": "2D|3D",
    "City": "Jodhpur",
    "Latitude": "26.2837",
    "Longitude": "73.0383",
    "RegionCode": "JODH",
    "State": "Rajasthan",
    "SubRegionCode": "JODH",
    "VenueAddress": "Blue City Mall, 3rd Floor, Circuit House Road, Jodhpur, Rajasthan 342001, India",
    "VenueCode": "MBCR",
    "VenueName": "Miraj Cinemas: Blue City Mall, Jodhpur"
  },
  "MCBH": {
    "AvailableFormats": "2D",
    "City": "Hyderabad",
    "Latitude": "17.3559",
    "Longitude": "78.4537",
    "RegionCode": "HYD",
    "State": "Telangana",
    "SubRegionCode": "HYD",
    "VenueAddress": "Bahadurpura, Near Zoo Park Road, Hyderabad, Telangana 500064, India",
    "VenueCode": "MCBH",
    "VenueName": "Metro Cinema: Bahadurpura"
  },
  "MCGN": {
    "AvailableFormats": "3D|2D",
    "City": "Gurugram (Gurgaon)",
    "Latitude": "28.4274",
    "Longitude": "77.0361",
    "RegionCode": "NCR",
    "State": "NCR",
    "SubRegionCode": "GURG",
    "VenueAddress": "4th Floor, Celebration Mall, Sohna Road, Sector 48, Gurugram (Gurgaon), NCR 122001, India",
    "VenueCode": "MCGN",
    "VenueName": "Movietime Cinemas: Celebration Mall, Gurgaon"
  },
  "MCMC": {
    "AvailableFormats": "2D",
    "City": "Singrauli",
    "Latitude": "24.0651",
    "Longitude": "82.6302",
    "RegionCode": "SNGR",
    "State": "Madhya Pradesh",
    "SubRegionCode": "SNGR",
    "VenueAddress": "Near Masjid Square, Talkies Road, Waidhan, Singrauli, Madhya Pradesh 486886, India",
    "VenueCode": "MCMC",
    "VenueName": "MCM Cineplex: Waidhan"
  },
  "MCRL": {
    "AvailableFormats": "2D|3D",
    "City": "Kanpur",
    "Latitude": "26.4564",
    "Longitude": "80.3342",
    "RegionCode": "KANP",
    "State": "Uttar Pradesh",
    "SubRegionCode": "KANP",
    "VenueAddress": "Ratan Elegance, Afim Kothi Chauraha, 86/275, Rajpurwa, Kanpur, Uttar Pradesh 208012, India",
    "VenueCode": "MCRL",
    "VenueName": "Movietime Cinemas: Ratan Elegance, Kanpur"
  },
  "MCTG": {
    "AvailableFormats": "3D|2D",
    "City": "Mumbai",
    "Latitude": "19.1655",
    "Longitude": "72.8429",
    "RegionCode": "MUMBAI",
    "State": "Maharashtra",
    "SubRegionCode": "MWEST",
    "VenueAddress": "2nd Floor, Topiwala Center, Topiwala Lane, Near Goregaon Station (West), Mumbai, Maharashtra 400062, India",
    "VenueCode": "MCTG",
    "VenueName": "Topiwala Mukta A2 Cinemas, Goregaon"
  },
  "MDKI": {
    "AvailableFormats": "2D",
    "City": "Bengaluru",
    "Latitude": "12.9157",
    "Longitude": "77.5632",
    "RegionCode": "HOKT",
    "State": "Karnataka",
    "SubRegionCode": "HOKT",
    "VenueAddress": "Subramanyapura Main Road, Padmanabhanagar, Near Kadirenahalli Outer Ring Road Junction, Behind The Bangalore City Co-operative Bank Ltd (Padmanabhanagar Branch), 6th Cross, Banashankari 2nd Stage, Ben",
    "VenueCode": "MDKI",
    "VenueName": "Mahadeshwara Cinema 4K Dolby ATMOS AC Banashankari"
  },
  "MEMR": {
    "AvailableFormats": "2D",
    "City": "Muzaffarnagar",
    "Latitude": "29.4865",
    "Longitude": "77.6966",
    "RegionCode": "MUZ",
    "State": "Uttar Pradesh",
    "SubRegionCode": "MUZ",
    "VenueAddress": "498, Opp Saharanpur Bus Stand, GT Road, Rampuri, Roorkee Road, Near Bajaj Agency, Muzaffarnagar, Uttar Pradesh 251001, India",
    "VenueCode": "MEMR",
    "VenueName": "Maya Multiplex: Muzaffarnagar"
  },
  "MGMF": {
    "AvailableFormats": "",
    "City": "Dhuri",
    "Latitude": "30.3649",
    "Longitude": "75.8591",
    "RegionCode": "DHRI",
    "State": "Punjab",
    "SubRegionCode": "DHRI",
    "VenueAddress": "MGM Mall, Sangrur-Dhuri Road, Near Civil Hospital, Dhuri, Punjab 148024, India",
    "VenueCode": "MGMF",
    "VenueName": "MGM Filmiplex Cinema: Dhuri"
  },
  "MIDL": {
    "AvailableFormats": "2D",
    "City": "Madurai",
    "Latitude": "9.93085",
    "Longitude": "78.0907",
    "RegionCode": "MADU",
    "State": "Tamil Nadu",
    "SubRegionCode": "MADU",
    "VenueAddress": "116/2, Sammattipuram Main Road, Opposite to Big Bazaar, Madurai, Tamil Nadu 625016, India",
    "VenueCode": "MIDL",
    "VenueName": "Midlaand Cinemas A/C 4K Dolby Digital 7.1: Madurai"
  },
  "MJCS": {
    "AvailableFormats": "3D|2D",
    "City": "Akola",
    "Latitude": "20.6983",
    "Longitude": "77.0168",
    "RegionCode": "AKOL",
    "State": "Maharashtra",
    "SubRegionCode": "AKOL",
    "VenueAddress": "Murtizapur Road, Kirti Nagar, Near TVS Showroom, Akola, Maharashtra 444005, India",
    "VenueCode": "MJCS",
    "VenueName": "Miraj Cinemas: Radha Krishna, Akola"
  },
  "MKML": {
    "AvailableFormats": "2D",
    "City": "Pune",
    "Latitude": "18.5437",
    "Longitude": "73.9088",
    "RegionCode": "PUNE",
    "State": "Maharashtra",
    "SubRegionCode": "PUNE",
    "VenueAddress": "Marigold Complex, Kalyani Nagar, Pune, Maharashtra 411006, India",
    "VenueCode": "MKML",
    "VenueName": "MovieMax Gold: Mariplex Mall, Kalyani Nagar"
  },
  "MLMT": {
    "AvailableFormats": "2D|3D",
    "City": "Tiruvallur",
    "Latitude": "13.1159",
    "Longitude": "79.9095",
    "RegionCode": "TRVL",
    "State": "Tamil Nadu",
    "SubRegionCode": "TRVL",
    "VenueAddress": "State Highway 57, Tiruvallur, Tiruvallur, Tamil Nadu 602003, India",
    "VenueCode": "MLMT",
    "VenueName": "Marvel Movie Max 4K Laser Dolby Atmos: Tiruvallur"
  },
  "MMCV": {
    "AvailableFormats": "2D",
    "City": "Mumbai",
    "Latitude": "19.4712",
    "Longitude": "72.8363",
    "RegionCode": "MUMBAI",
    "State": "Maharashtra",
    "SubRegionCode": "MWEST",
    "VenueAddress": "1st Floor, Gala No 2,Riddhi Siddhi Industrial Complex, Chandansar, Virar East, Palghar, Mumbai, Maharashtra 401303, India",
    "VenueCode": "MMCV",
    "VenueName": "Movie Max V Cinema: Virar (E)"
  },
  "MMMD": {
    "AvailableFormats": "2D",
    "City": "Etawah",
    "Latitude": "26.7847",
    "Longitude": "79.0212",
    "RegionCode": "ETWH",
    "State": "Uttar Pradesh",
    "SubRegionCode": "ETWH",
    "VenueAddress": "Baba The Mall, Shastri Chauraha, Chogurjee Nagar, Near Hydel Colony, Etawah, Uttar Pradesh 206001, India",
    "VenueCode": "MMMD",
    "VenueName": "Mad Moviez: Etawah"
  },
  "MMVI": {
    "AvailableFormats": "2D",
    "City": "Irinjalakuda",
    "Latitude": "10.3507",
    "Longitude": "76.2139",
    "RegionCode": "THSR",
    "State": "Kerala",
    "SubRegionCode": "THSR",
    "VenueAddress": "Njavarikulam Road, Irinjalakuda, Near Chembakassery MultiMall, Irinjalakuda, Kerala 680121, India",
    "VenueCode": "MMVI",
    "VenueName": "Mas Movies Irinjalakuda"
  },
  "MNCV": {
    "AvailableFormats": "2D",
    "City": "Chevella",
    "Latitude": "17.3116",
    "Longitude": "78.138",
    "RegionCode": "CHEV",
    "State": "Telangana",
    "SubRegionCode": "CHEV",
    "VenueAddress": "Survey No.5/3 Part, Main Road, Near Aloor Chevella Vegetable Market, Chevella, Telangana 501503, India",
    "VenueCode": "MNCV",
    "VenueName": "Manikanta Theatre 70mm AC Dolby Atmos 2K: Chevella"
  },
  "MPDB": {
    "AvailableFormats": "3D|2D",
    "City": "Bhubaneswar",
    "Latitude": "20.2962",
    "Longitude": "85.835",
    "RegionCode": "JATN",
    "State": "Odisha",
    "SubRegionCode": "JATN",
    "VenueAddress": "Bhoi Nagar, Service Road, Vani Vihar, Near Sky Automobile, Bhubaneswar, Odisha 751022, India",
    "VenueCode": "MPDB",
    "VenueName": "Maharaja (Christie 4K, DOLBY ATMOS 64 CHANNEL)"
  },
  "MRGT": {
    "AvailableFormats": "3D|2D",
    "City": "Hyderabad",
    "Latitude": "17.4938",
    "Longitude": "78.3193",
    "RegionCode": "HYD",
    "State": "Telangana",
    "SubRegionCode": "HYD",
    "VenueAddress": "H.No 5 - 54, Manjeera Road, Chandanagar, Beside Andhra Bank, Hyderabad, Telangana 500050, India",
    "VenueCode": "MRGT",
    "VenueName": "Miraj Cinemas: Geeta, Chandanagar"
  },
  "MSCJ": {
    "AvailableFormats": "2D",
    "City": "Jajpur Town (Odisha)",
    "Latitude": "20.853",
    "Longitude": "86.3293",
    "RegionCode": "JTTT",
    "State": "Odisha",
    "SubRegionCode": "JTTT",
    "VenueAddress": "Gandhi chhak, Sanskruti Bhawan, Jajpur Town (Odisha), Odisha 755001, India",
    "VenueCode": "MSCJ",
    "VenueName": "Mission Shakti Cinemas: Jajpur Town"
  },
  "MTAR": {
    "AvailableFormats": "2D",
    "City": "Rajgangpur",
    "Latitude": "22.1913",
    "Longitude": "84.5893",
    "RegionCode": "RJGR",
    "State": "Odisha",
    "SubRegionCode": "RJGR",
    "VenueAddress": "Subhas Chowk, R.G.P Main Road, Near DHP Shah Hindustan Petrol Pump, Rajgangpur, Odisha 770017, India",
    "VenueCode": "MTAR",
    "VenueName": "Milan Talkies: Rajgangpur"
  },
  "MTGG": {
    "AvailableFormats": "2D",
    "City": "Gangavati",
    "Latitude": "15.4327",
    "Longitude": "76.528",
    "RegionCode": "GAVT",
    "State": "Karnataka",
    "SubRegionCode": "GAVT",
    "VenueAddress": "Gandhi Chowk, Vidya Nagar, M.G. Road, Gangavati, Karnataka 583227, India",
    "VenueCode": "MTGG",
    "VenueName": "Mohiuddin Talkies: Gangavati"
  },
  "MTMT": {
    "AvailableFormats": "",
    "City": "Madurai",
    "Latitude": "10.0232",
    "Longitude": "77.9631",
    "RegionCode": "MADU",
    "State": "Tamil Nadu",
    "SubRegionCode": "MADU",
    "VenueAddress": "Sangankottai Road, Sholavandan, Near Railway Junction, Madurai, Tamil Nadu 625214, India",
    "VenueCode": "MTMT",
    "VenueName": "MVM MARUDHU MODERN THEATER A/C 2K 3D"
  },
  "MTVT": {
    "AvailableFormats": "2D",
    "City": "Theni",
    "Latitude": "10.0014",
    "Longitude": "77.6283",
    "RegionCode": "THEN",
    "State": "Tamil Nadu",
    "SubRegionCode": "THEN",
    "VenueAddress": "Theni Highway, Kondamanaickanpatty, Theni, Tamil Nadu 624225, India",
    "VenueCode": "MTVT",
    "VenueName": "MSP Theatre(VBL Theatre) A/C 7.1: Andipatti"
  },
  "MUTJ": {
    "AvailableFormats": "2D",
    "City": "Jammikunta",
    "Latitude": "18.2907",
    "Longitude": "79.47",
    "RegionCode": "JMKN",
    "State": "Telangana",
    "SubRegionCode": "JMKN",
    "VenueAddress": "Girls High School Road, Near Vasavi Kanyaka Parameswari, Jammikunta, Telangana 505122, India",
    "VenueCode": "MUTJ",
    "VenueName": "Murali Deluxe Theatre: Jammikunta"
  },
  "MXCS": {
    "AvailableFormats": "2D|3D",
    "City": "Greater Noida",
    "Latitude": "28.458",
    "Longitude": "77.5281",
    "RegionCode": "NCR",
    "State": "NCR",
    "SubRegionCode": "GRET",
    "VenueAddress": "MSX CINEMA, 3rd Floor, Sec-19, Block F, Industrial Area, Greater Noida, NCR 201310, India",
    "VenueCode": "MXCS",
    "VenueName": "MSX Cinemas: Greater Noida"
  },
  "MYCT": {
    "AvailableFormats": "2D",
    "City": "Thalayolaparambu",
    "Latitude": "9.78555",
    "Longitude": "76.4529",
    "RegionCode": "THAL",
    "State": "Kerala",
    "SubRegionCode": "THAL",
    "VenueAddress": "Thalayolaparambu P.O,Kottayam, Ernakulam Road, Ernakulam Road, Near Bharat Petrol Pump, Thalayolaparambu, Kerala 686605, India",
    "VenueCode": "MYCT",
    "VenueName": "MY Cinemas: Thalayolaparambu, Kerala"
  },
  "NACS": {
    "AvailableFormats": "2D",
    "City": "Korba",
    "Latitude": "22.3606",
    "Longitude": "82.7256",
    "RegionCode": "KRBA",
    "State": "Chhattisgarh",
    "SubRegionCode": "KRBA",
    "VenueAddress": "Ghantaghar Niharika Road, Subhash Chowk, Near New Madhu Sweets, M P Nagar, Korba, Chhattisgarh 495677, India",
    "VenueCode": "NACS",
    "VenueName": "Niharika Cinema 2K Laser & Dolby 7.1 Sound: Korba"
  },
  "NCCW": {
    "AvailableFormats": "2D",
    "City": "Wai",
    "Latitude": "17.9525",
    "Longitude": "73.8873",
    "RegionCode": "WAIP",
    "State": "Maharashtra",
    "SubRegionCode": "WAIP",
    "VenueAddress": "Chota Pul, Gangapuri Road, Danebazar, Ganpati Ali, Wai, Maharashtra 412803, India",
    "VenueCode": "NCCW",
    "VenueName": "New Chitra Cinema: Wai"
  },
  "NCMD": {
    "AvailableFormats": "2D",
    "City": "Doraha",
    "Latitude": "30.7867",
    "Longitude": "76.0467",
    "RegionCode": "DORH",
    "State": "Punjab",
    "SubRegionCode": "DORH",
    "VenueAddress": "West View Plaza, GT Road, Doraha, Near Mcdonalds, Doraha, Punjab 141421, India",
    "VenueCode": "NCMD",
    "VenueName": "Nova Cinemaz: Doraha"
  },
  "NEDD": {
    "AvailableFormats": "2D",
    "City": "Dehradun",
    "Latitude": "30.3265",
    "Longitude": "78.0434",
    "RegionCode": "DEH",
    "State": "Uttarakhand",
    "SubRegionCode": "DEH",
    "VenueAddress": "Rajpur Road, Gandhi Park, Chukkuwala, Near Police Station, Dehradun, Uttarakhand 248001, India",
    "VenueCode": "NEDD",
    "VenueName": "FUN Cinemas New Empire: Dehradun"
  },
  "NKCP": {
    "AvailableFormats": "2D",
    "City": "Jodhpur",
    "Latitude": "26.2772",
    "Longitude": "72.9952",
    "RegionCode": "JODH",
    "State": "Rajasthan",
    "SubRegionCode": "JODH",
    "VenueAddress": "6th Upper Chopasni Road, Akhaliya Vikas Yojana, Choraha, Jodhpur, Rajasthan 342001, India",
    "VenueCode": "NKCP",
    "VenueName": "New Kohinoor Cinema: Jodhpur"
  },
  "NNCZ": {
    "AvailableFormats": "2D",
    "City": "Moga",
    "Latitude": "30.8191",
    "Longitude": "75.2143",
    "RegionCode": "MOGA",
    "State": "Punjab",
    "SubRegionCode": "MOGA",
    "VenueAddress": "Kartar Nagar, G.T Road, Moga - Ludhiana Road, Near Bugipura Chowk, Moga, Punjab 142001, India",
    "VenueCode": "NNCZ",
    "VenueName": "Neelam Nova Cinemaz: Moga"
  },
  "NRMS": {
    "AvailableFormats": "2D",
    "City": "Solapur",
    "Latitude": "17.6353",
    "Longitude": "75.9043",
    "RegionCode": "SOLA",
    "State": "Maharashtra",
    "SubRegionCode": "SOLA",
    "VenueAddress": "Plot No 44, Vishal Nagar, Jule, Solapur, Maharashtra 413001, India",
    "VenueCode": "NRMS",
    "VenueName": "R Miniplex (A.C): Solapur"
  },
  "NTCD": {
    "AvailableFormats": "2D",
    "City": "Dehradun",
    "Latitude": "30.3266",
    "Longitude": "78.0357",
    "RegionCode": "DEH",
    "State": "Uttarakhand",
    "SubRegionCode": "DEH",
    "VenueAddress": "Chakarata Road, Old Connaught Place, Dehradun, Uttarakhand 248001, India",
    "VenueCode": "NTCD",
    "VenueName": "Natraj Cinema: Dehradun"
  },
  "NTTR": {
    "AvailableFormats": "2D",
    "City": "Kochi",
    "Latitude": "9.93296",
    "Longitude": "76.3541",
    "RegionCode": "PALY",
    "State": "Kerala",
    "SubRegionCode": "PALY",
    "VenueAddress": "New Central Talkies, Vaikom Road, Near Kinar junction, Kochi, Kerala 682301, India",
    "VenueCode": "NTTR",
    "VenueName": "New Central Talkies Dolby Atmos 2K and 3D: Thripun"
  },
  "NWCB": {
    "AvailableFormats": "2D",
    "City": "Cooch Behar",
    "Latitude": "26.3159",
    "Longitude": "89.4491",
    "RegionCode": "COBE",
    "State": "West Bengal",
    "SubRegionCode": "COBE",
    "VenueAddress": "Bang Chatra Road, New Town, Near Bangchatra Sub Post Office, Cooch Behar, West Bengal 736101, India",
    "VenueCode": "NWCB",
    "VenueName": "New Cinema: Cooch Behar"
  },
  "NYCS": {
    "AvailableFormats": "2D",
    "City": "Bhuj",
    "Latitude": "23.2563",
    "Longitude": "69.6411",
    "RegionCode": "BHUJ",
    "State": "Gujarat",
    "SubRegionCode": "BHUJ",
    "VenueAddress": "Seven Sky, Air Port Road, Bhuj, Gujarat 370001, India",
    "VenueCode": "NYCS",
    "VenueName": "NY Cinemas: Seven Sky, Bhuj"
  },
  "OCUR": {
    "AvailableFormats": "2D",
    "City": "Valsad",
    "Latitude": "20.5415",
    "Longitude": "72.9106",
    "RegionCode": "VLSD",
    "State": "Gujarat",
    "SubRegionCode": "VLSD",
    "VenueAddress": "Unique Resort and Lifestyle, Bhagod, Near to manav trust, Valsad, Gujarat 396001, India",
    "VenueCode": "OCUR",
    "VenueName": "Opera Cinema: Unique Resort & Lifestyle"
  },
  "OPCN": {
    "AvailableFormats": "2D",
    "City": "Nagaon",
    "Latitude": "26.309",
    "Longitude": "92.7038",
    "RegionCode": "NAAM",
    "State": "Assam",
    "SubRegionCode": "NAAM",
    "VenueAddress": "P G Enterprise, Siwale khuwa, Borghat Bypass,Borghat, Nagaon, Assam 782003, India",
    "VenueCode": "OPCN",
    "VenueName": "Opera Cinemas: Nagaon"
  },
  "PADY": {
    "AvailableFormats": "2D",
    "City": "Muniguda",
    "Latitude": "19.6264",
    "Longitude": "83.5003",
    "RegionCode": "MUNI",
    "State": "Odisha",
    "SubRegionCode": "MUNI",
    "VenueAddress": "SH 5, Jaga Colony, Bhairabagad Road, Muniguda, Odisha 765020, India",
    "VenueCode": "PADY",
    "VenueName": "Padmalaya Theatre: Muniguda"
  },
  "PBLL": {
    "AvailableFormats": "2D|3D",
    "City": "Faridabad",
    "Latitude": "28.388",
    "Longitude": "77.3215",
    "RegionCode": "NCR",
    "State": "NCR",
    "SubRegionCode": "FARI",
    "VenueAddress": "4th Floor, Pebble Down Town Mall, Sector 12, Faridabad, NCR 121007, India",
    "VenueCode": "PBLL",
    "VenueName": "PVR: Pebble Downtown Sec-12, Faridabad"
  },
  "PCBB": {
    "AvailableFormats": "",
    "City": "Biaora",
    "Latitude": "23.9174",
    "Longitude": "76.9178",
    "RegionCode": "BIAR",
    "State": "Madhya Pradesh",
    "SubRegionCode": "BIAR",
    "VenueAddress": "Puneet Movie Max Cinema, Old Suthaliya Road, Biaora (Rajgarh), Biaora, Madhya Pradesh 465674, India",
    "VenueCode": "PCBB",
    "VenueName": "Punit Movie Max (AC): Biaora"
  },
  "PCIN": {
    "AvailableFormats": "2D",
    "City": "Champa",
    "Latitude": "22.0336",
    "Longitude": "82.6481",
    "RegionCode": "CHAM",
    "State": "Chhattisgarh",
    "SubRegionCode": "CHAM",
    "VenueAddress": "Station Road, Korva Para, Near Anupam Plaza, Champa, Chhattisgarh 495671, India",
    "VenueCode": "PCIN",
    "VenueName": "Padmini Multiplex: Champa"
  },
  "PCMM": {
    "AvailableFormats": "2D|3D",
    "City": "Mumbai",
    "Latitude": "19.4066",
    "Longitude": "72.8224",
    "RegionCode": "MUMBAI",
    "State": "Maharashtra",
    "SubRegionCode": "MWEST",
    "VenueAddress": "PVR Cinemas, The Capital Mall Off New Link Road Village, Achole Road, Nalasopara East, Mumbai, Maharashtra 401209, India",
    "VenueCode": "PCMM",
    "VenueName": "PVR: The Capital Mall, Nalasopara (E)"
  },
  "PCRA": {
    "AvailableFormats": "2D",
    "City": "Kolkata",
    "Latitude": "22.518",
    "Longitude": "88.3543",
    "RegionCode": "KOLK",
    "State": "West Bengal",
    "SubRegionCode": "KOLK",
    "VenueAddress": "Building No. 95, Rash Behari Avenue, Manoharpukur, Kalighat, Opposite State Bank Of India, Kolkata, West Bengal 700029, India",
    "VenueCode": "PCRA",
    "VenueName": "Priya Cinema: Rashbehari Avenue"
  },
  "PCXD": {
    "AvailableFormats": "2D",
    "City": "Dabra",
    "Latitude": "25.8839",
    "Longitude": "78.3284",
    "RegionCode": "DABR",
    "State": "Madhya Pradesh",
    "SubRegionCode": "DABR",
    "VenueAddress": "Jawahar Ganj, Gurudwara Road, Dabra, Madhya Pradesh 475110, India",
    "VenueCode": "PCXD",
    "VenueName": "Prakash Cineplex: Dabra"
  },
  "PDIV": {
    "AvailableFormats": "2D|3D",
    "City": "Delhi",
    "Latitude": "28.639",
    "Longitude": "77.0745",
    "RegionCode": "NCR",
    "State": "NCR",
    "SubRegionCode": "DELHI",
    "VenueAddress": "G-1, Community Centre, Virjanand Marg, Vikaspuri, Near State Bank Of India, Delhi, NCR 110018, India",
    "VenueCode": "PDIV",
    "VenueName": "PVR: Vikaspuri, Delhi"
  },
  "PECP": {
    "AvailableFormats": "2D|3D|4DX|4DX 3D",
    "City": "Chandigarh",
    "Latitude": "30.7049",
    "Longitude": "76.8021",
    "RegionCode": "CHD",
    "State": "Punjab",
    "SubRegionCode": "CHD",
    "VenueAddress": "Plot No 178-178 A, 3rd Floor, Elante Mall, Industrial Area Phase I, Chandigarh, Punjab 160002, India",
    "VenueCode": "PECP",
    "VenueName": "PVR: Elante, Chandigarh"
  },
  "PFMR": {
    "AvailableFormats": "2D|3D",
    "City": "Rourkela",
    "Latitude": "22.2248",
    "Longitude": "84.8197",
    "RegionCode": "RKOR",
    "State": "Odisha",
    "SubRegionCode": "RKOR",
    "VenueAddress": "5th Floor, Forum Galleria Mall, Y-6, Raghunathpalli, Civil Township, Rourkela, Odisha 769004, India",
    "VenueCode": "PFMR",
    "VenueName": "PVR: Forum Mall, Rourkela"
  },
  "PGRC": {
    "AvailableFormats": "2D",
    "City": "Tirupati",
    "Latitude": "13.6296",
    "Longitude": "79.4245",
    "RegionCode": "TIRU",
    "State": "Andhra Pradesh",
    "SubRegionCode": "TIRU",
    "VenueAddress": "Tata Nagar, Near Mahatma Gandhi Junction, Tirupati, Andhra Pradesh 517501, India",
    "VenueCode": "PGRC",
    "VenueName": "PGR Cinemas A/C 4K Dolby Atmos: Tirupati"
  },
  "PICT": {
    "AvailableFormats": "2D",
    "City": "Chetpet",
    "Latitude": "12.4657",
    "Longitude": "79.3512",
    "RegionCode": "PPPT",
    "State": "Tamil Nadu",
    "SubRegionCode": "PPPT",
    "VenueAddress": "State Highway 4, Mariamman Koil Street, Chetpet, Tamil Nadu 606801, India",
    "VenueCode": "PICT",
    "VenueName": "Padmavathi Cinema A/C DTS 7.2: Chetpet"
  },
  "PJMB": {
    "AvailableFormats": "2D",
    "City": "Barbil",
    "Latitude": "22.0998",
    "Longitude": "85.3849",
    "RegionCode": "BABR",
    "State": "Odisha",
    "SubRegionCode": "BABR",
    "VenueAddress": "Gandhi Chowk, Behind Cinema Theater, Barbil, Odisha 758035, India",
    "VenueCode": "PJMB",
    "VenueName": "PJ Movies: Barbil, Odisha"
  },
  "PKKT": {
    "AvailableFormats": "2D",
    "City": "Trivandrum",
    "Latitude": "8.48714",
    "Longitude": "76.9486",
    "RegionCode": "VKAL",
    "State": "Kerala",
    "SubRegionCode": "VKAL",
    "VenueAddress": "Over Bridge, Mahathma Gandhi Road, Chalai Bazaar, Thiruvananthapuram, Trivandrum, Kerala 695036, India",
    "VenueCode": "PKKT",
    "VenueName": "PVR: Kripa, Thampanoor Trivandrum"
  },
  "PLTT": {
    "AvailableFormats": "2D",
    "City": "Trichy",
    "Latitude": "10.8151",
    "Longitude": "78.6933",
    "RegionCode": "TRIC",
    "State": "Tamil Nadu",
    "SubRegionCode": "TRIC",
    "VenueAddress": "162, Madurai Road, Palakarai, Sangillyandapuram, Opposite Inspector of Matriculation Schools, Education Office, Trichy, Tamil Nadu 620008, India",
    "VenueCode": "PLTT",
    "VenueName": "Palace Theatre: Tiruchirappalli"
  },
  "PMBR": {
    "AvailableFormats": "3D|2D",
    "City": "Bengaluru",
    "Latitude": "13.0557",
    "Longitude": "77.7637",
    "RegionCode": "HOKT",
    "State": "Karnataka",
    "SubRegionCode": "HOKT",
    "VenueAddress": "Orion Uptown Mall, 2nd Floor, Survey No. 49-51, Huskar Village, Bidarahalli Hobli, Kattamnallur, Sanntammanahalli, Bengaluru, Karnataka 560049, India",
    "VenueCode": "PMBR",
    "VenueName": "PVR: Orion Uptown, Old Madras Road, Bengaluru"
  },
  "PMMI": {
    "AvailableFormats": "2D|3D",
    "City": "Chandigarh",
    "Latitude": "30.6787",
    "Longitude": "76.7223",
    "RegionCode": "CHD",
    "State": "Punjab",
    "SubRegionCode": "CHD",
    "VenueAddress": "2nd Floor CP67 Mall, Sector 67, Sahibzada Ajit Singh Nagar, Chandigarh, Punjab 160062, India",
    "VenueCode": "PMMI",
    "VenueName": "PVR: CP67 Mall, Mohali"
  },
  "PMSJ": {
    "AvailableFormats": "2D",
    "City": "Jammu",
    "Latitude": "32.7288",
    "Longitude": "74.8471",
    "RegionCode": "JAMM",
    "State": "Jammu and Kashmir",
    "SubRegionCode": "JAMM",
    "VenueAddress": "3rd Floor, Palm Island Mall, Canal Road, Jammu, Jammu and Kashmir 180016, India",
    "VenueCode": "PMSJ",
    "VenueName": "Platinum Movietime SPA: Palm Island Mall, Jammu"
  },
  "PNSM": {
    "AvailableFormats": "2D|3D",
    "City": "Mysuru (Mysore)",
    "Latitude": "12.3187",
    "Longitude": "76.6655",
    "RegionCode": "MYS",
    "State": "Karnataka",
    "SubRegionCode": "MYS",
    "VenueAddress": "3rd Floor, Hyderali Road, Mysuru (Mysore), Karnataka 570010, India",
    "VenueCode": "PNSM",
    "VenueName": "PVR: Nexus Mall Centre City, Mysuru"
  },
  "PPAK": {
    "AvailableFormats": "2D",
    "City": "Kollam",
    "Latitude": "8.90595",
    "Longitude": "76.6233",
    "RegionCode": "KOLM",
    "State": "Kerala",
    "SubRegionCode": "KOLM",
    "VenueAddress": "National Highway 744, Karicode, Peroor, Kottamkara, Kerala, Kollam, Kerala 691005, India",
    "VenueCode": "PPAK",
    "VenueName": "Partha Movie Houses 4K ATMOS"
  },
  "PPMN": {
    "AvailableFormats": "2D|3D",
    "City": "Moradabad",
    "Latitude": "28.8792",
    "Longitude": "78.7397",
    "RegionCode": "MORA",
    "State": "Uttar Pradesh",
    "SubRegionCode": "MORA",
    "VenueAddress": "Parshvnath Mall, V.C. Road, Ashiyana Colony, Moradabad, Uttar Pradesh 244001, India",
    "VenueCode": "PPMN",
    "VenueName": "PVR: Parshvanath, Moradabad"
  },
  "PRAA": {
    "AvailableFormats": "2D",
    "City": "Bareilly",
    "Latitude": "28.3475",
    "Longitude": "79.4246",
    "RegionCode": "BARE",
    "State": "Uttar Pradesh",
    "SubRegionCode": "BARE",
    "VenueAddress": "110 Civil Lines, NH 24, Opposite Indian Oil Petrol Pump, Bareilly, Uttar Pradesh 243001, India",
    "VenueCode": "PRAA",
    "VenueName": "Prabha Theatre (Newly Renovated): Bareilly"
  },
  "PRDC": {
    "AvailableFormats": "2D",
    "City": "Dasuya",
    "Latitude": "31.8225",
    "Longitude": "75.6601",
    "RegionCode": "DASU",
    "State": "Punjab",
    "SubRegionCode": "DASU",
    "VenueAddress": "Adarsh Nagar, GT Road, Dasuya, Punjab 144205, India",
    "VenueCode": "PRDC",
    "VenueName": "President Cinema: Dasuya"
  },
  "PRMC": {
    "AvailableFormats": "2D",
    "City": "Kollam",
    "Latitude": "8.88456",
    "Longitude": "76.5948",
    "RegionCode": "KOLM",
    "State": "Kerala",
    "SubRegionCode": "KOLM",
    "VenueAddress": "Karbala, YMCA Road, Near Cantonment Post Office, Kollam, Kerala 691001, India",
    "VenueCode": "PRMC",
    "VenueName": "Pranavam A/C Cinemas 4K: Kollam"
  },
  "PRVT": {
    "AvailableFormats": "2D",
    "City": "Bhattiprolu",
    "Latitude": "16.1016",
    "Longitude": "80.7836",
    "RegionCode": "BATT",
    "State": "Andhra Pradesh",
    "SubRegionCode": "BATT",
    "VenueAddress": "Temple Road, Near Ramaguptha Kalyana Mandapam, Bhattiprolu, Andhra Pradesh 522256, India",
    "VenueCode": "PRVT",
    "VenueName": "Parvathi Talkies A/C: Bhattiprolu"
  },
  "PSMG": {
    "AvailableFormats": "2D|3D",
    "City": "Sri Ganganagar",
    "Latitude": "29.8935",
    "Longitude": "73.8966",
    "RegionCode": "SRIG",
    "State": "Rajasthan",
    "SubRegionCode": "SRIG",
    "VenueAddress": "4TH Floor Ridhi Sidhi Mall, Ridhi Sidhi Enclave Hanumangrah Road, Sri Ganganagar, Rajasthan 335001, India",
    "VenueCode": "PSMG",
    "VenueName": "PVR: Ridhi Sidhi Mall, Sri Ganganagar"
  },
  "PSUS": {
    "AvailableFormats": "2D",
    "City": "Sagwara",
    "Latitude": "23.6672",
    "Longitude": "74.0265",
    "RegionCode": "SAGA",
    "State": "Rajasthan",
    "SubRegionCode": "SAGA",
    "VenueAddress": "Surbhi Shopping Mall, Krishna Nagar, Sagwara, Rajasthan 314025, India",
    "VenueCode": "PSUS",
    "VenueName": "PM Cinema (Surbhi-1): Sagwara"
  },
  "PTCV": {
    "AvailableFormats": "2D|3D",
    "City": "Vadodara",
    "Latitude": "22.3133",
    "Longitude": "73.1813",
    "RegionCode": "VAD",
    "State": "Gujarat",
    "SubRegionCode": "VAD",
    "VenueAddress": "3rd floor, VED trans CUBE Plaza, Vadodara Central Bus terminal, K. J. Patel marg, Opp. Main Railway station, Opp. Main Railway station, Vadodara, Gujarat 390005, India",
    "VenueCode": "PTCV",
    "VenueName": "PVR: TransCube, Vadodara"
  },
  "PTKL": {
    "AvailableFormats": "2D",
    "City": "Koilkuntla",
    "Latitude": "15.2275",
    "Longitude": "78.3189",
    "RegionCode": "KOIL",
    "State": "Andhra Pradesh",
    "SubRegionCode": "KOIL",
    "VenueAddress": "Guddeti Street, RTC Road, Seetharama Nagar, Koilkuntla, Andhra Pradesh 518134, India",
    "VenueCode": "PTKL",
    "VenueName": "Panduranga Talkies: Koilkuntla"
  },
  "PUNB": {
    "AvailableFormats": "3D|2D|4DX",
    "City": "Pune",
    "Latitude": "18.5196",
    "Longitude": "73.9314",
    "RegionCode": "PUNE",
    "State": "Maharashtra",
    "SubRegionCode": "PUNE",
    "VenueAddress": "3rd Floor, Seasons Mall, Magarpatta Police Station Road, Magarpatta City, Hadapsar, Pune, Maharashtra 411028, India",
    "VenueCode": "PUNB",
    "VenueName": "Cinepolis: Seasons Mall, Pune"
  },
  "PVCS": {
    "AvailableFormats": "2D|3D",
    "City": "Ludhiana",
    "Latitude": "30.8942",
    "Longitude": "75.8239",
    "RegionCode": "LUDH",
    "State": "Punjab",
    "SubRegionCode": "LUDH",
    "VenueAddress": "755, 3rd Floor, Flamez Mall, 755 Gurudev Nagar, Ferozepur Road, Gurudev Nagar, Ludhiana, Punjab 141002, India",
    "VenueCode": "PVCS",
    "VenueName": "PVR: Avon City Mall, Ludhiana"
  },
  "PVHM": {
    "AvailableFormats": "2D|3D",
    "City": "Hyderabad",
    "Latitude": "17.4479",
    "Longitude": "78.3845",
    "RegionCode": "HYD",
    "State": "Telangana",
    "SubRegionCode": "HYD",
    "VenueAddress": "4th Floor, Next Galleria Mall, Sy. No. 64, Hitech City, Madhapur, Jaihind Enclave, Serilingampally, Hyderabad, Telangana 500081, India",
    "VenueCode": "PVHM",
    "VenueName": "PVR ICON: Hitech, Madhapur, Hyderabad"
  },
  "PVMF": {
    "AvailableFormats": "2D|3D",
    "City": "Kochi",
    "Latitude": "9.94413",
    "Longitude": "76.3177",
    "RegionCode": "KOCH",
    "State": "Kerala",
    "SubRegionCode": "KOCH",
    "VenueAddress": "3rd Floor, Forum Mall, NH-47, Vytilla Aroor Bypass, Near - Kundannur Junction, Maradu, Kochi, Kerala 682304, India",
    "VenueCode": "PVMF",
    "VenueName": "PVR: Forum Mall, Kochi"
  },
  "PVPU": {
    "AvailableFormats": "IMAX 2D",
    "City": "Delhi",
    "Latitude": "28.5574",
    "Longitude": "77.1644",
    "RegionCode": "NCR",
    "State": "NCR",
    "SubRegionCode": "DELHI",
    "VenueAddress": "61, Community Centre, Basant Lok, Vasant Vihar, Near Guru Harkrishan Public School, Delhi, NCR 110057, India",
    "VenueCode": "PVPU",
    "VenueName": "PVR IMAX with Laser, Priya: Delhi"
  },
  "PVVB": {
    "AvailableFormats": "2D",
    "City": "Panipat",
    "Latitude": "29.4104",
    "Longitude": "76.9682",
    "RegionCode": "PAN",
    "State": "Haryana",
    "SubRegionCode": "PAN",
    "VenueAddress": "Sector - 6, HUDA, Fun City Mall, Panipat, Haryana 132103, India",
    "VenueCode": "PVVB",
    "VenueName": "PVR: Fun City, Panipat"
  },
  "PYCP": {
    "AvailableFormats": "2D",
    "City": "Theni",
    "Latitude": "10.1165",
    "Longitude": "77.5464",
    "RegionCode": "THEN",
    "State": "Tamil Nadu",
    "SubRegionCode": "THEN",
    "VenueAddress": "No 38, Cumbum Road, Near Lakshmi Hospital, Theni, Tamil Nadu 625601, India",
    "VenueCode": "PYCP",
    "VenueName": "Parvathy Cinemas Dolby Atmos: Periyakulam"
  },
  "RACN": {
    "AvailableFormats": "3D|2D",
    "City": "Nellore",
    "Latitude": "14.4339",
    "Longitude": "79.9681",
    "RegionCode": "NELL",
    "State": "Andhra Pradesh",
    "SubRegionCode": "NELL",
    "VenueAddress": "Rain Square, Ambedkar Nagar, Dargamitta, Nellore, Andhra Pradesh 524003, India",
    "VenueCode": "RACN",
    "VenueName": "Rain Cinema: Nellore"
  },
  "RAMU": {
    "AvailableFormats": "2D",
    "City": "Karanja Lad",
    "Latitude": "20.4777",
    "Longitude": "77.4556",
    "RegionCode": "KLAD",
    "State": "Maharashtra",
    "SubRegionCode": "KLAD",
    "VenueAddress": "Near Ramayan Hotel, Sambhaji Chowk, Nagpur Aurangabad Highway, Karanja Lad, Maharashtra 444105, India",
    "VenueCode": "RAMU",
    "VenueName": "Ramrajya Cineplex: Karanja Lad"
  },
  "RAVE": {
    "AvailableFormats": "2D",
    "City": "Kanpur",
    "Latitude": "26.4923",
    "Longitude": "80.3275",
    "RegionCode": "KANP",
    "State": "Uttar Pradesh",
    "SubRegionCode": "KANP",
    "VenueAddress": "Plot No. 11, Block, No. 6, Parwati Bagla Road, Permat, Kanpur, Uttar Pradesh 208002, India",
    "VenueCode": "RAVE",
    "VenueName": "Rave 3 AV Cinemas: Kanpur"
  },