{
  "AAAS": {
    "AvailableFormats": "2D|3D",
    "City": "Mumbai",
    "Latitude": "19.2289",
    "Longitude": "72.8542",
    "RegionCode": "MUMBAI",
    "State": "Maharashtra",
    "SubRegionCode": "MWEST",
    "VenueAddress": "4th Floor, Ajanta Square Mall, Lokmanya Tilak Road, Borivali West, Mumbai, Maharashtra 400092, India",
    "VenueCode": "AAAS",
    "VenueName": "Ajanta Cinema Cinex: Borivali (W) Newly Renovated"
  },
  "AADS": {
    "AvailableFormats": "",
    "City": "Kadapa",
    "FirstTracked": "2026-07-14",
    "Latitude": "14.47639",
    "Longitude": "78.83806",
    "RegionCode": "KDPA",
    "State": "Andhra Pradesh",
    "SubRegionCode": "KDPA",
    "VenueAddress": "Kadapa - Tirupati Road, Chinna Chowk, Near Apoorva Wedding Function Hall and Auditorium, Kadapa, Andhra Pradesh 516002, India",
    "VenueCode": "AADS",
    "VenueName": "Apsara A/C 4k Dolby Atmos: Kadapa"
  },
  "AATR": {
    "AvailableFormats": "2D",
    "City": "Erode",
    "Latitude": "11.3326",
    "Longitude": "77.7284",
    "RegionCode": "EROD",
    "State": "Tamil Nadu",
    "SubRegionCode": "EROD",
    "VenueAddress": "Balasubrayalu Street, Surampattivalasu, Near Erode Fire Service, Erode, Tamil Nadu 638001, India",
    "VenueCode": "AATR",
    "VenueName": "Aanoor Theatre A/C Dolby Atmos: Erode"
  },
  "ABDD": {
    "AvailableFormats": "2D|3D",
    "City": "Durgapur",
    "Latitude": "23.5563",
    "Longitude": "87.2745",
    "RegionCode": "DURGA",
    "State": "West Bengal",
    "SubRegionCode": "DURGA",
    "VenueAddress": "Fortune Plaza, 5th Floor, Ananda Gopal Mukherjee Sarani Road, Above Reliance Digital, Near Bhiringi Kali Mandir, Benachity, Durgapur, West Bengal 713213, India",
    "VenueCode": "ABDD",
    "VenueName": "Arti Cinemas, above Pantaloons: Benachity"
  },
  "ACAM": {
    "AvailableFormats": "2D",
    "City": "Ambala",
    "Latitude": "30.3786",
    "Longitude": "76.7636",
    "RegionCode": "AMB",
    "State": "Haryana",
    "SubRegionCode": "AMB",
    "VenueAddress": "City Plaza, 947, Citi Mall, NH 152, Patti Mehar, Ambala, Haryana 134003, India",
    "VenueCode": "ACAM",
    "VenueName": "Ayaan Cinemas: Ambala"
  },
  "ACEV": {
    "AvailableFormats": "2D",
    "City": "Hyderabad",
    "Latitude": "17.338",
    "Longitude": "78.5678",
    "RegionCode": "HYD",
    "State": "Telangana",
    "SubRegionCode": "HYD",
    "VenueAddress": "Door. No.5-5-185 and 5-5-186,Sy.No.53 and 56, 4th Floor, TATTVA MALL, Vanasthalipuram, Saheb Nagar Khurd, Hyderabad, Telangana 500070, India",
    "VenueCode": "ACEV",
    "VenueName": "ART CINEMAS: Vanasthalipuram"
  },
  "ACJC": {
    "AvailableFormats": "",
    "City": "Jalgaon",
    "FirstTracked": "2026-07-14",
    "Latitude": "21.013231",
    "Longitude": "75.56891",
    "RegionCode": "JALG",
    "State": "Maharashtra",
    "SubRegionCode": "JALG",
    "VenueAddress": "Bazaar Post Office Road, Behind Juna Bus Stand, Polan Peth, Shahunagar, Jalgaon, Maharashtra 425001, India",
    "VenueCode": "ACJC",
    "VenueName": "Ashok Cinema: Jalgaon"
  },
  "ACMG": {
    "AvailableFormats": "2D",
    "City": "Maharajganj",
    "Latitude": "27.1334",
    "Longitude": "83.5203",
    "RegionCode": "RAJG",
    "State": "Uttar Pradesh",
    "SubRegionCode": "RAJG",
    "VenueAddress": "Plot No 188, Mahuawa, NPP Maharajganj, Maharajganj, Uttar Pradesh 273303, India",
    "VenueCode": "ACMG",
    "VenueName": "Anant Cineplex: Maharajganj"
  },
  "ACPM": {
    "AvailableFormats": "2D",
    "City": "Hyderabad",
    "Latitude": "17.4676",
    "Longitude": "78.4282",
    "RegionCode": "HYD",
    "State": "Telangana",
    "SubRegionCode": "HYD",
    "VenueAddress": "Street Number 4, SP Nagar, Bharat Nagar,Moosapet, Opposite Sri Ramulu Theatre, Hyderabad, Telangana 500018, India",
    "VenueCode": "ACPM",
    "VenueName": "Asian Lakshmikala Cinepride: Moosapet"
  },
  "ACTV": {
    "AvailableFormats": "2D",
    "City": "Vellore",
    "Latitude": "12.9614",
    "Longitude": "79.1366",
    "RegionCode": "RANI",
    "State": "Tamil Nadu",
    "SubRegionCode": "RANI",
    "VenueAddress": "No 372, Bharathi Nagar, Bharathi Nagar, Katpadi, Vellore, Opposite Indian Overseas Bank, Vellore, Tamil Nadu 632007, India",
    "VenueCode": "ACTV",
    "VenueName": "AASCARS CINEMAS 4K DOLBY 7.1"
  },
  "ACXN": {
    "AvailableFormats": "2D",
    "City": "Nellimoodu",
    "Latitude": "8.38241",
    "Longitude": "77.04",
    "RegionCode": "TRIV",
    "State": "Kerala",
    "SubRegionCode": "TRIV",
    "VenueAddress": "Vizhinjam, Uchakkada Road, Nellimoodu, Kerala 695524, India",
    "VenueCode": "ACXN",
    "VenueName": "Anu Cinemax 4K Atmos: Neyyattinkara, Nellimoodu"
  },
  "ADMB": {
    "AvailableFormats": "",
    "City": "Dhule",
    "FirstTracked": "2026-07-14",
    "Latitude": "20.89633",
    "Longitude": "74.775505",
    "RegionCode": "DHLE",
    "State": "Maharashtra",
    "SubRegionCode": "DHLE",
    "VenueAddress": "Opp. Shriram Petrol Pump, Agra Road, Dhule, Maharashtra 424001, India",
    "VenueCode": "ADMB",
    "VenueName": "BIG Cinemas: Manohar, Dhule"
  },
  "AGSM": {
    "AvailableFormats": "2D",
    "City": "Chennai",
    "Latitude": "13.0601",
    "Longitude": "80.1648",
    "RegionCode": "CHEN",
    "State": "Tamil Nadu",
    "SubRegionCode": "CHEN",
    "VenueAddress": "No 3/47, Alapakkam Main Road, Subramaniapuram, Pallavan Nagar, Chennai, Tamil Nadu 600095, India",
    "VenueCode": "AGSM",
    "VenueName": "AGS Cinemas: Maduravoyal"
  },
  "AKCH": {
    "AvailableFormats": "2D",
    "City": "Kollam",
    "Latitude": "8.81261",
    "Longitude": "76.6716",
    "RegionCode": "KOLM",
    "State": "Kerala",
    "SubRegionCode": "KOLM",
    "VenueAddress": "Paravur, North Paravur Road, Near ValluVally Juma Masjid, Kollam, Kerala 691301, India",
    "VenueCode": "AKCH",
    "VenueName": "Ashok Cine House: Paravur"
  },
  "AKTN": {
    "AvailableFormats": "2D",
    "City": "Kanchipuram",
    "Latitude": "12.8313",
    "Longitude": "79.7091",
    "RegionCode": "KNPM",
    "State": "Tamil Nadu",
    "SubRegionCode": "KNPM",
    "VenueAddress": "Ennaikaran, Railway Road, Kanchipuram, Tamil Nadu 631501, India",
    "VenueCode": "AKTN",
    "VenueName": "Aruna Cinemas RGB Laser 4K AC Dolby Atmos"
  },
  "ALPY": {
    "AvailableFormats": "2D",
    "City": "Pipariya",
    "Latitude": "22.7559",
    "Longitude": "78.3562",
    "RegionCode": "PIPY",
    "State": "Madhya Pradesh",
    "SubRegionCode": "PIPY",
    "VenueAddress": "Near Railway Station, Hoshangabad, Pipariya, Madhya Pradesh 461775, India",
    "VenueCode": "ALPY",
    "VenueName": "Alka Talkies: Pipariya"
  },
  "AMCB": {
    "AvailableFormats": "2D",
    "City": "Shahjahanpur",
    "Latitude": "27.8716",
    "Longitude": "79.9081",
    "RegionCode": "SHJH",
    "State": "Uttar Pradesh",
    "SubRegionCode": "SHJH",
    "VenueAddress": "Aligai, Chamkani, Loharo Wala Chauraha Road, Near Tabeer Resort, Shahjahanpur, Uttar Pradesh 242001, India",
    "VenueCode": "AMCB",
    "VenueName": "Amba Cineplex: Shahjahanpur"
  },
  "AMJN": {
    "AvailableFormats": "3D|2D",
    "City": "Nagpur",
    "Latitude": "21.1037",
    "Longitude": "79.0684",
    "RegionCode": "NAGP",
    "State": "Maharashtra",
    "SubRegionCode": "NAGP",
    "VenueAddress": "26 T3, Jaiprakash Nagar Wardha Road, Sita Nagar Somalwara, Inside Jai Prakash Nagar Metro Station, Nagpur, Maharashtra 440025, India",
    "VenueCode": "AMJN",
    "VenueName": "AM Cinema: Jaiprakash Nagar, Nagpur"
  },
  "AMRT": {
    "AvailableFormats": "2D",
    "City": "Bengaluru",
    "Latitude": "13.0124",
    "Longitude": "77.6263",
    "RegionCode": "BANG",
    "State": "Karnataka",
    "SubRegionCode": "BANG",
    "VenueAddress": "No 1075, Near Lingarajpuram Fly Over, Hennur Main Road, St Thomas Town, Bengaluru, Karnataka 560084, India",
    "VenueCode": "AMRT",
    "VenueName": "Amruth Digital 2K A/C Cinema: Lingarajapuram"
  },
  "ANBL": {
    "AvailableFormats": "2D",
    "City": "Bengaluru",
    "Latitude": "12.9754",
    "Longitude": "77.5589",
    "RegionCode": "HOKT",
    "State": "Karnataka",
    "SubRegionCode": "HOKT",
    "VenueAddress": "No-41/45, Magadi Main Road, Mariyappanapalya, Binnipete, Near Maruthi Suzuki Showroom, Bengaluru, Karnataka 560023, India",
    "VenueCode": "ANBL",
    "VenueName": "Anjan Digital 4K A/C Cinema: Magadi Road"
  },
  "ANKU": {
    "AvailableFormats": "",
    "City": "Kruthivennu",
    "FirstTracked": "2026-07-14",
    "Latitude": "16.396284",
    "Longitude": "81.43835",
    "RegionCode": "KRTH",
    "State": "Andhra Pradesh",
    "SubRegionCode": "KRTH",
    "VenueAddress": "Lakshmipuram, Near HP Petrol Pump, Kruthivennu, Andhra Pradesh 521324, India",
    "VenueCode": "ANKU",
    "VenueName": "Anjana Theatre: Kruthivennu"
  },
  "ANTE": {
    "AvailableFormats": "2D",
    "City": "Bengaluru",
    "Latitude": "12.9763",
    "Longitude": "77.5755",
    "RegionCode": "HOKT",
    "State": "Karnataka",
    "SubRegionCode": "HOKT",
    "VenueAddress": "S.C.Road, Majestic Circle, Gandhinagar, Bengaluru, Karnataka 560009, India",
    "VenueCode": "ANTE",
    "VenueName": "Anupama Theatre A/C 4K Dolby: Gandhinagar"
  },
  "APAS": {
    "AvailableFormats": "",
    "City": "Agra",
    "Latitude": "27.1653",
    "Longitude": "78.0149",
    "RegionCode": "AGRA",
    "State": "Uttar Pradesh",
    "SubRegionCode": "AGRA",
    "VenueAddress": "1 Gwalior Road, Baluganj, Agra Cantt, Near Dasaprakash Hotel, Opposite St George`s School, Agra, Uttar Pradesh 282001, India",
    "VenueCode": "APAS",
    "VenueName": "Meher Theatre: Agra (Laser 4K)"
  },
  "APPO": {
    "AvailableFormats": "",
    "City": "Orai",
    "FirstTracked": "2026-07-14",
    "Latitude": "25.997787",
    "Longitude": "79.46234",
    "RegionCode": "ORAI",
    "State": "Uttar Pradesh",
    "SubRegionCode": "ORAI",
    "VenueAddress": "NH 25, New Patel Nagar, Near Busy Beans Cafe, Orai, Uttar Pradesh 285001, India",
    "VenueCode": "APPO",
    "VenueName": "Archana Palace: Orai"
  },
  "APTD": {
    "AvailableFormats": "2D",
    "City": "Durg",
    "Latitude": "21.1963",
    "Longitude": "81.2845",
    "RegionCode": "DURG",
    "State": "Chhattisgarh",
    "SubRegionCode": "DURG",
    "VenueAddress": "Sindhi Colony, Station Road, Guru Nanak Nagar, Durg, Chhattisgarh 491001, India",
    "VenueCode": "APTD",
    "VenueName": "FUN Cinemas Apsara Talkies: Durg"
  },
  "ARCR": {
    "AvailableFormats": "2D",
    "City": "Peravoor",
    "Latitude": "11.9016",
    "Longitude": "75.7307",
    "RegionCode": "PPVR",
    "State": "Kerala",
    "SubRegionCode": "PPVR",
    "VenueAddress": "Iritty Nedumpoil Road, Near Crystal Mall, Peravoor, Kerala 670673, India",
    "VenueCode": "ARCR",
    "VenueName": "Aura Cinemas: Peravoor"
  },
  "ARRS": {
    "AvailableFormats": "2D|3D",
    "City": "Salem",
    "Latitude": "11.6679",
    "Longitude": "78.1342",
    "RegionCode": "SALM",
    "State": "Tamil Nadu",
    "SubRegionCode": "SALM",
    "VenueAddress": "2-94-95, Meyyanoor Bye-pass Road, Meyyanoor, Near Srivari Shopping Mall, Salem, Tamil Nadu 636701, India",
    "VenueCode": "ARRS",
    "VenueName": "ARRS Multiplex 4K Dolby Audio 7.1.2: Salem"
  },
  "ASCO": {
    "AvailableFormats": "2D",
    "City": "Chhindwara",
    "Latitude": "22.1988",
    "Longitude": "78.7585",
    "RegionCode": "CHIN",
    "State": "Madhya Pradesh",
    "SubRegionCode": "CHIN",
    "VenueAddress": "Neelkamal Mall, Ward No. 2, Bhopal Road, Parasia, Chhindwara, Madhya Pradesh 480441, India",
    "VenueCode": "ASCO",
    "VenueName": "Ascon Multiplex: Parasia"
  },
  "ASJY": {
    "AvailableFormats": "2D",
    "City": "Hyderabad",
    "Latitude": "17.5028",
    "Longitude": "78.3122",
    "RegionCode": "HYD",
    "State": "Telangana",
    "SubRegionCode": "HYD",
    "VenueAddress": "Jyothi Nagar, Ashok Nagar, Chanda Nagar, Opposite TVS Motors, Near Brilliant Junior College, Hyderabad, Telangana 502032, India",
    "VenueCode": "ASJY",
    "VenueName": "Asian Jyothi: RC Puram"
  },
  "ASNT": {
    "AvailableFormats": "2D",
    "City": "Adilabad",
    "Latitude": "19.6748",
    "Longitude": "78.5315",
    "RegionCode": "ADIL",
    "State": "Telangana",
    "SubRegionCode": "ADIL",
    "VenueAddress": "Bhuktapur, Near IDBI Bank, Near Hanuman Temple, Adilabad, Telangana 504001, India",
    "VenueCode": "ASNT",
    "VenueName": "Asian Nataraj: Adilabad"
  },
  "ASSR": {
    "AvailableFormats": "2D",
    "City": "Siddipet",
    "Latitude": "18.0987",
    "Longitude": "78.8522",
    "RegionCode": "SDDP",
    "State": "Telangana",
    "SubRegionCode": "SDDP",
    "VenueAddress": "Aphb Colony, Shivaji Nagar, Hyderabad Road, Siddipet, Telangana 502103, India",
    "VenueCode": "ASSR",
    "VenueName": "Asian Srinivasa Deluxe: Siddipet"
  },
  "ASWT": {
    "AvailableFormats": "2D",
    "City": "Peringamala",
    "Latitude": "8.4146",
    "Longitude": "77.0184",
    "RegionCode": "TRIV",
    "State": "Kerala",
    "SubRegionCode": "TRIV",
    "VenueAddress": "C279+R9J, Pallichal, Vizhinjam Road, Pullannimukku, Peringamala, Kerala 695523, India",
    "VenueCode": "ASWT",
    "VenueName": "Aswathy Cineplus: Peringamala"
  },
  "ATGN": {
    "AvailableFormats": "2D",
    "City": "Bengaluru",
    "Latitude": "12.9737",
    "Longitude": "77.5776",
    "RegionCode": "HOKT",
    "State": "Karnataka",
    "SubRegionCode": "HOKT",
    "VenueAddress": "B.V.K. Ayengar Road, Gandhi Nagar, Near TNB Bank, Bengaluru, Karnataka 560009, India",
    "VenueCode": "ATGN",
    "VenueName": "Abhinay Theatre 4K A/C: Gandhinagar"
  },
  "ATPK": {
    "AvailableFormats": "2D",
    "City": "Palakkad",
    "Latitude": "10.7772",
    "Longitude": "76.6532",
    "RegionCode": "PLKK",
    "State": "Kerala",
    "SubRegionCode": "PLKK",
    "VenueAddress": "Priyadarshini Road, Sultanpet, Near Apex Residence, Palakkad, Kerala 678001, India",
    "VenueCode": "ATPK",
    "VenueName": "Aroma Theatre: Palakkad"
  },
  "ATYY": {
    "AvailableFormats": "",
    "City": "Kottayam",
    "FirstTracked": "2026-07-14",
    "Latitude": "9.586128",
    "Longitude": "76.52411",
    "RegionCode": "KTYM",
    "State": "Kerala",
    "SubRegionCode": "KTYM",
    "VenueAddress": "TB Road, Eerayil Kadavu, Near Asha Theatre, Kottayam, Kerala 686001, India",
    "VenueCode": "ATYY",
    "VenueName": "Anand Theatre Triple Beam 3D: Kottayam"
  },
  "AVDM": {
    "AvailableFormats": "2D",
    "City": "Mahbubnagar",
    "Latitude": "16.7451",
    "Longitude": "77.9918",
    "RegionCode": "JADC",
    "State": "Telangana",
    "SubRegionCode": "JADC",
    "VenueAddress": "Shah Saheb Gutta, Boyapalle Rural, Near Sri Hanuman Temple, Mahbubnagar, Telangana 509001, India",
    "VenueCode": "AVDM",
    "VenueName": "AVD Cinemas: Mahbubnagar"
  },
  "AXMC": {
    "AvailableFormats": "2D",
    "City": "Muvattupuzha",
    "Latitude": "9.98175",
    "Longitude": "76.5787",
    "RegionCode": "MUVA",
    "State": "Kerala",
    "SubRegionCode": "MUVA",
    "VenueAddress": "3rd Floor Grand Centre Mall, Thottumkalpeedika, Muvattupuzha, Kerala 686661, India",
    "VenueCode": "AXMC",
    "VenueName": "Aashirvad Cineplexx, GrandCentreMall: Muvattupuzha"
  },
  "BACS": {
    "AvailableFormats": "2D",
    "City": "Surat",
    "Latitude": "21.214",
    "Longitude": "72.8219",
    "RegionCode": "SURT",
    "State": "Gujarat",
    "SubRegionCode": "SURT",
    "VenueAddress": "72-78, Ved Road, Opposite Ramji Nagar Society, Fatakdawadi, Pandol, Industrial Estate, Katargam, Surat, Gujarat 395004, India",
    "VenueCode": "BACS",
    "VenueName": "Bajrang Cinema: Surat"
  },
  "BATG": {
    "AvailableFormats": "2D",
    "City": "Pondicherry",
    "Latitude": "11.9378",
    "Longitude": "79.8199",
    "RegionCode": "AURV",
    "State": "Tamil Nadu",
    "SubRegionCode": "AURV",
    "VenueAddress": "118,Brindavanam, Kamaraj Salai, Near Thanthai Periyar Statue, Pondicherry, Tamil Nadu 605013, India",
    "VenueCode": "BATG",
    "VenueName": "Balaji Theatre 70MM: Pondicherry"
  },
  "BCBA": {
    "AvailableFormats": "2D",
    "City": "Berachampa",
    "Latitude": "22.6934",
    "Longitude": "88.7022",
    "RegionCode": "BRAC",
    "State": "West Bengal",
    "SubRegionCode": "BRAC",
    "VenueAddress": "Berachampa, Taki Road, 24 PGS (N), Berachampa, West Bengal 743424, India",
    "VenueCode": "BCBA",
    "VenueName": "Banirupa Cinema: Berachampa"
  },
  "BDRB": {
    "AvailableFormats": "2D",
    "City": "Bhuvanagiri",
    "Latitude": "17.5106",
    "Longitude": "78.8893",
    "RegionCode": "BHUV",
    "State": "Telangana",
    "SubRegionCode": "BHUV",
    "VenueAddress": "Bhuvanagiri - Nalgonda Road, Bharpet, Bhuvanagiri, Telangana 508116, India",
    "VenueCode": "BDRB",
    "VenueName": "Badradri Theatre: Bhuvanagiri"
  },
  "BHEL": {
    "AvailableFormats": "2D",
    "City": "Trichy",
    "Latitude": "10.7695",
    "Longitude": "78.7974",
    "RegionCode": "TRIC",
    "State": "Tamil Nadu",
    "SubRegionCode": "TRIC",
    "VenueAddress": "Kamarajapuram BHEL Township, BHEL Tiruchirappali Complex area,Thiruverumbur,Trichy, Near BHEL Training Center, Trichy, Tamil Nadu 620022, India",
    "VenueCode": "BHEL",
    "VenueName": "BHELEC Cinema A/C Dolby 7.1: Trichy"
  },
  "BINT": {
    "AvailableFormats": "2D",
    "City": "Dubrajpur",
    "Latitude": "23.797",
    "Longitude": "87.3776",
    "RegionCode": "DUBR",
    "State": "West Bengal",
    "SubRegionCode": "DUBR",
    "VenueAddress": "Bharat Mata Sangha Road, Birbhum, Near S.J Electronics, Dubrajpur, West Bengal 731132, India",
    "VenueCode": "BINT",
    "VenueName": "Binapani Talkies: Dubrajpur"
  },
  "BKMV": {
    "AvailableFormats": "",
    "City": "Hyderabad",
    "FirstTracked": "2026-07-14",
    "Latitude": "17.343603",
    "Longitude": "78.554214",
    "RegionCode": "AUSH",
    "State": "Telangana",
    "SubRegionCode": "AUSH",
    "VenueAddress": "Gunti Jangaiah Nagar, LB Nagar, Raghavendra Nagar Colony, Opposite Bank Of India, Hyderabad, Telangana 500074, India",
    "VenueCode": "BKMV",
    "VenueName": "BVK Multiplex Vijayalakshmi: LB Nagar"
  },
  "BLMX": {
    "AvailableFormats": "2D",
    "City": "Vadodara",
    "Latitude": "22.3035",
    "Longitude": "73.1383",
    "RegionCode": "ANKV",
    "State": "Gujarat",
    "SubRegionCode": "ANKV",
    "VenueAddress": "Bansal Mall,Gotri - Bhayli Rd, Nilamber Char Rasta,Near, Saiyed Vasna, Gotri, Vadodara, Gujarat 390021, India",
    "VenueCode": "BLMX",
    "VenueName": "Bansal Movieplex Gotri-Vasna Road: Vadodara"
  },
  "BMYK": {
    "AvailableFormats": "",
    "City": "Deralakatte",
    "FirstTracked": "2026-07-14",
    "Latitude": "12.809443",
    "Longitude": "74.884476",
    "RegionCode": "DERA",
    "State": "Karnataka",
    "SubRegionCode": "DERA",
    "VenueAddress": "2nd Floor, Bearys Turning Point, Mangalore University Road, Deralakatte, Ullal, Deralakatte, Karnataka 575022, India",
    "VenueCode": "BMYK",
    "VenueName": "Bharath Cinemas: Bearys Turning Point, Deralakatte"
  },
  "BRTP": {
    "AvailableFormats": "2D",
    "City": "Palasa",
    "Latitude": "18.7661",
    "Longitude": "84.4217",
    "RegionCode": "PALS",
    "State": "Andhra Pradesh",
    "SubRegionCode": "PALS",
    "VenueAddress": "Shivaji Nagar, Kasibugga, Near Mandala Parishat Office, Palasa, Andhra Pradesh 532222, India",
    "VenueCode": "BRTP",
    "VenueName": "Bhaskara Rama A/C Dts: Palasa"
  },
  "BSSO": {
    "AvailableFormats": "2D",
    "City": "Ahmedabad",
    "Latitude": "23.0415",
    "Longitude": "72.4983",
    "RegionCode": "AHD",
    "State": "Gujarat",
    "SubRegionCode": "AHD",
    "VenueAddress": "312-314-315, Times Square Grand, Sindhu Bhavan Marg, Thaltej, Ahmedabad, Gujarat 380059, India",
    "VenueCode": "BSSO",
    "VenueName": "Sanelite Cinemas (Banana Smartplex): SBR, Thaltej"
  },
  "BTKD": {
    "AvailableFormats": "2D",
    "City": "Ongole",
    "Latitude": "15.5466",
    "Longitude": "79.9397",
    "RegionCode": "ONGL",
    "State": "Andhra Pradesh",
    "SubRegionCode": "ONGL",
    "VenueAddress": "GWWQ+JVV, Santhanuthalapadu, Ongole, Andhra Pradesh 523225, India",
    "VenueCode": "BTKD",
    "VenueName": "Sai Balaji A/c Dolby Surround: Santhanutalapadu"
  },
  "CACG": {
    "AvailableFormats": "",
    "City": "Ghumarwin",
    "FirstTracked": "2026-07-14",
    "Latitude": "31.442915",
    "Longitude": "76.719",
    "RegionCode": "GHUM",
    "State": "Himachal Pradesh",
    "SubRegionCode": "GHUM",
    "VenueAddress": "M/s Kritika Enterprises (Citara Plex Pvt. Ltd ), Kuthera Road, Near Post Office, Ghumarwin, Himachal Pradesh 174021, India",
    "VenueCode": "CACG",
    "VenueName": "Citara Cinema: Ghumarwin"
  },
  "CBMU": {
    "AvailableFormats": "3D|2D",
    "City": "Udaipur",
    "Latitude": "24.6123",
    "Longitude": "73.7026",
    "RegionCode": "UDAI",
    "State": "Rajasthan",
    "SubRegionCode": "UDAI",
    "VenueAddress": "4th Floor, The Celebration Mall, Sundercha N.H.- 8, Bhuwana, Opposite Devendra Dham Bhuwan, Udaipur, Rajasthan 313001, India",
    "VenueCode": "CBMU",
    "VenueName": "PVR: Celebration Mall, Udaipur"
  },
  "CCBA": {
    "AvailableFormats": "2D",
    "City": "Bagbahara",
    "Latitude": "21.0506",
    "Longitude": "82.3793",
    "RegionCode": "BBHA",
    "State": "Chhattisgarh",
    "SubRegionCode": "BBHA",
    "VenueAddress": "NH59, Bhawanipatna Raipur Highway, Near Post office, Bagbahara, Chhattisgarh 493449, India",
    "VenueCode": "CCBA",
    "VenueName": "City Cinema: Bagbahara"
  },
  "CCHW": {
    "AvailableFormats": "",
    "City": "Handwara",
    "FirstTracked": "2026-07-14",
    "Latitude": "34.401604",
    "Longitude": "74.27998",
    "RegionCode": "HNDW",
    "State": "Jammu and Kashmir",
    "SubRegionCode": "HNDW",
    "VenueAddress": "Maqbool Abad Khanabal B, Muncipal Committee, Handwara, Jammu and Kashmir 193221, India",
    "VenueCode": "CCHW",
    "VenueName": "Citara Cinemas: Handwara"
  },
  "CCMF": {
    "AvailableFormats": "2D",
    "City": "Charkhi Dadri",
    "Latitude": "28.5937",
    "Longitude": "76.2574",
    "RegionCode": "CCDD",
    "State": "Haryana",
    "SubRegionCode": "CCDD",
    "VenueAddress": "Main Loharu Road, Rose Petals Hotel Restaurant, Charkhi Dadri, Haryana 127306, India",
    "VenueCode": "CCMF",
    "VenueName": "Chhotu Maharaj Cine Cafe: Charkhi Dadri"
  },
  "CCNL": {
    "AvailableFormats": "",
    "City": "Nalbari",
    "FirstTracked": "2026-07-14",
    "Latitude": "26.454315",
    "Longitude": "91.40943",
    "RegionCode": "NALB",
    "State": "Assam",
    "SubRegionCode": "NALB",
    "VenueAddress": "National Highway 31, 5th Floor, Barkura Banekuchi, Nalbari, Assam 781340, India",
    "VenueCode": "CCNL",
    "VenueName": "Chhotu Maharaj Cine Cafe: Nalbari"
  },
  "CCRN": {
    "AvailableFormats": "",
    "City": "Chandrapur",
    "FirstTracked": "2026-07-14",
    "Latitude": "19.7872",
    "Longitude": "79.3843",
    "RegionCode": "CHAN",
    "State": "Maharashtra",
    "SubRegionCode": "CHAN",
    "VenueAddress": "E-cube, Beside Lakshmi Godown Main Road Bamanwada, Taluka rajura, Chandrapur, Maharashtra 442905, India",
    "VenueCode": "CCRN",
    "VenueName": "Chhotu Maharaj: Rajura, Chandrapur"
  },
  "CCXR": {
    "AvailableFormats": "2D",
    "City": "Gurugram (Gurgaon)",
    "Latitude": "28.3933",
    "Longitude": "76.9769",
    "RegionCode": "NCR",
    "State": "NCR",
    "SubRegionCode": "GURG",
    "VenueAddress": "Entertainland Mall, Floreal Towers, Sector 83, Gurugram (Gurgaon), NCR 122012, India",
    "VenueCode": "CCXR",
    "VenueName": "Connplex Cinemas: Luxuriance, Gurgaon"
  },
  "CDWP": {
    "AvailableFormats": "",
    "City": "Surat",
    "FirstTracked": "2026-07-14",
    "Latitude": "21.1957",
    "Longitude": "72.8598",
    "RegionCode": "SURT",
    "State": "Gujarat",
    "SubRegionCode": "SURT",
    "VenueAddress": "4th Floor, DR World Mall, Aai Mata Road, Surat, Gujarat 395010, India",
    "VenueCode": "CDWP",
    "VenueName": "Coconut Cinema DR World Parvat Patiya: Surat"
  },
  "CFBS": {
    "AvailableFormats": "2D|IMAX 2D|4DX|3D",
    "City": "Bengaluru",
    "Latitude": "12.9894",
    "Longitude": "77.7279",
    "RegionCode": "HOKT",
    "State": "Karnataka",
    "SubRegionCode": "HOKT",
    "VenueAddress": "3rd Floor, Nexus Shantiniketan Mall, Opposite Manipal Hospital, ITPL Main Road, Whitefield, Bengaluru, Karnataka 560067, India",
    "VenueCode": "CFBS",
    "VenueName": "Cinepolis: Nexus Shantiniketan, Bengaluru"
  },
  "CGGM": {
    "AvailableFormats": "2D",
    "City": "Kozhikode",
    "Latitude": "11.2581",
    "Longitude": "75.7931",
    "RegionCode": "KOZH",
    "State": "Kerala",
    "SubRegionCode": "KOZH",
    "VenueAddress": "97, Mavoor Road, Arayidathupalam, Near Federal Tower, Kozhikode, Kerala 673016, India",
    "VenueCode": "CGGM",
    "VenueName": "Cinepolis: Gokulam Galleria Mall"
  },
  "CGTT": {
    "AvailableFormats": "",
    "City": "Guntakal",
    "FirstTracked": "2026-07-14",
    "Latitude": "15.166328",
    "Longitude": "77.382965",
    "RegionCode": "GUNL",
    "State": "Andhra Pradesh",
    "SubRegionCode": "GUNL",
    "VenueAddress": "B.S.S. Colony, Tilak Nagar, Guntakal, Andhra Pradesh 515801, India",
    "VenueCode": "CGTT",
    "VenueName": "Chaitanya Theater: Guntakal"
  },
  "CHTH": {
    "AvailableFormats": "2D",
    "City": "Bengaluru",
    "Latitude": "12.9356",
    "Longitude": "77.5616",
    "RegionCode": "HOKT",
    "State": "Karnataka",
    "SubRegionCode": "HOKT",
    "VenueAddress": "Vidyapeeta circle, Katriguppe Main Road, Hanumanthanagar, Near Parekhs Hospital, Bengaluru, Karnataka 560050, India",
    "VenueCode": "CHTH",
    "VenueName": "Chandrodaya Digital 4K Cinema: Vidyapeeta Circle"
  },
  "CICM": {
    "AvailableFormats": "2D",
    "City": "Math Chandipur",
    "Latitude": "22.0886",
    "Longitude": "87.8576",
    "RegionCode": "MPUR",
    "State": "West Bengal",
    "SubRegionCode": "MPUR",
    "VenueAddress": "Mayukh Gift Corner, Nandigram Road, Math Chandipur, West Bengal 721659, India",
    "VenueCode": "CICM",
    "VenueName": "Chitranjali Cinema: Math Chandipur"
  },
  "CIPS": {
    "AvailableFormats": "2D|3D|4DX",
    "City": "Delhi",
    "Latitude": "28.5283",
    "Longitude": "77.2176",
    "RegionCode": "NCR",
    "State": "NCR",
    "SubRegionCode": "DELHI",
    "VenueAddress": "DLF Avenue, Saket District Centre, Plot-A4, Near Marriot Hotel, Saket, Delhi, NCR 110017, India",
    "VenueCode": "CIPS",
    "VenueName": "Cinepolis: DLF Avenue, Saket"
  },
  "CKUA": {
    "AvailableFormats": "2D|3D",
    "City": "Ahmedabad",
    "Latitude": "22.9998",
    "Longitude": "72.658",
    "RegionCode": "AHD",
    "State": "Gujarat",
    "SubRegionCode": "AHD",
    "VenueAddress": "3rd Floor, Near Nirant Cross Road, Metro Station Vastral, Ahmedabad, Gujarat 382418, India",
    "VenueCode": "CKUA",
    "VenueName": "Cinepolis: Kankubag, Vastral, Ahmedabad"
  },
  "CLKP": {
    "AvailableFormats": "",
    "City": "Patna",
    "FirstTracked": "2026-07-14",
    "Latitude": "25.6025",
    "Longitude": "85.1453",
    "RegionCode": "PATN",
    "State": "Bihar",
    "SubRegionCode": "PATN",
    "VenueAddress": "Avnc lifestyles Nutan Complex, Kankarbagh, Near KKrish Hyundai, Patna, Bihar 800020, India",
    "VenueCode": "CLKP",
    "VenueName": "Connplex Cinemas Luxuriance: Kankarbagh, Patna"
  },
  "CMAU": {
    "AvailableFormats": "2D",
    "City": "Abu Road",
    "Latitude": "24.4982",
    "Longitude": "72.766",
    "RegionCode": "ABRD",
    "State": "Rajasthan",
    "SubRegionCode": "ABRD",
    "VenueAddress": "New Town Housing, Revdar Road, Manpur Rural, Abu Road, Rajasthan 307026, India",
    "VenueCode": "CMAU",
    "VenueName": "Cineplus Multiplex: Abu Road"
  },
  "CMHU": {
    "AvailableFormats": "2D",
    "City": "Unnao",
    "Latitude": "26.5391",
    "Longitude": "80.5025",
    "RegionCode": "UNNA",
    "State": "Uttar Pradesh",
    "SubRegionCode": "UNNA",
    "VenueAddress": "Fantasy Motels Pvt Ltd, Hussain Nagar Bypass Road, Unnao, Uttar Pradesh 209801, India",
    "VenueCode": "CMHU",
    "VenueName": "Chhotu Maharaj Cine Cafe:Unnao"
  },
  "CMMN": {
    "AvailableFormats": "",
    "City": "Erode",
    "FirstTracked": "2026-07-14",
    "Latitude": "11.310983",
    "Longitude": "77.66701",
    "RegionCode": "EROD",
    "State": "Tamil Nadu",
    "SubRegionCode": "EROD",
    "VenueAddress": "R.S No 325/3A, Patta No-364, Puthur, Puthuppalayam Village and Pichandampalayam Panchayat, Erode, Tamil Nadu 638112, India",
    "VenueCode": "CMMN",
    "VenueName": "Chhotu Maharaj Cine Cafe: Erode"
  },
  "CMSN": {
    "AvailableFormats": "",
    "City": "Agra",
    "FirstTracked": "2026-07-14",
    "Latitude": "27.2032",
    "Longitude": "77.9671",
    "RegionCode": "AGRA",
    "State": "Uttar Pradesh",
    "SubRegionCode": "AGRA",
    "VenueAddress": "2nd Floor Bhawna Dwarka Street ,Prop. No. Comm 7, Anthem Pocket A Sec, 15 Avas Vikas Sikandra Agra, Agra, Uttar Pradesh 282007, India",
    "VenueCode": "CMSN",
    "VenueName": "Chhotu Maharaj: Sikandra Agra, UP"
  },
  "CMVV": {
    "AvailableFormats": "2D",
    "City": "Varanasi",
    "Latitude": "25.3012",
    "Longitude": "82.9586",
    "RegionCode": "VAR",
    "State": "Uttar Pradesh",
    "SubRegionCode": "VAR",
    "VenueAddress": "Plot No. 237/3, Madauli, Near St.Johns School, Varanasi, Uttar Pradesh 221003, India",
    "VenueCode": "CMVV",
    "VenueName": "Chhotu Maharaj Cine Cafe: Varanasi"
  },
  "CNCS": {
    "AvailableFormats": "2D",
    "City": "Sangamner",
    "Latitude": "19.5948",
    "Longitude": "74.1942",
    "RegionCode": "SMNE",
    "State": "Maharashtra",
    "SubRegionCode": "SMNE",
    "VenueAddress": "2nd Floor, Malpani Multiplex Mall, Gunjalwadi, Sangamner, Maharashtra 422605, India",
    "VenueCode": "CNCS",
    "VenueName": "Connplex Cinemas: Sangamner"
  },
  "CNLP": {
    "AvailableFormats": "3D|2D",
    "City": "Ahmedabad",
    "Latitude": "23.1461",
    "Longitude": "72.5463",
    "RegionCode": "GNAGAR",
    "State": "Gujarat",
    "SubRegionCode": "GNAGAR",
    "VenueAddress": "1st Floor, Master Avenue, Gandhinagar, Near - Vaishnodevi Circle, Ahmedabad, Gujarat 382421, India",
    "VenueCode": "CNLP",
    "VenueName": "Connplex Cinemas (Luxuriance): Vaishnodevi"
  },
  "CNRM": {
    "AvailableFormats": "2D",
    "City": "Bengaluru",
    "Latitude": "12.8759",
    "Longitude": "77.5956",
    "RegionCode": "HOKT",
    "State": "Karnataka",
    "SubRegionCode": "HOKT",
    "VenueAddress": "Royal Meenakshi Mall, Bannerghatta Road, Bengaluru, Karnataka 560076, India",
    "VenueCode": "CNRM",
    "VenueName": "Cinepolis: Royal Meenakshi Mall"
  },
  "CNWJ": {
    "AvailableFormats": "2D|3D",
    "City": "Jaipur",
    "Latitude": "26.8532",
    "Longitude": "75.8048",
    "RegionCode": "JAIP",
    "State": "Rajasthan",
    "SubRegionCode": "JAIP",
    "VenueAddress": "D-Block, Sector 4, JLN Marg, Malviya Nagar, Jaipur, Rajasthan 302017, India",
    "VenueCode": "CNWJ",
    "VenueName": "Cinepolis: World Trade Park Mall, Jaipur"
  },
  "COPG": {
    "AvailableFormats": "2D",
    "City": "Gandhinagar",
    "Latitude": "23.1848",
    "Longitude": "72.6229",
    "RegionCode": "GNAGAR",
    "State": "Gujarat",
    "SubRegionCode": "GNAGAR",
    "VenueAddress": "301-308, Shreeji Signature, Sargasan, Near Reliance Crossroad, Gandhinagar, Gujarat 382028, India",
    "VenueCode": "COPG",
    "VenueName": "Connplex Cinemas (Signature): Gandhinagar"
  },
  "CPCN": {
    "AvailableFormats": "2D",
    "City": "Bijainagar",
    "Latitude": "25.9298",
    "Longitude": "74.6475",
    "RegionCode": "BINW",
    "State": "Rajasthan",
    "SubRegionCode": "BINW",
    "VenueAddress": "Bus Stand Road, Opposite Hotel N Chandra Palace, Bijainagar, Rajasthan 305624, India",
    "VenueCode": "CPCN",
    "VenueName": "Cineplus Cinema: Bijainagar"
  },
  "CPJI": {
    "AvailableFormats": "3D|2D",
    "City": "Jaipur",
    "Latitude": "26.857",
    "Longitude": "75.8051",
    "RegionCode": "JAIP",
    "State": "Rajasthan",
    "SubRegionCode": "JAIP",
    "VenueAddress": "Cinepolis Jewel of India Jaipur, 1st Floor, KH. No.180,181,184,186, Horizon Tower, Jawahar Lal Nehru Marg, Jaipur, Rajasthan 302018, India",
    "VenueCode": "CPJI",
    "VenueName": "Cinepolis: Jewel of India, Jaipur (Newly Opened)"
  },
  "CPLX": {
    "AvailableFormats": "2D",
    "City": "Jeypore",
    "Latitude": "18.8588",
    "Longitude": "82.5902",
    "RegionCode": "JEYP",
    "State": "Odisha",
    "SubRegionCode": "JEYP",
    "VenueAddress": "Industrial Estate, Jeypore Vizianagaram Road, Jeypore, Odisha 764001, India",
    "VenueCode": "CPLX",
    "VenueName": "Celebration Cineplex: Jeypore"
  },
  "CPNS": {
    "AvailableFormats": "2D|3D",
    "City": "Delhi",
    "Latitude": "28.6947",
    "Longitude": "77.1542",
    "RegionCode": "NCR",
    "State": "NCR",
    "SubRegionCode": "DELHI",
    "VenueAddress": "NSP Pacific Mall, NSP Metro Station, Pitampura, Delhi, NCR 110034, India",
    "VenueCode": "CPNS",
    "VenueName": "Cinepolis: Pacific NSP2, Delhi"
  },
  "CPSH": {
    "AvailableFormats": "2D|3D",
    "City": "Jamshedpur",
    "Latitude": "22.785",
    "Longitude": "86.181",
    "RegionCode": "JMDP",
    "State": "Jharkhand",
    "SubRegionCode": "JMDP",
    "VenueAddress": "P and M Hi-Tech City Centre Mall, Millenium Park, Bistupur, Outer Circle Road, Jamshedpur, Jharkhand 831001, India",
    "VenueCode": "CPSH",
    "VenueName": "PJP Cinepolis: Jamshedpur"
  },
  "CPVV": {
    "AvailableFormats": "2D|3D",
    "City": "Thane",
    "Latitude": "19.2085",
    "Longitude": "72.9713",
    "RegionCode": "MUMBAI",
    "State": "Maharashtra",
    "SubRegionCode": "THNE",
    "VenueAddress": "Viviana Mall, Eastern Express Highway, Laxmi Nagar, Thane (West), Beside Jupiter Hospital, Thane, Maharashtra 400606, India",
    "VenueCode": "CPVV",
    "VenueName": "Cinepolis: VIP Viviana Mall, Thane"
  },
  "CRXH": {
    "AvailableFormats": "2D",
    "City": "Halol",
    "Latitude": "22.4966",
    "Longitude": "73.4714",
    "RegionCode": "HALO",
    "State": "Gujarat",
    "SubRegionCode": "HALO",
    "VenueAddress": "Townsquare Mall, 3rd Floor Oppositie Fire Station, Halol, Gujarat 389350, India",
    "VenueCode": "CRXH",
    "VenueName": "Cinemera Multiplex: Halol"
  },
  "CSHM": {
    "AvailableFormats": "2D",
    "City": "Mehsana",
    "Latitude": "23.6178",
    "Longitude": "72.3471",
    "RegionCode": "MEHS",
    "State": "Gujarat",
    "SubRegionCode": "MEHS",
    "VenueAddress": "B110, 1st Floor, Trogon Two, D,Mart Circle, Near Mehsana Bypass Road, Mehsana, Gujarat 384002, India",
    "VenueCode": "CSHM",
    "VenueName": "Connplex Cinemas: D`Mart Circle, Mehsana"
  },
  "CSST": {
    "AvailableFormats": "2D",
    "City": "Ahmedabad",
    "Latitude": "23.0525",
    "Longitude": "72.4807",
    "RegionCode": "AHD",
    "State": "Gujarat",
    "SubRegionCode": "AHD",
    "VenueAddress": "2nd Floor, Shilp The Address,Shilaj Road, SP Ringoad, Thaltej, Ahmedabad, Gujarat 380059, India",
    "VenueCode": "CSST",
    "VenueName": "Connplex Cinemas: Shilaj"
  },
  "CTBG": {
    "AvailableFormats": "",
    "City": "Bagalkot",
    "FirstTracked": "2026-07-14",
    "Latitude": "16.158556",
    "Longitude": "75.65981",
    "RegionCode": "BAGA",
    "State": "Karnataka",
    "SubRegionCode": "BAGA",
    "VenueAddress": "Plot No. 80, 81, Sector 25, Nava Nagar, Behind StateBank of India, Bagalkot, Karnataka 587103, India",
    "VenueCode": "CTBG",
    "VenueName": "Chandan Theatre: Bagalkot"
  },
  "CTMK": {
    "AvailableFormats": "2D",
    "City": "Korba",
    "Latitude": "22.3424",
    "Longitude": "82.6987",
    "RegionCode": "KRBA",
    "State": "Chhattisgarh",
    "SubRegionCode": "KRBA",
    "VenueAddress": "Purani Basti, Rani Road, Near Hotel Satkar Deluxe, Korba, Chhattisgarh 495677, India",
    "VenueCode": "CTMK",
    "VenueName": "Chitra Cinema: Korba"
  },
  "CTRD": {
    "AvailableFormats": "2D",
    "City": "Pune",
    "Latitude": "18.5165",
    "Longitude": "73.8423",
    "RegionCode": "PUNE",
    "State": "Maharashtra",
    "SubRegionCode": "PUNE",
    "VenueAddress": "2nd Floor, R Deccan Mall, Jangli Maharaj Road, Opp Deccan Bus Stand, Pune, Maharashtra 411004, India",
    "VenueCode": "CTRD",
    "VenueName": "City Pride: R Deccan"
  },
  "CVCG": {
    "AvailableFormats": "2D",
    "City": "Gudur",
    "Latitude": "14.1492",
    "Longitude": "79.8469",
    "RegionCode": "GUDR",
    "State": "Andhra Pradesh",
    "SubRegionCode": "GUDR",
    "VenueAddress": "Sri Venkateshwara Cine Complex, Gamallapalem Street, Vivekananda Road, Swarna Bharathi Nagar, Gudur, Andhra Pradesh 524101, India",
    "VenueCode": "CVCG",
    "VenueName": "V Cinemas, Screen 1: Gudur"
  },
  "CWCK": {
    "AvailableFormats": "2D",
    "City": "Katni",
    "Latitude": "23.8007",
    "Longitude": "80.3674",
    "RegionCode": "KATN",
    "State": "Madhya Pradesh",
    "SubRegionCode": "KATN",
    "VenueAddress": "2nd floor, Mittal Mall, Beside Mittal Enclave, Collectorate Road, Katni, Madhya Pradesh 483501, India",
    "VenueCode": "CWCK",
    "VenueName": "Cine Worldz Cinema: Katni"
  },
  "CXMH": {
    "AvailableFormats": "2D",
    "City": "Himmatnagar",
    "Latitude": "23.5823",
    "Longitude": "72.9728",
    "RegionCode": "HIMM",
    "State": "Gujarat",
    "SubRegionCode": "HIMM",
    "VenueAddress": "Devdhan Complex, Sahakari Jin Road, Near Jyoti Supermarket, Himmatnagar, Gujarat 383001, India",
    "VenueCode": "CXMH",
    "VenueName": "Cinemunch Mplex MCR: Himmatnagar"
  },
  "DACA": {
    "AvailableFormats": "",
    "City": "Danapur",
    "Latitude": "25.6369",
    "Longitude": "85.0458",
    "RegionCode": "PATN",
    "State": "Bihar",
    "SubRegionCode": "PATN",
    "VenueAddress": "Diana Cinema Road, Danapur Main Road, Near Danapur Bus Stand Road, Danapur, Bihar 801503, India",
    "VenueCode": "DACA",
    "VenueName": "Diana Danapur AC with New Full Screen Projection"
  },
  "DCCP": {
    "AvailableFormats": "2D",
    "City": "Pune",
    "Latitude": "18.7516",
    "Longitude": "73.8353",
    "RegionCode": "KHED",
    "State": "Maharashtra",
    "SubRegionCode": "KHED",
    "VenueAddress": "City Plaza, Talegaon, Chakan Road, Pune, Maharashtra 410501, India",
    "VenueCode": "DCCP",
    "VenueName": "Dharmatma Cinemark: Chakan, Pune"
  },
  "DCMJ": {
    "AvailableFormats": "2D",
    "City": "Manjeri",
    "Latitude": "11.1232",
    "Longitude": "76.1175",
    "RegionCode": "MAJR",
    "State": "Kerala",
    "SubRegionCode": "MAJR",
    "VenueAddress": "Rajiv Gandhi Bypass, Karuvambram, Manjeri, Kerala 676121, India",
    "VenueCode": "DCMJ",
    "VenueName": "Devaki Cinemax: Manjeri"
  },
  "DDCK": {
    "AvailableFormats": "2D|3D",
    "City": "Hajipur",
    "Latitude": "25.6943",
    "Longitude": "85.2116",
    "RegionCode": "HAJI",
    "State": "Bihar",
    "SubRegionCode": "HAJI",
    "VenueAddress": "Cine Krishna Mall ,1st Floor, Cinema Road, Hajipur, Bihar 844101, India",
    "VenueCode": "DDCK",
    "VenueName": "DD Cinemas: Cine Krishna Mall, Hajipur"
  },
  "DESA": {
    "AvailableFormats": "2D",
    "City": "Porumamilla",
    "Latitude": "15.0024",
    "Longitude": "78.9905",
    "RegionCode": "PORU",
    "State": "Andhra Pradesh",
    "SubRegionCode": "PORU",
    "VenueAddress": "Reddy Nagar, Main Road, Near Andhra Pragathi Gramina Bank, Porumamilla, Andhra Pradesh 516193, India",
    "VenueCode": "DESA",
    "VenueName": "Desai Mahal A/C 2K Dolby 7.1: Porumamilla"
  },
  "DHCB": {
    "AvailableFormats": "",
    "City": "Basti",
    "FirstTracked": "2026-07-14",
    "Latitude": "26.805424",
    "Longitude": "82.725296",
    "RegionCode": "BAST",
    "State": "Uttar Pradesh",
    "SubRegionCode": "BAST",
    "VenueAddress": "Badevan Over Bridge, Gorakhpur to Lucknow Highway Road, Near Toll Plaza, Basti, Uttar Pradesh 272002, India",
    "VenueCode": "DHCB",
    "VenueName": "Darsh Cinema: Basti"
  },
  "DLCD": {
    "AvailableFormats": "2D",
    "City": "Itanagar",
    "Latitude": "27.1018",
    "Longitude": "93.6297",
    "RegionCode": "ITNG",
    "State": "Arunachal Pradesh",
    "SubRegionCode": "ITNG",
    "VenueAddress": "AAB Arcade Building, NH 415, Zero Point, Itanagar, Arunachal Pradesh 791111, India",
    "VenueCode": "DLCD",
    "VenueName": "Drodel Cineworld, Zero point: Itanagar"
  },
  "DMHA": {
    "AvailableFormats": "2D",
    "City": "Kalyani",
    "Latitude": "22.9673",
    "Longitude": "88.539",
    "RegionCode": "KALY",
    "State": "West Bengal",
    "SubRegionCode": "KALY",
    "VenueAddress": "2nd, Ward No 6 Balindi, Kalyani Road, Haringhata, Nadia, Kalyani, West Bengal 741246, India",
    "VenueCode": "DMHA",
    "VenueName": "Dolphin Multiplex: Haringhata (Dolby 7.1)"
  },
  "DNRP": {
    "AvailableFormats": "2D",
    "City": "Pathanamthitta",
    "Latitude": "9.26514",
    "Longitude": "76.7891",
    "RegionCode": "PTNM",
    "State": "Kerala",
    "SubRegionCode": "PTNM",
    "VenueAddress": "NH 183A Valanchuzhy, Pathanamthitta - Kadammanitta Road, Near Aananda Bavan Vegetarian Restaurant, Pathanamthitta, Kerala 689645, India",
    "VenueCode": "DNRP",
    "VenueName": "Dhanya Remya: Pathanamthitta"
  },
  "DREA": {
    "AvailableFormats": "",
    "City": "Mangaldoi",
    "FirstTracked": "2026-07-14",
    "Latitude": "26.44013",
    "Longitude": "92.03078",
    "RegionCode": "MANG",
    "State": "Assam",
    "SubRegionCode": "MANG",
    "VenueAddress": "2nd Floor, Sumitra Shopping Complex, LNB Road, Mangaldoi Darrang, Mangaldoi, Assam 784125, India",
    "VenueCode": "DREA",
    "VenueName": "FUN Cinemas Dream Theatre: Mangaldoi"
  },
  "DTDT": {
    "AvailableFormats": "3D|2D",
    "City": "Indore",
    "Latitude": "22.7035",
    "Longitude": "75.9178",
    "RegionCode": "IND",
    "State": "Madhya Pradesh",
    "SubRegionCode": "IND",
    "VenueAddress": "5th Floor, The Zodiac Mall, Scheme No. 140, Pipliyahana, Indore, Madhya Pradesh 452016, India",
    "VenueCode": "DTDT",
    "VenueName": "Drama Factory Cinema, Zodiac Mall: Indore"
  },
  "DVCA": {
    "AvailableFormats": "2D",
    "City": "Dhamtari",
    "Latitude": "20.7086",
    "Longitude": "81.5462",
    "RegionCode": "DHMT",
    "State": "Chhattisgarh",
    "SubRegionCode": "DHMT",
    "VenueAddress": "C/O Vimal Talkies, Dhamtari H.O, Near Bhagwati Lodge and Dawat Restaurat, Dhamtari, Chhattisgarh 493773, India",
    "VenueCode": "DVCA",
    "VenueName": "Devshri Cinema: Dhamtari"
  },
  "EBCA": {
    "AvailableFormats": "",
    "City": "Kundli",
    "Latitude": "28.9099",
    "Longitude": "77.1097",
    "RegionCode": "NCR",
    "State": "NCR",
    "SubRegionCode": "KUND",
    "VenueAddress": "Parker Mall Sector 62, National Highway 1, Kundli, NCR 131028, India",
    "VenueCode": "EBCA",
    "VenueName": "eBox Cinema: Parker Mall, Kundli"
  },
  "EDMP": {
    "AvailableFormats": "2D|3D",
    "City": "Ghaziabad",
    "Latitude": "28.6412",
    "Longitude": "77.317",
    "RegionCode": "MRDG",
    "State": "NCR",
    "SubRegionCode": "MRDG",
    "VenueAddress": "East Delhi Mall, Opp Anand Vihar, Kaushambi, Near Big Bazaar, Ghaziabad, NCR 201010, India",
    "VenueCode": "EDMP",
    "VenueName": "PVR: EDM, Ghaziabad"
  },
  "ELYE": {
    "AvailableFormats": "2D|3D",
    "City": "Jorhat",
    "Latitude": "26.7568",
    "Longitude": "94.2151",
    "RegionCode": "JORT",
    "State": "Assam",
    "SubRegionCode": "JORT",
    "VenueAddress": "Gar Ali Road, Babupatty, Jorhat, Assam 785001, India",
    "VenueCode": "ELYE",
    "VenueName": "Eleye Multiplex: Jorhat"
  },
  "EOSE": {
    "AvailableFormats": "2D|3D",
    "City": "Shahdol",
    "Latitude": "23.2961",
    "Longitude": "81.3732",
    "RegionCode": "SHAH",
    "State": "Madhya Pradesh",
    "SubRegionCode": "SHAH",
    "VenueAddress": "K Square Mall, MP SH 9A, Bhatnagar, Budhar Main Road, Shahdol, Madhya Pradesh 484001, India",
    "VenueCode": "EOSE",
    "VenueName": "K-Square Cinemas: Shahdol"
  },
  "ESEM": {
    "AvailableFormats": "2D|3D",
    "City": "Pune",
    "Latitude": "18.5927",
    "Longitude": "73.7453",
    "RegionCode": "PUNE",
    "State": "Maharashtra",
    "SubRegionCode": "PUNE",
    "VenueAddress": "1st Floor, XION Mall, Hinjawadi Road, Wakad, Pune, Maharashtra 411057, India",
    "VenueCode": "ESEM",
    "VenueName": "E-SQUARE: Xion Mall, Hinjawadi"
  },
  "ETPB": {
    "AvailableFormats": "2D",
    "City": "Bhavnagar",
    "Latitude": "21.7716",
    "Longitude": "72.1462",
    "RegionCode": "BHNG",
    "State": "Gujarat",
    "SubRegionCode": "BHNG",
    "VenueAddress": "Shiva Blessing 2, Shilpi Nagar, Opposite Bhavnagar Municipal Corporation, Bhavnagar, Gujarat 364001, India",
    "VenueCode": "ETPB",
    "VenueName": "The Entertainment Park: Bhavnagar"
  },
  "EYHZ": {
    "AvailableFormats": "2D",
    "City": "Hazaribagh",
    "Latitude": "23.9914",
    "Longitude": "85.3541",
    "RegionCode": "HAZA",
    "State": "Jharkhand",
    "SubRegionCode": "HAZA",
    "VenueAddress": "Indralok Tower, 4th floor, Main Road Gwal Toli Chowk, Azad Mahalla, Hazaribagh, Jharkhand 825301, India",
    "VenueCode": "EYHZ",
    "VenueName": "Eylex Cinema: Hazaribagh"
  },
  "FCMG": {
    "AvailableFormats": "2D",
    "City": "Nipani",
    "Latitude": "16.4083",
    "Longitude": "74.4892",
    "RegionCode": "NIPN",
    "State": "Karnataka",
    "SubRegionCode": "NIPN",
    "VenueAddress": "Mall Road, Next to Nipani Bus Stand, Chikodi Road, Nipani, Karnataka 591237, India",
    "VenueCode": "FCMG",
    "VenueName": "Magnum Fun Cinemas: Nipani"
  },
  "FLMB": {
    "AvailableFormats": "2D|3D",
    "City": "Ranchi",
    "Latitude": "23.3331",
    "Longitude": "85.3171",
    "RegionCode": "RANC",
    "State": "Jharkhand",
    "SubRegionCode": "RANC",
    "VenueAddress": "Spring City Mall, Hinoo Main Road, Beside Hinoo Bridge, Ranchi, Jharkhand 834002, India",
    "VenueCode": "FLMB",
    "VenueName": "Fun Cinemas: Springcity, Ranchi"
  },
  "FMLB": {
    "AvailableFormats": "2D",
    "City": "Bengaluru",
    "Latitude": "12.9732",
    "Longitude": "77.6213",
    "RegionCode": "HOKT",
    "State": "Karnataka",
    "SubRegionCode": "HOKT",
    "VenueAddress": "2nd Floor - Lido Mall, Swamy Vivekananda Road, Halasuru, Next to Hyatt Hotel, Bengaluru, Karnataka 560008, India",
    "VenueCode": "FMLB",
    "VenueName": "INOX Lido: Off MG Road, Ulsoor"
  },
  "FNAS": {
    "AvailableFormats": "2D|3D",
    "City": "Amritsar",
    "Latitude": "31.62",
    "Longitude": "74.9068",
    "RegionCode": "AMRI",
    "State": "Punjab",
    "SubRegionCode": "AMRI",
    "VenueAddress": "Alpha One, Level-2, G.T. Road, Maqbool Pura, Amritsar, Punjab 143006, India",
    "VenueCode": "FNAS",
    "VenueName": "Cinepolis: Nexus Amritsar"
  },
  "FNJJ": {
    "AvailableFormats": "2D|3D",
    "City": "Jaipur",
    "Latitude": "26.9422",
    "Longitude": "75.771",
    "RegionCode": "JAIP",
    "State": "Rajasthan",
    "SubRegionCode": "JAIP",
    "VenueAddress": "Jhotwara Road, Plot No: 1/1, Triton Mega Mall, Jaipur, Rajasthan 302012, India",
    "VenueCode": "FNJJ",
    "VenueName": "Cinepolis: Triton Mega Mall, Jaipur"
  },
  "FQSA": {
    "AvailableFormats": "2D",
    "City": "Navi Mumbai",
    "Latitude": "19.066",
    "Longitude": "73.0083",
    "RegionCode": "MUMBAI",
    "State": "Maharashtra",
    "SubRegionCode": "THAN",
    "VenueAddress": "Sector 3, Sanpada, Navi Mumbai, Maharashtra 400705, India",
    "VenueCode": "FQSA",
    "VenueName": "Fun Square Cinema: Sanpada"
  },
  "FSTD": {
    "AvailableFormats": "2D",
    "City": "Jaipur",
    "Latitude": "26.9606",
    "Longitude": "75.7786",
    "RegionCode": "JAIP",
    "State": "Rajasthan",
    "SubRegionCode": "JAIP",
    "VenueAddress": "Vidyadhar Nagar, Times square Mall, Jaipur, Rajasthan 302039, India",
    "VenueCode": "FSTD",
    "VenueName": "Funstar Cinemas: Vidhyadhar Nagar, Jaipur"
  },
  "GAGC": {
    "AvailableFormats": "2D",
    "City": "Delhi",
    "Latitude": "28.6964",
    "Longitude": "77.3149",
    "RegionCode": "NCR",
    "State": "NCR",
    "SubRegionCode": "DELHI",
    "VenueAddress": "Main Road Nand Nagari, Kanchipuram, Community Centre, Village Mandoli, Delhi, NCR 110093, India",
    "VenueCode": "GAGC",
    "VenueName": "Gagan Theatre: Nand Nagri, Delhi"
  },
  "GATP": {
    "AvailableFormats": "2D",
    "City": "Palakollu",
    "Latitude": "16.5176",
    "Longitude": "81.7184",
    "RegionCode": "PLKL",
    "State": "Andhra Pradesh",
    "SubRegionCode": "PLKL",
    "VenueAddress": "PP Road, Near Krishna Bhavani Hospital, Palakollu, Andhra Pradesh 534260, India",
    "VenueCode": "GATP",
    "VenueName": "Geetha Annapurna Theatre: Palakollu"
  },
  "GCBA": {
    "AvailableFormats": "2D",
    "City": "Barnala",
    "Latitude": "30.2621",
    "Longitude": "75.2356",
    "RegionCode": "BAR",
    "State": "Punjab",
    "SubRegionCode": "BAR",
    "VenueAddress": "Bathinda Road, Near T-Point, Barnala, Punjab 148101, India",
    "VenueCode": "GCBA",
    "VenueName": "GE Cinemas: Barnala"
  },
  "GCDT": {
    "AvailableFormats": "2D",
    "City": "Thrissur",
    "Latitude": "10.5091",
    "Longitude": "76.2374",
    "RegionCode": "MANR",
    "State": "Kerala",
    "SubRegionCode": "MANR",
    "VenueAddress": "Valarkavu, Nehru Nagar, Kuriachira P.O, Thrissur, Kerala 680006, India",
    "VenueCode": "GCDT",
    "VenueName": "Ganam Cinemas 4K RGB Laser Dolby Atmos: Thrissur"
  },
  "GCKG": {
    "AvailableFormats": "2D",
    "City": "Kokrajhar",
    "Latitude": "26.4275",
    "Longitude": "90.2815",
    "RegionCode": "KKJR",
    "State": "Assam",
    "SubRegionCode": "KKJR",
    "VenueAddress": "Dimalgaon, Near Jwngma Hotel, Kokrajhar, Assam 783370, India",
    "VenueCode": "GCKG",
    "VenueName": "Gold Cinema: Kokrajhar"
  },
  "GCMM": {
    "AvailableFormats": "2D",
    "City": "Madurai",
    "Latitude": "9.93746",
    "Longitude": "78.1219",
    "RegionCode": "MADU",
    "State": "Tamil Nadu",
    "SubRegionCode": "MADU",
    "VenueAddress": "50 Feet Road, Sellur, Madurai, Tamil Nadu 625002, India",
    "VenueCode": "GCMM",
    "VenueName": "Gopuram Cinemas ATMOS and Laser Projector: Madurai"
  },
  "GCTA": {
    "AvailableFormats": "2D",
    "City": "Alwar",
    "Latitude": "27.5611",
    "Longitude": "76.6048",
    "RegionCode": "ALWR",
    "State": "Rajasthan",
    "SubRegionCode": "ALWR",
    "VenueAddress": "3rd Floor, Capital Galleria Plot No 4, Manumarg Kabir Colony, Alwar, Rajasthan 301001, India",
    "VenueCode": "GCTA",
    "VenueName": "Gold Cinema: Alwar CG, Manu Marg"
  },
  "GDBW": {
    "AvailableFormats": "2D",
    "City": "Bhiwadi",
    "Latitude": "28.2131",
    "Longitude": "76.8545",
    "RegionCode": "BHWD",
    "State": "Rajasthan",
    "SubRegionCode": "BHWD",
    "VenueAddress": "Capital Mall, H.C. Buildcon Pvt. Ltd. 812 C.P. 4 Riico Industrial Area, Bhiwadi, Rajasthan 301019, India",
    "VenueCode": "GDBW",
    "VenueName": "Gold Cinema: Bhiwadi"
  },
  "GDKA": {
    "AvailableFormats": "2D",
    "City": "Kota",
    "Latitude": "25.1683",
    "Longitude": "75.8532",
    "RegionCode": "KOTA",
    "State": "Rajasthan",
    "SubRegionCode": "KOTA",
    "VenueAddress": "Aakash Multiplex, Aerodrome Circle, New Grain Mandi,Kota, Rajasthan 324007, India",
    "VenueCode": "GDKA",
    "VenueName": "Gold Cinema: Kota"
  },
  "GEKR": {
    "AvailableFormats": "2D",
    "City": "Tumakuru (Tumkur)",
    "Latitude": "13.3375",
    "Longitude": "77.1039",
    "RegionCode": "TUMK",
    "State": "Karnataka",
    "SubRegionCode": "TUMK",
    "VenueAddress": "B.H. Road, CSI Layout, Near Shiva Agencies, Tumakuru (Tumkur), Karnataka 572101, India",
    "VenueCode": "GEKR",
    "VenueName": "Gayatri Theater 2K Digital A/C Dolby: Tumakuru"
  },
  "GGGZ": {
    "AvailableFormats": "2D",
    "City": "Jalore",
    "Latitude": "25.339",
    "Longitude": "72.6284",
    "RegionCode": "LALO",
    "State": "Rajasthan",
    "SubRegionCode": "LALO",
    "VenueAddress": "RSS Entertainments, Graveet Tower, Bhinmal by Pass Road, Jalore, Rajasthan 343001, India",
    "VenueCode": "GGGZ",
    "VenueName": "Glitz Cinemas: Jalore"
  },
  "GKCC": {
    "AvailableFormats": "2D",
    "City": "Coimbatore",
    "Latitude": "10.9543",
    "Longitude": "76.7892",
    "RegionCode": "COIM",
    "State": "Tamil Nadu",
    "SubRegionCode": "COIM",
    "VenueAddress": "Siruvani Road, Alandurai, Near Canara Bank, Coimbatore, Tamil Nadu 641010, India",
    "VenueCode": "GKCC",
    "VenueName": "Gokulam Cinemas A/C 2K: Coimbatore"
  },
  "GLDC": {
    "AvailableFormats": "2D",
    "City": "Chaygaon",
    "Latitude": "26.0476",
    "Longitude": "91.3844",
    "RegionCode": "CHOG",
    "State": "Assam",
    "SubRegionCode": "CHOG",
    "VenueAddress": "Goalpara - Guwahati Road, Near Bank Of Baroda, Chaygaon, Assam 781124, India",
    "VenueCode": "GLDC",
    "VenueName": "Gold Cinema: Chaygaon"
  },
  "GNDS": {
    "AvailableFormats": "2D",
    "City": "Shikrapur",
    "Latitude": "18.703",
    "Longitude": "74.1389",
    "RegionCode": "SKHR",
    "State": "Maharashtra",
    "SubRegionCode": "SKHR",
    "VenueAddress": "Besides Nandini Villa, Hiware Road, Shikrapur, Maharashtra 412208, India",
    "VenueCode": "GNDS",
    "VenueName": "Gunjan Dijeplex: Shikrapur"
  },
  "GPAM": {
    "AvailableFormats": "2D",
    "City": "Bengaluru",
    "Latitude": "12.9359",
    "Longitude": "77.5176",
    "RegionCode": "HOKT",
    "State": "Karnataka",
    "SubRegionCode": "HOKT",
    "VenueAddress": "Arcade Mall, Rajarajeshwari Nagar, Opposite The Club Mysore Road, Bengaluru, Karnataka 560098, India",
    "VenueCode": "GPAM",
    "VenueName": "Gopalan Cinemas: Arcade Mall, Mysore Road"
  },
  "GPRH": {
    "AvailableFormats": "2D|3D",
    "City": "Hyderabad",
    "Latitude": "17.4993",
    "Longitude": "78.3907",
    "RegionCode": "HYD",
    "State": "Telangana",
    "SubRegionCode": "HYD",
    "VenueAddress": "Nizampet X Roads, Kukatpally, Hyderabad, Telangana 500072, India",
    "VenueCode": "GPRH",
    "VenueName": "GPR Multiplex: Nizampet, Hyderabad"
  },
  "GRNT": {
    "AvailableFormats": "",
    "City": "Ongole",
    "FirstTracked": "2026-07-14",
    "Latitude": "15.51021",
    "Longitude": "80.05091",
    "RegionCode": "ADKI",
    "State": "Andhra Pradesh",
    "SubRegionCode": "ADKI",
    "VenueAddress": "Cumbu, Gopal Nagar, Near Andhra Bank, Ongole, Andhra Pradesh 523001, India",
    "VenueCode": "GRNT",
    "VenueName": "Gorantla Cinemas: Ongole"
  },
  "GTCK": {
    "AvailableFormats": "2D",
    "City": "Trivandrum",
    "Latitude": "8.60425",
    "Longitude": "76.8156",
    "RegionCode": "VKAL",
    "State": "Kerala",
    "SubRegionCode": "VKAL",
    "VenueAddress": "Puthukurichy (P.O), Kaniyapuram, Near V Tracks Cinemas, Trivandrum, Kerala 695303, India",
    "VenueCode": "GTCK",
    "VenueName": "GTracks Screen 2 Sony 4K: Kadinamkulam"
  },
  "GTNA": {
    "AvailableFormats": "2D",
    "City": "Nidadavolu",
    "Latitude": "16.9054",
    "Longitude": "81.6714",
    "RegionCode": "NDVD",
    "State": "Andhra Pradesh",
    "SubRegionCode": "NDVD",
    "VenueAddress": "Nidadavole Road, West Godavari, Opposite Ratna Nursing Home, Nidadavolu, Andhra Pradesh 534301, India",
    "VenueCode": "GTNA",
    "VenueName": "Ganapathi Theatre A/C Dts: Nidadavolu"
  },
  "GTYT": {
    "AvailableFormats": "2D",
    "City": "Bengaluru",
    "Latitude": "13.1006",
    "Longitude": "77.5871",
    "RegionCode": "HOKT",
    "State": "Karnataka",
    "SubRegionCode": "HOKT",
    "VenueAddress": "A Centre, Yelahanka New Town, Behind Sheshadripuram First Grade College, Bengaluru, Karnataka 560064, India",
    "VenueCode": "GTYT",
    "VenueName": "Ganesh Digital 2K Cinema: Yelahanka New Town"
  },
  "HAMD": {
    "AvailableFormats": "2D",
    "City": "Ahmedabad",
    "Latitude": "23.0464",
    "Longitude": "72.5311",
    "RegionCode": "AHD",
    "State": "Gujarat",
    "SubRegionCode": "AHD",
    "VenueAddress": "1A, Himalaya Mall Drive In Road,Gurukul Road, Memnagar, Ahmedabad, Gujarat 380052, India",
    "VenueCode": "HAMD",
    "VenueName": "INOX: Himalaya Mall, Drive In Road, Ahmedabad"
  },
  "HDCN": {
    "AvailableFormats": "",
    "City": "Dimapur",
    "FirstTracked": "2026-07-14",
    "Latitude": "25.910013",
    "Longitude": "93.726585",
    "RegionCode": "DMPR",
    "State": "Nagaland",
    "SubRegionCode": "DMPR",
    "VenueAddress": "Deluxe Point, Anwar Hussain Road, Opposite of Muslim Burial Ground, Dimapur, Nagaland 797112, India",
    "VenueCode": "HDCN",
    "VenueName": "Hillstar Digital Cinema: Dimapur"
  },
  "HHJM": {
    "AvailableFormats": "",
    "City": "Jammikunta",
    "FirstTracked": "2026-07-14",
    "Latitude": "18.285854",
    "Longitude": "79.47386",
    "RegionCode": "JMKN",
    "State": "Telangana",
    "SubRegionCode": "JMKN",
    "VenueAddress": "Huzurabad - Jammikunta Road, Near Jammikunta Railway Flyover Bridge, Jammikunta, Telangana 505122, India",
    "VenueCode": "HHJM",
    "VenueName": "Hari Hara Talkies: Jammikunta"
  },
  "HPVR": {
    "AvailableFormats": "2D|3D",
    "City": "Thane",
    "Latitude": "19.3",
    "Longitude": "73.0649",
    "RegionCode": "MUMBAI",
    "State": "Maharashtra",
    "SubRegionCode": "THNE",
    "VenueAddress": "Kaap Islanpura, Agra Road, Gokul Nagar, Near Bhiwandi Court, Bhiwandi, Thane, Maharashtra 421302, India",
    "VenueCode": "HPVR",
    "VenueName": "PVR: Haseen, Bhiwandi"
  },
  "IAJS": {
    "AvailableFormats": "2D|3D",
    "City": "Gurugram (Gurgaon)",
    "Latitude": "28.392",
    "Longitude": "77.059",
    "RegionCode": "NCR",
    "State": "NCR",
    "SubRegionCode": "GURG",
    "VenueAddress": "INOX Leisure Limited, 3rd Floor, AIPL Joystreet Mall, Sector-66, Gurugram (Gurgaon), NCR 122018, India",
    "VenueCode": "IAJS",
    "VenueName": "INOX: AIPL Joy Street, Gurgaon"
  },
  "IESA": {
    "AvailableFormats": "2D",
    "City": "Satna",
    "Latitude": "24.5749",
    "Longitude": "80.8303",
    "RegionCode": "SATN",
    "State": "Madhya Pradesh",
    "SubRegionCode": "SATN",
    "VenueAddress": "Venus Treasure, 3rd Floor, Near Civil Line over bridge, Behind Circuit House, Satna, Madhya Pradesh 485001, India",
    "VenueCode": "IESA",
    "VenueName": "Imusica Entertainments: Satna"
  },
  "IMCB": {
    "AvailableFormats": "2D",
    "City": "Bengaluru",
    "Latitude": "12.8415",
    "Longitude": "77.6767",
    "RegionCode": "BANG",
    "State": "Karnataka",
    "SubRegionCode": "BANG",
    "VenueAddress": "M5 Ecity Mall, 3rd Floor, Plot No. 1, Veerasandra Industrial Area, Hosur Road, Next to Audi Showroom. Opposite - Electronic City Flyover, Phase II, Electronic City, Bengaluru, Karnataka 560100, India",
    "VenueCode": "IMCB",
    "VenueName": "INOX: M5 Ecity, Bengaluru"
  },
  "IMOB": {
    "AvailableFormats": "2D|IMAX 2D|4DX|3D",
    "City": "Mumbai",
    "Latitude": "19.2218",
    "Longitude": "72.8629",
    "RegionCode": "MUMBAI",
    "State": "Maharashtra",
    "SubRegionCode": "MWEST",
    "VenueAddress": "Oberoi Sky City Mall, Datta Pada Road, Borivali East, Devi Pada Metro Station, Mumbai, Maharashtra 400066, India",
    "VenueCode": "IMOB",
    "VenueName": "INOX Megaplex: Sky City Mall, Borivali"
  },
  "INAP": {
    "AvailableFormats": "2D|3D",
    "City": "Udaipur",
    "Latitude": "24.5863",
    "Longitude": "73.7104",
    "RegionCode": "UDAI",
    "State": "Rajasthan",
    "SubRegionCode": "UDAI",
    "VenueAddress": "5th Floor,Lake City Mall, University Road, Ashok Nagar, Near Porwal Ji Ki Badi, Udaipur, Rajasthan 313001, India",
    "VenueCode": "INAP",
    "VenueName": "INOX: Lake City Mall"
  },
  "INBS": {
    "AvailableFormats": "2D",
    "City": "Jorhat",
    "Latitude": "26.7543",
    "Longitude": "94.2181",
    "RegionCode": "JORT",
    "State": "Assam",
    "SubRegionCode": "JORT",
    "VenueAddress": "4th Floor, ABS Mall, AT Rd, Gar-Ali, Opposite Prince Of Wales, Jorhat, Assam 785001, India",
    "VenueCode": "INBS",
    "VenueName": "INOX: ABS Mall, Jorhat"
  },
  "INER": {
    "AvailableFormats": "2D|3D",
    "City": "Kolkata",
    "Latitude": "22.5386",
    "Longitude": "88.3515",
    "RegionCode": "KOLK",
    "State": "West Bengal",
    "SubRegionCode": "KOLK",
    "VenueAddress": "Lala Lajpat, Rai Sarani, Bhawanipur, Kolkata, West Bengal 700020, India",
    "VenueCode": "INER",
    "VenueName": "INOX: Forum Mall, Elgin Road"
  },
  "INIC": {
    "AvailableFormats": "2D|3D",
    "City": "Indore",
    "Latitude": "22.7181",
    "Longitude": "75.8713",
    "RegionCode": "IND",
    "State": "Madhya Pradesh",
    "SubRegionCode": "IND",
    "VenueAddress": "170,R.N.T. Marg, Regal Square, Flim Colony, South Tukoganj, 4th Floor, Indore Central, Indore, Madhya Pradesh 452001, India",
    "VenueCode": "INIC",
    "VenueName": "INOX: Nexus Indore Central Mall, Regal Square"
  },
  "INMH": {
    "AvailableFormats": "2D|3D",
    "City": "Hyderabad",
    "Latitude": "17.3907",
    "Longitude": "78.4884",
    "RegionCode": "HYD",
    "State": "Telangana",
    "SubRegionCode": "HYD",
    "VenueAddress": "5th Floor, Maheshwari Parmeshwari Mall, Kachiguda Cross Roads, Hyderabad, Telangana 500027, India",
    "VenueCode": "INMH",
    "VenueName": "INOX: Maheshwari Parmeshwari Mall, Kachiguda"
  },
  "INPC": {
    "AvailableFormats": "2D|3D",
    "City": "Chandigarh",
    "Latitude": "30.7527",
    "Longitude": "76.9086",
    "RegionCode": "CHD",
    "State": "Chandigarh",
    "SubRegionCode": "CHD",
    "VenueAddress": "Amravati, Enclave, Chandigarh, Chandigarh 110065, India",
    "VenueCode": "INPC",
    "VenueName": "INOX: NH22 Mall, Amravati Enclave, Panchkula"
  },
  "INRC": {
    "AvailableFormats": "2D|3D|IMAX 2D",
    "City": "Mumbai",
    "Latitude": "19.0994",
    "Longitude": "72.9161",
    "RegionCode": "MUMBAI",
    "State": "Maharashtra",
    "SubRegionCode": "MCENT",
    "VenueAddress": "3rd Floor, R City Mall, Lal Bahadur Shastri Marg, Ghatkopar West, Mumbai, Maharashtra 400086, India",
    "VenueCode": "INRC",
    "VenueName": "INOX: R-City, Ghatkopar"
  },
  "INSE": {
    "AvailableFormats": "2D",
    "City": "Vadodara",
    "Latitude": "22.3229",
    "Longitude": "73.1866",
    "RegionCode": "VAD",
    "State": "Gujarat",
    "SubRegionCode": "VAD",
    "VenueAddress": "4th Floor, Seven Seas Mall, IPCL Circle, Fatehgunj, Jayesh Colony, Vadodara, Gujarat 390002, India",
    "VenueCode": "INSE",
    "VenueName": "Infinity 7 Seas Cinema: Fatehganj"
  },
  "INTO": {
    "AvailableFormats": "2D",
    "City": "Chennai",
    "Latitude": "12.8362",
    "Longitude": "80.2296",
    "RegionCode": "CHEN",
    "State": "Tamil Nadu",
    "SubRegionCode": "CHEN",
    "VenueAddress": "3rd Floor, The Marina Mall, Old Mahabalipuram Road, Egatoor, Navalur, Chennai, Tamil Nadu 603103, India",
    "VenueCode": "INTO",
    "VenueName": "INOX: The Marina Mall, OMR"
  },
  "INVR": {
    "AvailableFormats": "2D|3D",
    "City": "Surat",
    "Latitude": "21.1455",
    "Longitude": "72.7571",
    "RegionCode": "SURT",
    "State": "Gujarat",
    "SubRegionCode": "SURT",
    "VenueAddress": "3rd Floor, VR Mall, Dumas Road, Magdalla, Near Sunglass Hut, Surat, Gujarat 395007, India",
    "VenueCode": "INVR",
    "VenueName": "INOX: VR Mall, Surat"
  },
  "IOMG": {
    "AvailableFormats": "2D|3D",
    "City": "Greater Noida",
    "Latitude": "28.4888",
    "Longitude": "77.5145",
    "RegionCode": "NCR",
    "State": "NCR",
    "SubRegionCode": "GRET",
    "VenueAddress": "INOX Leisure Ltd, 2nd Floor, Omaxe Connaught Place Mall, H Block, Sector Beta- 2, Greater Noida, NCR 201308, India",
    "VenueCode": "IOMG",
    "VenueName": "INOX: Omaxe Connaught Place Mall, Greater Noida"
  },
  "IPMJ": {
    "AvailableFormats": "2D|3D",
    "City": "Delhi",
    "Latitude": "28.5371",
    "Longitude": "77.2831",
    "RegionCode": "NCR",
    "State": "NCR",
    "SubRegionCode": "DELHI",
    "VenueAddress": "3rd Floor, Pacific Mall, Mathura Road, Delhi, NCR 110076, India",
    "VenueCode": "IPMJ",
    "VenueName": "INOX: Pacific Mall, Jasola"
  },
  "ISMG": {
    "AvailableFormats": "3D|2D",
    "City": "Ghaziabad",
    "Latitude": "28.6342",
    "Longitude": "77.3695",
    "RegionCode": "MRDG",
    "State": "NCR",
    "SubRegionCode": "MRDG",
    "VenueAddress": "Shipra Mall, 3rd Floor, Plot No.9, Vaibhav Khand, Indira Puram, Ghaziabad, NCR 201014, India",
    "VenueCode": "ISMG",
    "VenueName": "INOX: Shipra Mall, Ghaziabad"
  },
  "IVNM": {
    "AvailableFormats": "",
    "City": "Hyderabad",
    "Latitude": "17.4946",
    "Longitude": "78.3549",
    "RegionCode": "HYD",
    "State": "Telangana",
    "SubRegionCode": "HYD",
    "VenueAddress": "6th floor, SMR Vinay Metro Mall, Miyapur, Hyderabad, Telangana 500049, India",
    "VenueCode": "IVNM",
    "VenueName": "INOX: SMR Vinay Metro Mall, Dolby ATMOS: Miyapur"
  },
  "JATV": {
    "AvailableFormats": "2D",
    "City": "Vijayawada",
    "Latitude": "16.517",
    "Longitude": "80.6305",
    "RegionCode": "KADU",
    "State": "Andhra Pradesh",
    "SubRegionCode": "KADU",
    "VenueAddress": "Gandhi Nagar, Samba Murty Road, Andhra Pradesh, Vijayawada, Andhra Pradesh 520003, India",
    "VenueCode": "JATV",
    "VenueName": "Jayram Theatre: Vijayawada"
  },
  "JCFF": {
    "AvailableFormats": "2D",
    "City": "Sivaganga",
    "Latitude": "9.84731",
    "Longitude": "78.4901",
    "RegionCode": "SHVG",
    "State": "Tamil Nadu",
    "SubRegionCode": "SHVG",
    "VenueAddress": "No.8, First Floor, Aranmanai Vaasal, Near Bus stand, Sivaganga, Tamil Nadu 630561, India",
    "VenueCode": "JCFF",
    "VenueName": "JB Cinemas Future Films Dolby Atmos: Sivagangai"
  },
  "JCXP": {
    "AvailableFormats": "2D",
    "City": "Jhargram",
    "Latitude": "22.4356",
    "Longitude": "87.0015",
    "RegionCode": "JARG",
    "State": "West Bengal",
    "SubRegionCode": "JARG",
    "VenueAddress": "Munsi Sai Mouza, Old Jhargram, Near Samsan Kali Temple, Jhargram, West Bengal 721507, India",
    "VenueCode": "JCXP",
    "VenueName": "Jhargram Cineplex: Jhargram"
  },
  "JHOL": {
    "AvailableFormats": "2D",
    "City": "Bongaigaon",
    "Latitude": "26.4884",
    "Longitude": "90.5517",
    "RegionCode": "BONG",
    "State": "Assam",
    "SubRegionCode": "BONG",
    "VenueAddress": "3rd Floor Enajori Complex, Bir Chilarai Road, Near Bazar INDIA, Bongaigaon, Assam 783380, India",
    "VenueCode": "JHOL",
    "VenueName": "Jolly Max Cinema: Bongaigaon"
  },
  "JKKC": {
    "AvailableFormats": "2D",
    "City": "Viralimalai",
    "Latitude": "10.5971",
    "Longitude": "78.544",
    "RegionCode": "PUDH",
    "State": "Tamil Nadu",
    "SubRegionCode": "PUDH",
    "VenueAddress": "Maduraimain Road, Viralimalai , Pudukottai, Viralimalai, Tamil Nadu 621316, India",
    "VenueCode": "JKKC",
    "VenueName": "Jothi Theatre A/C 4K 7.1 (Viralimalai): Trichy"
  },
  "JMMA": {
    "AvailableFormats": "2D",
    "City": "Angamaly",
    "Latitude": "10.2254",
    "Longitude": "76.4137",
    "RegionCode": "KLDY",
    "State": "Kerala",
    "SubRegionCode": "KLDY",
    "VenueAddress": "Mookkannoor, Ezhattumugham Road, Josh Mall, Angamaly, Kerala 683577, India",
    "VenueCode": "JMMA",
    "VenueName": "JM Movies Josh Mall: Mookkannoor Angamaly"
  },
  "JRRM": {
    "AvailableFormats": "2D",
    "City": "Rupnagar",
    "Latitude": "30.9548",
    "Longitude": "76.5313",
    "RegionCode": "RUPN",
    "State": "Punjab",
    "SubRegionCode": "RUPN",
    "VenueAddress": "Chandigarh Road, Magror, Rupnagar, Punjab 140001, India",
    "VenueCode": "JRRM",
    "VenueName": "JR Ohri Cinemas: Ropar"
  },
  "JTCK": {
    "AvailableFormats": "2D",
    "City": "Kozhikode",
    "Latitude": "11.2898",
    "Longitude": "75.7751",
    "RegionCode": "KOZH",
    "State": "Kerala",
    "SubRegionCode": "KOZH",
    "VenueAddress": "East Hill, Near Center School, Opposite State Bank of India, Kozhikode, Kerala 673005, India",
    "VenueCode": "JTCK",
    "VenueName": "Regal Cinemas: Kozhikode"
  },
  "JTLT": {
    "AvailableFormats": "2D",
    "City": "Narasannapeta",
    "Latitude": "18.4161",
    "Longitude": "84.0412",
    "RegionCode": "NRPT",
    "State": "Andhra Pradesh",
    "SubRegionCode": "NRPT",
    "VenueAddress": "Maruthi Nagar, Near LIC Office, Narasannapeta, Andhra Pradesh 532421, India",
    "VenueCode": "JTLT",
    "VenueName": "Sri Lakshmi Talkies AC DTS: Narasannapeta"
  },
  "JTNR": {
    "AvailableFormats": "2D",
    "City": "Nagpur",
    "Latitude": "21.1446",
    "Longitude": "79.0903",
    "RegionCode": "NAGP",
    "State": "Maharashtra",
    "SubRegionCode": "NAGP",
    "VenueAddress": "Subhash Road, Cotton Market, Ganeshpeth Colony, Nagpur, Maharashtra 440018, India",
    "VenueCode": "JTNR",
    "VenueName": "Jayshree Cineplex: Nagpur"
  },
  "JTSC": {
    "AvailableFormats": "2D",
    "City": "Vijayawada",
    "Latitude": "16.5132",
    "Longitude": "80.6263",
    "RegionCode": "VIJA",
    "State": "Andhra Pradesh",
    "SubRegionCode": "VIJA",
    "VenueAddress": "Swarnalok Complex, Eluru Rd, Governorpet, Vijayawada, Andhra Pradesh 520002, India",
    "VenueCode": "JTSC",
    "VenueName": "Swarna Multiplex: Vijayawada"
  },
  "JTVK": {
    "AvailableFormats": "2D|3D",
    "City": "Tanuku",
    "Latitude": "16.7597",
    "Longitude": "81.691",
    "RegionCode": "TADP",
    "State": "Andhra Pradesh",
    "SubRegionCode": "TADP",
    "VenueAddress": "NH16, Ngo Colony, Palangi, Near Sri Vijayadurga temple, Tanuku, Andhra Pradesh 534211, India",
    "VenueCode": "JTVK",
    "VenueName": "Sri Venkateswara Complex: Tanuku"
  },
  "JYCM": {
    "AvailableFormats": "2D",
    "City": "Maslandapur",
    "Latitude": "22.8559",
    "Longitude": "88.7447",
    "RegionCode": "MASL",
    "State": "West Bengal",
    "SubRegionCode": "MASL",
    "VenueAddress": "Maslandapur-Tentulia Road, Opposite State Bank of India, Maslandapur, West Bengal 743289, India",
    "VenueCode": "JYCM",
    "VenueName": "Jyoti Cinema: Maslandapur"
  },
  "KACR": {
    "AvailableFormats": "2D",
    "City": "Arambagh",
    "Latitude": "22.8852",
    "Longitude": "87.7866",
    "RegionCode": "AMBH",
    "State": "West Bengal",
    "SubRegionCode": "AMBH",
    "VenueAddress": "SH2, Near Karuna Market, Arambagh, West Bengal 712601, India",
    "VenueCode": "KACR",
    "VenueName": "Karuna Cinema: Arambagh"
  },
  "KATK": {
    "AvailableFormats": "2D",
    "City": "Karunagapally",
    "Latitude": "9.05599",
    "Longitude": "76.5378",
    "RegionCode": "KARG",
    "State": "Kerala",
    "SubRegionCode": "KARG",
    "VenueAddress": "Kottarakkara Road, Karunagappalli, Near Padanayaar Mahadeva Temple, Karunagapally, Kerala 690518, India",
    "VenueCode": "KATK",
    "VenueName": "Krishna A/C 2K Dolby 7.1Karunagappally"
  },
  "KCBI": {
    "AvailableFormats": "3D|2D",
    "City": "Bengaluru",
    "Latitude": "12.9233",
    "Longitude": "77.5533",
    "RegionCode": "HOKT",
    "State": "Karnataka",
    "SubRegionCode": "HOKT",
    "VenueAddress": "No.43/2, 1st Cross, 5th Block, 100 feet Road, Katriguppe, Banashankari 3rd Stage, Near Union Bank Of India ATM, Bengaluru, Karnataka 560085, India",
    "VenueCode": "KCBI",
    "VenueName": "Kamakya 4K Dolby Atmos 3D A/C Cinema: Banashankari"
  },
  "KCMD": {
    "AvailableFormats": "",
    "City": "Vizag",
    "Latitude": "17.7353",
    "Longitude": "83.3175",
    "RegionCode": "VIZA",
    "State": "Andhra Pradesh",
    "SubRegionCode": "VIZA",
    "VenueAddress": "D.No. 53-23-23, Beside Maddilapalem Bus Depot, Visakhapatnam, Vizag, Andhra Pradesh 530013, India",
    "VenueCode": "KCMD",
    "VenueName": "Kameswari & Kinnera AC Laser 4K Maddilapalem:Vizag"
  },
  "KCSV": {
    "AvailableFormats": "2D",
    "City": "Villupuram",
    "Latitude": "12.038",
    "Longitude": "79.544",
    "RegionCode": "VILL",
    "State": "Tamil Nadu",
    "SubRegionCode": "VILL",
    "VenueAddress": "Mailkal street vikiravandi, Opposite to bus stand, Villupuram, Tamil Nadu 605652, India",
    "VenueCode": "KCSV",
    "VenueName": "KA Cinemas A/C: Vikravandi"
  },
  "KDIN": {
    "AvailableFormats": "2D",
    "City": "Indore",
    "Latitude": "22.7127",
    "Longitude": "75.8382",
    "RegionCode": "IND",
    "State": "Madhya Pradesh",
    "SubRegionCode": "IND",
    "VenueAddress": "258, Labriya Bheru, Dhar Road, Near Gangawal Bus Stand, Indore, Madhya Pradesh 452002, India",
    "VenueCode": "KDIN",
    "VenueName": "Kastur Deluxe Theatre: Indore"
  },
  "KICS": {
    "AvailableFormats": "2D",
    "City": "Mulleria",
    "Latitude": "12.5319",
    "Longitude": "75.1562",
    "RegionCode": "KASA",
    "State": "Kerala",
    "SubRegionCode": "KASA",
    "VenueAddress": "Near Kaveri Auditorium, Kadakam, Near Kadakam Business Centre, Mulleria, Kerala 671542, India",
    "VenueCode": "KICS",
    "VenueName": "Kaveri Cinemas A/C DTS Dolby: Karmamthody"
  },
  "KKPE": {
    "AvailableFormats": "2D",
    "City": "Erode",
    "Latitude": "11.1297",
    "Longitude": "77.8609",
    "RegionCode": "KARU",
    "State": "Tamil Nadu",
    "SubRegionCode": "KARU",
    "VenueAddress": "State Highway 172A, Koluthupalayam, Erode, Near Kombanaipudur Bus Stop, Erode, Tamil Nadu 638152, India",
    "VenueCode": "KKPE",
    "VenueName": "Krishna Theatre Dolby 7.1: Koluthupalayam"
  },
  "KLSK": {
    "AvailableFormats": "2D",
    "City": "Kozhikode",
    "Latitude": "11.2586",
    "Longitude": "75.7825",
    "RegionCode": "KOZH",
    "State": "Kerala",
    "SubRegionCode": "KOZH",
    "VenueAddress": "Indira Gandhi Road, Opposite KSRTC Bus Terminal, Tazhekkod, Polpaya Mana, Near Hotel Royal Plaza, Kozhikode, Kerala 673004, India",
    "VenueCode": "KLSK",
    "VenueName": "Kairali Sree Theatre: Kozhikode"
  },
  "KMSV": {
    "AvailableFormats": "",
    "City": "Vadakkencherry",
    "FirstTracked": "2026-07-14",
    "Latitude": "10.589751",
    "Longitude": "76.48151",
    "RegionCode": "VDCY",
    "State": "Kerala",
    "SubRegionCode": "VDCY",
    "VenueAddress": "2nd Floor, KAM Plaza, Main Road, Vadakkencherry, Kerala 678683, India",
    "VenueCode": "KMSV",
    "VenueName": "KAM Movies: Vadakkenchery"
  },
  "KPPP": {
    "AvailableFormats": "2D",
    "City": "Gonda",
    "Latitude": "27.1487",
    "Longitude": "81.9585",
    "RegionCode": "GOND",
    "State": "Uttar Pradesh",
    "SubRegionCode": "GOND",
    "VenueAddress": "27 Circular Road, Veer Pur, Near Arkaan Petroleum, Gonda, Uttar Pradesh 271003, India",
    "VenueCode": "KPPP",
    "VenueName": "Kunwar Nova Cinemaz: Gonda"
  },
  "KRJG": {
    "AvailableFormats": "2D",
    "City": "Jaggampeta",
    "Latitude": "17.1752",
    "Longitude": "82.0621",
    "RegionCode": "JAGG",
    "State": "Andhra Pradesh",
    "SubRegionCode": "JAGG",
    "VenueAddress": "Jaggampeta-Ramavaram Road, Near Bank of Baroda, Jaggampeta, Andhra Pradesh 533435, India",
    "VenueCode": "KRJG",
    "VenueName": "Krishnaveni Theatre: Jaggampeta"
  },
  "KRVN": {
    "AvailableFormats": "",
    "City": "Vrindavan",
    "FirstTracked": "2026-07-14",
    "Latitude": "18.0799",
    "Longitude": "80.8238",
    "RegionCode": "MATH",
    "State": "Uttar Pradesh",
    "SubRegionCode": "MATH",
    "VenueAddress": "Near Srinivas Mobiles, SH 12, Vrindavan, Uttar Pradesh 507133, India",
    "VenueCode": "KRVN",
    "VenueName": "Krishna Funland Cinema: Vrindavan"
  },
  "KSNY": {
    "AvailableFormats": "2D",
    "City": "Cuddalore",
    "Latitude": "11.7467",
    "Longitude": "79.7575",
    "RegionCode": "CUDD",
    "State": "Tamil Nadu",
    "SubRegionCode": "CUDD",
    "VenueAddress": "Imperial Road, Thirupapuliyur, Cuddalore, Tamil Nadu 600001, India",
    "VenueCode": "KSNY",
    "VenueName": "AGS KRISHNALAYA 4K DOLBY ATMOS: CUDDALORE"
  },
  "KTBR": {
    "AvailableFormats": "2D",
    "City": "Boisar",
    "Latitude": "19.7963",
    "Longitude": "72.7523",
    "RegionCode": "DHAU",
    "State": "Maharashtra",
    "SubRegionCode": "DHAU",
    "VenueAddress": "At Saravali S. No. 108, Nawapur Road, Boisar, Maharashtra 401501, India",
    "VenueCode": "KTBR",
    "VenueName": "KT Multivision Cinema: Boisar"
  },
  "KTPC": {
    "AvailableFormats": "3D|2D",
    "City": "Patna",
    "Latitude": "25.5998",
    "Longitude": "85.2214",
    "RegionCode": "PATN",
    "State": "Bihar",
    "SubRegionCode": "PATN",
    "VenueAddress": "Sadar Gali, Khaje Kalan, Khamji Begum Colony, Sadikpur, Patna, Bihar 800008, India",
    "VenueCode": "KTPC",
    "VenueName": "Krishna Talkies: Patna"
  },
  "KYID": {
    "AvailableFormats": "2D",
    "City": "Indore",
    "Latitude": "22.667",
    "Longitude": "75.8225",
    "RegionCode": "IND",
    "State": "Madhya Pradesh",
    "SubRegionCode": "IND",
    "VenueAddress": "Kalyan Cinemas, Kalyan Mall, 340, Sukhnivas Road, Dutt Nagar, Rajendra Nagar, Next to D Mart, Indore, Madhya Pradesh 452012, India",
    "VenueCode": "KYID",
    "VenueName": "Kalyan Cinemas: Rajendra Nagar, Indore"
  },
  "LALK": {
    "AvailableFormats": "2D",
    "City": "Kanpur",
    "Latitude": "26.4401",
    "Longitude": "80.3238",
    "RegionCode": "KANP",
    "State": "Uttar Pradesh",
    "SubRegionCode": "KANP",
    "VenueAddress": "127/401 A, Block S, Kanpur Nagar, Kanpur, Uttar Pradesh 208014, India",
    "VenueCode": "LALK",
    "VenueName": "Lal Palace: Kanpur"
  },
  "LCDA": {
    "AvailableFormats": "2D",
    "City": "Theni",
    "Latitude": "10.1265",
    "Longitude": "77.5375",
    "RegionCode": "THEN",
    "State": "Tamil Nadu",
    "SubRegionCode": "THEN",
    "VenueAddress": "1/348 State Bank Colony, Keelavadakarai, Periyakulam, Theni, Tamil Nadu 625601, India",
    "VenueCode": "LCDA",
    "VenueName": "Lucky Cinemas Dolby Atmos: Periyakulam"
  },
  "LCTM": {
    "AvailableFormats": "2D",
    "City": "Trivandrum",
    "Latitude": "8.48838",
    "Longitude": "76.9519",
    "RegionCode": "VKAL",
    "State": "Kerala",
    "SubRegionCode": "VKAL",
    "VenueAddress": "KSRTC Bus Terminal Complex, Thampanoor, Thiruvananthapuram, Near Ponnara Sreedhar Park, Trivandrum, Kerala 695014, India",
    "VenueCode": "LCTM",
    "VenueName": "Lenin Cinemas 4K 3D Dolby Atmos KSFDC: Trivandrum"
  },
  "LIPP": {
    "AvailableFormats": "",
    "City": "Ottapalam",
    "FirstTracked": "2026-07-14",
    "Latitude": "10.772966",
    "Longitude": "76.37364",
    "RegionCode": "OTTP",
    "State": "Kerala",
    "SubRegionCode": "OTTP",
    "VenueAddress": "Lakshmi Picture Palace, Main Road, Ottapalam, Ottapalam, Kerala 679101, India",
    "VenueCode": "LIPP",
    "VenueName": "Lakshmi Picture Palace"
  },
  "LKSS": {
    "AvailableFormats": "",
    "City": "Piduguralla",
    "FirstTracked": "2026-07-14",
    "Latitude": "16.48022",
    "Longitude": "79.89127",
    "RegionCode": "PIDU",
    "State": "Andhra Pradesh",
    "SubRegionCode": "PIDU",
    "VenueAddress": "Jayalakshmi Picture Palace, Tangeda Road, Piduguralla, Andhra Pradesh 522413, India",
    "VenueCode": "LKSS",
    "VenueName": "Lakshmi Srinivasa Pictures A/C: Piduguralla"
  },
  "LMCR": {
    "AvailableFormats": "2D",
    "City": "Rohtak",
    "Latitude": "28.8906",
    "Longitude": "76.6042",
    "RegionCode": "ROH",
    "State": "Haryana",
    "SubRegionCode": "ROH",
    "VenueAddress": "Liberty Theatre, Delhi Road, Rohtak, Haryana 124001, India",
    "VenueCode": "LMCR",
    "VenueName": "Liberty Mycinemas: Rohtak"
  },
  "LRCP": {
    "AvailableFormats": "2D",
    "City": "Rampachodavaram",
    "Latitude": "17.439",
    "Longitude": "81.7737",
    "RegionCode": "RACD",
    "State": "Andhra Pradesh",
    "SubRegionCode": "RACD",
    "VenueAddress": "Rajahmundry - Bhadrachalam Highway, Near Tea Turn, Rampachodavaram, Andhra Pradesh 533288, India",
    "VenueCode": "LRCP",
    "VenueName": "Lalitha Talkies 2K A/C DTS: Rampachodavaram"
  },
  "LUCP": {
    "AvailableFormats": "2D",
    "City": "Petlad",
    "Latitude": "22.4641",
    "Longitude": "72.7938",
    "RegionCode": "BORM",
    "State": "Gujarat",
    "SubRegionCode": "BORM",
    "VenueAddress": "3rd Floor Yogi Icon, GJ SH 89, Shekhadi, Near Nayara Petrol Pump, Petlad, Gujarat 388450, India",
    "VenueCode": "LUCP",
    "VenueName": "The Lux Cinema: Petlad"
  },
  "M2RH": {
    "AvailableFormats": "2D|3D",
    "City": "Delhi",
    "Latitude": "28.7012",
    "Longitude": "77.1168",
    "RegionCode": "NCR",
    "State": "NCR",
    "SubRegionCode": "DELHI",
    "VenueAddress": "16 Mangalam Place District Centre, Sector-3 Rohini, Opposite Laxmi Vilas Bank, Delhi, NCR 110085, India",
    "VenueCode": "M2RH",
    "VenueName": "M2K: Rohini"
  },
  "MACK": {
    "AvailableFormats": "2D",
    "City": "Kasaragod",
    "Latitude": "12.5063",
    "Longitude": "74.99",
    "RegionCode": "KASA",
    "State": "Kerala",
    "SubRegionCode": "KASA",
    "VenueAddress": "AT Road, Dwaraka Nagar, Kasaragod, Near Kerala State Electricity Board, Kasaragod, Kerala 671121, India",
    "VenueCode": "MACK",
    "VenueName": "Moviemax Circle: Kasaragod"
  },
  "MAHB": {
    "AvailableFormats": "2D",
    "City": "Bhadrak",
    "Latitude": "21.0683",
    "Longitude": "86.466",
    "RegionCode": "BHAD",
    "State": "Odisha",
    "SubRegionCode": "BHAD",
    "VenueAddress": "State Highway 53, Near Randia Children Park, Behind Tarini Temple, Bhadrak, Odisha 756113, India",
    "VenueCode": "MAHB",
    "VenueName": "Madhab Cinema Hall: Bhadrak"
  },
  "MANU": {
    "AvailableFormats": "",
    "City": "Chhatrapati Sambhajinagar (Aurangabad)",
    "FirstTracked": "2026-07-14",
    "Latitude": "19.875738",
    "Longitude": "75.35421",
    "RegionCode": "AURA",
    "State": "Maharashtra",
    "SubRegionCode": "AURA",
    "VenueAddress": "Nupur Cinetorium, 7 Hills Jalna Road, Near Fire Brigade Office, Chhatrapati Sambhajinagar (Aurangabad), Maharashtra 431003, India",
    "VenueCode": "MANU",
    "VenueName": "Mukta A2 Cinemas:Nupur, Chhatrapati Sambhaji Nagar"
  },
  "MATN": {
    "AvailableFormats": "2D|3D",
    "City": "Ahmedabad",
    "Latitude": "23.0145",
    "Longitude": "72.5174",
    "RegionCode": "AHD",
    "State": "Gujarat",
    "SubRegionCode": "AHD",
    "VenueAddress": "Ratnanjali Infra LLP, 2nd Floor, 208 To 215, Ratnanjali Square, Near Gloriya Restaurant, Prerna Tirth Road, Prahladnagar, Ahmedabad, Gujarat 380015, India",
    "VenueCode": "MATN",
    "VenueName": "Mukta A2 Cinemas: Ratnanjali Square Satellite"
  },
  "MBBR": {
    "AvailableFormats": "2D",
    "City": "Rajakumari",
    "Latitude": "9.9686",
    "Longitude": "77.1495",
    "RegionCode": "RAAJ",
    "State": "Kerala",
    "SubRegionCode": "RAAJ",
    "VenueAddress": "X49X+CQX, Murikkumthotti - Senapathy, Vattapara Udumbanchola Road, Rajakumari, Kerala 685619, India",
    "VenueCode": "MBBR",
    "VenueName": "MAR Basil EVM Theatre: Rajakumari"
  },
  "MCAA": {
    "AvailableFormats": "2D|3D",
    "City": "Ulhasnagar",
    "Latitude": "19.2251",
    "Longitude": "73.1642",
    "RegionCode": "MUMBAI",
    "State": "Maharashtra",
    "SubRegionCode": "ULHA",
    "VenueAddress": "Ramayan Nagar, Ulhasnagar No. 3, Kalyan Ambarnath Road, Near Indian Bank, Ulhasnagar, Maharashtra 421002, India",
    "VenueCode": "MCAA",
    "VenueName": "Ashok Anil Multiplex, Miraj Cinemas: Ulhasnagar"
  },
  "MCCM": {
    "AvailableFormats": "",
    "City": "Pathankot",
    "FirstTracked": "2026-07-14",
    "Latitude": "32.272804",
    "Longitude": "75.65372",
    "RegionCode": "PATH",
    "State": "Punjab",
    "SubRegionCode": "PATH",
    "VenueAddress": "City Centre, Dalhousie Road, Pathankot, Punjab 145001, India",
    "VenueCode": "MCCM",
    "VenueName": "Miraj Cinemas: City Centre Mall, Pathankot"
  },
  "MCFD": {
    "AvailableFormats": "2D",
    "City": "Thalassery",
    "Latitude": "11.7452",
    "Longitude": "75.4955",
    "RegionCode": "THAY",
    "State": "Kerala",
    "SubRegionCode": "THAY",
    "VenueAddress": "Jubilee Road, Pilakool, Thalassery, Kerala 670101, India",
    "VenueCode": "MCFD",
    "VenueName": "Magic Frames Downtown Mall: Thalassery"
  },
  "MCGZ": {
    "AvailableFormats": "",
    "City": "Ghaziabad",
    "FirstTracked": "2026-07-14",
    "Latitude": "28.654917",
    "Longitude": "77.43575",
    "RegionCode": "MRDG",
    "State": "NCR",
    "SubRegionCode": "MRDG",
    "VenueAddress": "19, GT Road, Chaudhary Mall, Gandhi Nagar, Nehru Nagar III, Near Hotel Royal Palace, Ghaziabad, NCR 201001, India",
    "VenueCode": "MCGZ",
    "VenueName": "Miraj Chaudhary Cinemas: Ghaziabad"
  },
  "MCJR": {
    "AvailableFormats": "2D",
    "City": "Janjgir",
    "Latitude": "22.0112",
    "Longitude": "82.5834",
    "RegionCode": "JANR",
    "State": "Chhattisgarh",
    "SubRegionCode": "JANR",
    "VenueAddress": "Link Road, Old Chandaniya Para, Janjgir, Chhattisgarh 495668, India",
    "VenueCode": "MCJR",
    "VenueName": "Metro Cinema(Dolby 7.1 sound): Janjgir Naila"
  },
  "MCMJ": {
    "AvailableFormats": "2D",
    "City": "Rajkot",
    "Latitude": "22.2795",
    "Longitude": "70.7632",
    "RegionCode": "RAJK",
    "State": "Gujarat",
    "SubRegionCode": "RAJK",
    "VenueAddress": "2nd Floor, Crystal Mall, Kalawad Road, Rajkot, Gujarat 360005, India",
    "VenueCode": "MCMJ",
    "VenueName": "MOVIE TIME: Crystal Mall"
  },
  "MCPT": {
    "AvailableFormats": "",
    "City": "Sitapur",
    "FirstTracked": "2026-07-14",
    "Latitude": "27.57371",
    "Longitude": "80.660995",
    "RegionCode": "SITA",
    "State": "Uttar Pradesh",
    "SubRegionCode": "SITA",
    "VenueAddress": "Penguin Tower, 1st Floor, Chungi Choraha, Hardoi Road, Sitapur, Uttar Pradesh 261001, India",
    "VenueCode": "MCPT",
    "VenueName": "Miraj Cinemas: Penguin Tower, Sitapur"
  },
  "MCSN": {
    "AvailableFormats": "",
    "City": "Sonipat",
    "FirstTracked": "2026-07-14",
    "Latitude": "28.9969",
    "Longitude": "77.02605",
    "RegionCode": "RAIH",
    "State": "Haryana",
    "SubRegionCode": "RAIH",
    "VenueAddress": "3rd Floor, City Mall, Bawa Tarana Road, Adarsh Nagar, Sonipat, Haryana 131001, India",
    "VenueCode": "MCSN",
    "VenueName": "Miraj Cinemas: Sonipat"
  },
  "MCTY": {
    "AvailableFormats": "2D|3D",
    "City": "Indore",
    "Latitude": "22.7451",
    "Longitude": "75.9038",
    "RegionCode": "IND",
    "State": "Madhya Pradesh",
    "SubRegionCode": "IND",
    "VenueAddress": "Miraj Velocity Multiplex, Scheme 94C, Ring Road Indore, Near Radisson Hotel, Indore, Madhya Pradesh 452010, India",
    "VenueCode": "MCTY",
    "VenueName": "Velocity III: Miraj Cinemas, Indore"
  },
  "MDGD": {
    "AvailableFormats": "",
    "City": "Gurugram (Gurgaon)",
    "FirstTracked": "2026-07-14",
    "Latitude": "28.424637",
    "Longitude": "76.93061",
    "RegionCode": "NCR",
    "State": "NCR",
    "SubRegionCode": "GURG",
    "VenueAddress": "Newtown Square, Sector 95A Gurgaon, Sector 95A, Gurugram (Gurgaon), NCR 122505, India",
    "VenueCode": "MDGD",
    "VenueName": "Mad Cinemas: Gurgaon"
  },
  "MEEN": {
    "AvailableFormats": "2D",
    "City": "Coimbatore",
    "Latitude": "11.0831",
    "Longitude": "77.186",
    "RegionCode": "COIM",
    "State": "Tamil Nadu",
    "SubRegionCode": "COIM",
    "VenueAddress": "Somanur Rd,Bharathiyar Nagar, Somanur,Tamil Nadu, Coimbatore, Tamil Nadu 641668, India",
    "VenueCode": "MEEN",
    "VenueName": "Meenambiga Cinemas A/C 2K DOLBY ATMOS: Somanur"
  },
  "MERM": {
    "AvailableFormats": "2D",
    "City": "Noida",
    "Latitude": "28.5608",
    "Longitude": "77.3565",
    "RegionCode": "NCR",
    "State": "NCR",
    "SubRegionCode": "NOIDA",
    "VenueAddress": "4th Floor, R Cube Monad Mall, Block A, Sector 43, Noida, NCR 201303, India",
    "VenueCode": "MERM",
    "VenueName": "MovieMax Edition (Luxe): Rcube Monad Mall, Noida"
  },
  "MHCK": {
    "AvailableFormats": "2D|3D",
    "City": "Koraput",
    "Latitude": "18.8263",
    "Longitude": "82.7004",
    "RegionCode": "KOPT",
    "State": "Odisha",
    "SubRegionCode": "KOPT",
    "VenueAddress": "Megha Township, Manabar, Unnamed Road, Koraput, Odisha 764020, India",
    "VenueCode": "MHCK",
    "VenueName": "Meghraj Cinemaz: Koraput"
  },
  "MIFU": {
    "AvailableFormats": "3D|2D",
    "City": "Ulhasnagar",
    "Latitude": "19.226",
    "Longitude": "73.1657",
    "RegionCode": "MUMBAI",
    "State": "Maharashtra",
    "SubRegionCode": "ULHA",
    "VenueAddress": "Plot no.93, Sector 6A Ambarnath Road, Victory Ice Factory Compound, Press Bazaar, Ulhasnagar, Maharashtra 421003, India",
    "VenueCode": "MIFU",
    "VenueName": "Funcity Big Cinemas: Ulhasnagar"
  },
  "MJDG": {
    "AvailableFormats": "2D",
    "City": "Shivamogga",
    "Latitude": "13.9239",
    "Longitude": "75.5756",
    "RegionCode": "SHIA",
    "State": "Karnataka",
    "SubRegionCode": "SHIA",
    "VenueAddress": "K.R.Puram, Mahakavi Kalidasa Road, Gandhi Bazar, Shivamogga, Karnataka 577202, India",
    "VenueCode": "MJDG",
    "VenueName": "Manjunatha Digital 2K Cinema: Shivamogga"
  },
  "MKML": {
    "AvailableFormats": "2D",
    "City": "Pune",
    "Latitude": "18.5437",
    "Longitude": "73.9088",
    "RegionCode": "PUNE",
    "State": "Maharashtra",
    "SubRegionCode": "PUNE",
    "VenueAddress": "Marigold Complex, Kalyani Nagar, Pune, Maharashtra 411006, India",
    "VenueCode": "MKML",
    "VenueName": "MovieMax Gold: Mariplex Mall, Kalyani Nagar"
  },
  "MLCK": {
    "AvailableFormats": "2D",
    "City": "Shoranur",
    "Latitude": "10.7603",
    "Longitude": "76.2736",
    "RegionCode": "SHNR",
    "State": "Kerala",
    "SubRegionCode": "SHNR",
    "VenueAddress": "Shoranur Ring Road, Railway Station Junction, Shoranur, Kerala 679121, India",
    "VenueCode": "MLCK",
    "VenueName": "M Lal, Aashirvad Cineplexx: Shoranur"
  },
  "MMCA": {
    "AvailableFormats": "3D|2D",
    "City": "Hyderabad",
    "Latitude": "17.4956",
    "Longitude": "78.3533",
    "RegionCode": "HYD",
    "State": "Telangana",
    "SubRegionCode": "HYD",
    "VenueAddress": "Cinetown, Survey No. 71, Miyapur Village Ranga Reddy, Hyderabad, Telangana 500049, India",
    "VenueCode": "MMCA",
    "VenueName": "Miraj Cinemas: CineTown, Miyapur"
  },
  "MMHA": {
    "AvailableFormats": "3D|2D",
    "City": "Mumbai",
    "Latitude": "19.1287",
    "Longitude": "72.926",
    "RegionCode": "MUMBAI",
    "State": "Maharashtra",
    "SubRegionCode": "MCENT",
    "VenueAddress": "Huma Mall, LBS Road, Kanjurmarg (W), Near Kanjurmarg Railway Station, Mumbai, Maharashtra 400078, India",
    "VenueCode": "MMHA",
    "VenueName": "MovieMax: Huma, Kanjurmarg"
  },
  "MMMZ": {
    "AvailableFormats": "",
    "City": "Chickmagaluru",
    "FirstTracked": "2026-07-14",
    "Latitude": "13.3173",
    "Longitude": "75.7707",
    "RegionCode": "CHKA",
    "State": "Karnataka",
    "SubRegionCode": "CHKA",
    "VenueAddress": "KM Road, Next to bus stand, Kadur, Chickmagaluru, Karnataka 577101, India",
    "VenueCode": "MMMZ",
    "VenueName": "Milan Theatre: Chickmagaluru"
  },
  "MMTA": {
    "AvailableFormats": "2D",
    "City": "Kochi",
    "Latitude": "10.1072",
    "Longitude": "76.3603",
    "RegionCode": "PALY",
    "State": "Kerala",
    "SubRegionCode": "PALY",
    "VenueAddress": "Periyar Nagar, T2/10, Perumbavoor Aluva Road, Near ICICI Bank, Kochi, Kerala 683101, India",
    "VenueCode": "MMTA",
    "VenueName": "Matha Madhurya RGB Laser 3D Dolby Atmos: Aluva"
  },
  "MMZG": {
    "AvailableFormats": "",
    "City": "Ghaziabad",
    "FirstTracked": "2026-07-14",
    "Latitude": "28.6466",
    "Longitude": "77.3201",
    "RegionCode": "NCR",
    "State": "NCR",
    "SubRegionCode": "GHAZ",
    "VenueAddress": "MovieMax, Pacific Mall, Site 4 Sahibabad Industrial Area, Ghaziabad, NCR 201010, India",
    "VenueCode": "MMZG",
    "VenueName": "MovieMax: Pacific Mall Ghaziabad"
  },
  "MNPP": {
    "AvailableFormats": "2D",
    "City": "Hospet",
    "Latitude": "15.2721",
    "Longitude": "76.3926",
    "RegionCode": "HOSP",
    "State": "Karnataka",
    "SubRegionCode": "HOSP",
    "VenueAddress": "Takka Street, Bukka Road, Opposite New Rexine House, Hospet, Karnataka 583201, India",
    "VenueCode": "MNPP",
    "VenueName": "Meeralam Nawaz Picture Palace: Hospet"
  },
  "MPTN": {
    "AvailableFormats": "2D",
    "City": "Nandyal",
    "Latitude": "15.4857",
    "Longitude": "78.4871",
    "RegionCode": "NADY",
    "State": "Andhra Pradesh",
    "SubRegionCode": "NADY",
    "VenueAddress": "Atmakur Road, Telugu Peta, Near NTR Shopping Complex, Nandyal, Andhra Pradesh 518501, India",
    "VenueCode": "MPTN",
    "VenueName": "Mini Prathap A/C DTS: Nandyal"
  },
  "MRGK": {
    "AvailableFormats": "2D",
    "City": "Karwar",
    "Latitude": "14.8083",
    "Longitude": "74.1314",
    "RegionCode": "KWAR",
    "State": "Karnataka",
    "SubRegionCode": "KWAR",
    "VenueAddress": "Kaikini Road, Konekar Wada, Next to Bolas The Factory Outlet, Karwar, Karnataka 581301, India",
    "VenueCode": "MRGK",
    "VenueName": "Miraj Cinemas: Geetanjali, Karwar"
  },
  "MRSS": {
    "AvailableFormats": "2D",
    "City": "Changaramkulam",
    "Latitude": "10.7363",
    "Longitude": "76.029",
    "RegionCode": "EDPL",
    "State": "Kerala",
    "SubRegionCode": "EDPL",
    "VenueAddress": "Kunnamkulam Road, Changaramkulam, Opposite essar pterol pump, Changaramkulam, Kerala 679591, India",
    "VenueCode": "MRSS",
    "VenueName": "Mars Cinemas 4K Dolby Atmos: Changaramkulam"
  },
  "MSDR": {
    "AvailableFormats": "",
    "City": "Madanapalle",
    "FirstTracked": "2026-07-14",
    "Latitude": "13.55864",
    "Longitude": "78.50057",
    "RegionCode": "MDNP",
    "State": "Andhra Pradesh",
    "SubRegionCode": "MDNP",
    "VenueAddress": "Krishna Nagar, Marpuri Steet Road, Madanapalle, Andhra Pradesh 517325, India",
    "VenueCode": "MSDR",
    "VenueName": "Mini Siddartha 2K A/c Digital Surround:Madanapalle"
  },
  "MTAR": {
    "AvailableFormats": "2D",
    "City": "Rajgangpur",
    "Latitude": "22.1913",
    "Longitude": "84.5893",
    "RegionCode": "RJGR",
    "State": "Odisha",
    "SubRegionCode": "RJGR",
    "VenueAddress": "Subhas Chowk, R.G.P Main Road, Near DHP Shah Hindustan Petrol Pump, Rajgangpur, Odisha 770017, India",
    "VenueCode": "MTAR",
    "VenueName": "Milan Talkies: Rajgangpur"
  },
  "MTCV": {
    "AvailableFormats": "",
    "City": "Gurugram (Gurgaon)",
    "FirstTracked": "2026-07-14",
    "Latitude": "28.5364",
    "Longitude": "77.0185",
    "RegionCode": "NCR",
    "State": "NCR",
    "SubRegionCode": "GURG",
    "VenueAddress": "2nd Floor, VSR Avenue Sector 114, Gurugram (Gurgaon), NCR 122017, India",
    "VenueCode": "MTCV",
    "VenueName": "Movietime Cinema: VSR 114 Avenue Sec 114 Gurgaon"
  },
  "MTKT": {
    "AvailableFormats": "",
    "City": "Tirupur",
    "FirstTracked": "2026-07-14",
    "Latitude": "11.273499",
    "Longitude": "77.41322",
    "RegionCode": "TIRP",
    "State": "Tamil Nadu",
    "SubRegionCode": "TIRP",
    "VenueAddress": "Kunnathur, Tirupur, Tamil Nadu, Near SV Hospital, Tirupur, Tamil Nadu 638103, India",
    "VenueCode": "MTKT",
    "VenueName": "Mohan Theatre: Kunnathur"
  },
  "MTPP": {
    "AvailableFormats": "3D|2D",
    "City": "Delhi",
    "Latitude": "28.7058",
    "Longitude": "77.1428",
    "RegionCode": "NCR",
    "State": "NCR",
    "SubRegionCode": "DELHI",
    "VenueAddress": "1st Floor, North Pacific Mall, KP Block Pitampura, Near Hotel City Park, Delhi, NCR 110088, India",
    "VenueCode": "MTPP",
    "VenueName": "Movietime Cinemas: Pitampura"
  },
  "MUAA": {
    "AvailableFormats": "",
    "City": "Hyderabad",
    "FirstTracked": "2026-07-14",
    "Latitude": "17.385727",
    "Longitude": "78.47715",
    "RegionCode": "AUSH",
    "State": "Telangana",
    "SubRegionCode": "AUSH",
    "VenueAddress": "Ramakrishna 35mm, JN Road, Abids, Hyderabad, Telangana 500001, India",
    "VenueCode": "MUAA",
    "VenueName": "Mukta A2 Cinemas, Ramakrishna: Abids"
  },
  "MVEX": {
    "AvailableFormats": "",
    "City": "Balasore",
    "FirstTracked": "2026-07-14",
    "Latitude": "21.560041",
    "Longitude": "86.98362",
    "RegionCode": "BLSR",
    "State": "Odisha",
    "SubRegionCode": "BLSR",
    "VenueAddress": "Maa Ambica Enterprises, O.T. Road, Near HP Petrol Pump, Balasore, Odisha 756003, India",
    "VenueCode": "MVEX",
    "VenueName": "MovieEX Cinema: Balasore"
  },
  "MXCB": {
    "AvailableFormats": "",
    "City": "Bikaner",
    "FirstTracked": "2026-07-14",
    "Latitude": "27.99357",
    "Longitude": "73.32065",
    "RegionCode": "BIK",
    "State": "Rajasthan",
    "SubRegionCode": "BIK",
    "VenueAddress": "Road No 5, Agarsen Nagar, Rani Bazar, Kishmideshar, Near Industrial Area, Bikaner, Rajasthan 334001, India",
    "VenueCode": "MXCB",
    "VenueName": "MovieMax: Cinemagic, Bikaner"
  },
  "MYCP": {
    "AvailableFormats": "2D",
    "City": "Gorakhpur",
    "Latitude": "26.747",
    "Longitude": "83.3562",
    "RegionCode": "GRKP",
    "State": "Uttar Pradesh",
    "SubRegionCode": "GRKP",
    "VenueAddress": "Bade Kajipur, Geeta Press Road, Near Kothe Wali Masjid, Gorakhpur, Uttar Pradesh 273005, India",
    "VenueCode": "MYCP",
    "VenueName": "Maya Cineplex: Gorakhpur"
  },
  "MYTK": {
    "AvailableFormats": "2D",
    "City": "Morena",
    "Latitude": "26.4965",
    "Longitude": "77.9884",
    "RegionCode": "MRMP",
    "State": "Madhya Pradesh",
    "SubRegionCode": "MRMP",
    "VenueAddress": "H B Colony, Nainagarh Road, Nearby B.N Garden, Morena, Madhya Pradesh 476001, India",
    "VenueCode": "MYTK",
    "VenueName": "Mayur Talkies: Morena"
  },
  "NAMD": {
    "AvailableFormats": "2D",
    "City": "Ahmedabad",
    "Latitude": "23.0326",
    "Longitude": "72.5083",
    "RegionCode": "AHD",
    "State": "Gujarat",
    "SubRegionCode": "AHD",
    "VenueAddress": "Ground and First Floor, Block O, Mondeal Retail Park, S G Road, Ahmedabad, Gujarat 380059, India",
    "VenueCode": "NAMD",
    "VenueName": "1,Newfangled Miniplex (Twin Seat): Mondeal Park"
  },
  "NCHJ": {
    "AvailableFormats": "2D",
    "City": "Hajipur",
    "Latitude": "25.6942",
    "Longitude": "85.215",
    "RegionCode": "HAJI",
    "State": "Bihar",
    "SubRegionCode": "HAJI",
    "VenueAddress": "Ram Balak Chowk, Naveen Cinema Road, JP Colony, Yadav Nagar, Near Commmunity Hall, Hajipur, Bihar 844101, India",
    "VenueCode": "NCHJ",
    "VenueName": "Navin Cinema: Hajipur"
  },
  "NCPM": {
    "AvailableFormats": "2D",
    "City": "Parbhani",
    "Latitude": "19.2664",
    "Longitude": "76.7624",
    "RegionCode": "PARB",
    "State": "Maharashtra",
    "SubRegionCode": "PARB",
    "VenueAddress": "National Highway 222, Masoom Colony, Jintoor Road, Parbhani, Maharashtra 431401, India",
    "VenueCode": "NCPM",
    "VenueName": "Naresh Cineplex: Parbhani"
  },
  "NEDD": {
    "AvailableFormats": "2D",
    "City": "Dehradun",
    "Latitude": "30.3265",
    "Longitude": "78.0434",
    "RegionCode": "DEH",
    "State": "Uttarakhand",
    "SubRegionCode": "DEH",
    "VenueAddress": "Rajpur Road, Gandhi Park, Chukkuwala, Near Police Station, Dehradun, Uttarakhand 248001, India",
    "VenueCode": "NEDD",
    "VenueName": "FUN Cinemas New Empire: Dehradun"
  },
  "NJCJ": {
    "AvailableFormats": "2D|3D",
    "City": "Jhansi",
    "Latitude": "25.4482",
    "Longitude": "78.567",
    "RegionCode": "JNSI",
    "State": "Uttar Pradesh",
    "SubRegionCode": "JNSI",
    "VenueAddress": "Civil Lines, Shivpuri - Jhansi Road, Jhansi, Uttar Pradesh 284001, India",
    "VenueCode": "NJCJ",
    "VenueName": "Nataraj Cinema: Jhansi"
  },
  "NMAD": {
    "AvailableFormats": "2D",
    "City": "Ahmedabad",
    "Latitude": "23.1023",
    "Longitude": "72.5945",
    "RegionCode": "AHD",
    "State": "Gujarat",
    "SubRegionCode": "AHD",
    "VenueAddress": "312, 3 Floor, North Plaza, Motera, Near 4D Square Mall, Ahmedabad, Gujarat 380005, India",
    "VenueCode": "NMAD",
    "VenueName": "2,Newfangled Miniplex (Twin Seat): Motera"
  },