{
  "AAAS": {
    "AvailableFormats": "2D|3D",
    "City": "Mumbai",
    "Latitude": "19.2289",
    "Longitude": "72.8542",
    "RegionCode": "MUMBAI",
    "State": "Maharashtra",
    "SubRegionCode": "MWEST",
    "VenueAddress": "4th Floor, Ajanta Square Mall, Lokmanya Tilak Road, Borivali West, Mumbai, Maharashtra 400092, India",
    "VenueCode": "AAAS",
    "VenueName": "Ajanta Cinema Cinex: Borivali (W) Newly Renovated"
  },
  "AADS": {
    "AvailableFormats": "",
    "City": "Kadapa",
    "FirstTracked": "2026-07-14",
    "Latitude": "14.47639",
    "Longitude": "78.83806",
    "RegionCode": "KDPA",
    "State": "Andhra Pradesh",
    "SubRegionCode": "KDPA",
    "VenueAddress": "Kadapa - Tirupati Road, Chinna Chowk, Near Apoorva Wedding Function Hall and Auditorium, Kadapa, Andhra Pradesh 516002, India",
    "VenueCode": "AADS",
    "VenueName": "Apsara A/C 4k Dolby Atmos: Kadapa"
  },
  "AATR": {
    "AvailableFormats": "2D",
    "City": "Erode",
    "Latitude": "11.3326",
    "Longitude": "77.7284",
    "RegionCode": "EROD",
    "State": "Tamil Nadu",
    "SubRegionCode": "EROD",
    "VenueAddress": "Balasubrayalu Street, Surampattivalasu, Near Erode Fire Service, Erode, Tamil Nadu 638001, India",
    "VenueCode": "AATR",
    "VenueName": "Aanoor Theatre A/C Dolby Atmos: Erode"
  },
  "ABDD": {
    "AvailableFormats": "",
    "City": "Durgapur",
    "FirstTracked": "2026-07-23",
    "Latitude": "23.55626",
    "Longitude": "87.27449",
    "RegionCode": "DURGA",
    "State": "West Bengal",
    "SubRegionCode": "DURGA",
    "VenueAddress": "Fortune Plaza, 5th Floor, Ananda Gopal Mukherjee Sarani Road, Above Reliance Digital, Near Bhiringi Kali Mandir, Benachity, Durgapur, West Bengal 713213, India",
    "VenueCode": "ABDD",
    "VenueName": "Arti Cinemas, above Pantaloons: Benachity"
  },
  "ACAM": {
    "AvailableFormats": "2D",
    "City": "Ambala",
    "Latitude": "30.3786",
    "Longitude": "76.7636",
    "RegionCode": "AMB",
    "State": "Haryana",
    "SubRegionCode": "AMB",
    "VenueAddress": "City Plaza, 947, Citi Mall, NH 152, Patti Mehar, Ambala, Haryana 134003, India",
    "VenueCode": "ACAM",
    "VenueName": "Ayaan Cinemas: Ambala"
  },
  "ACEV": {
    "AvailableFormats": "2D",
    "City": "Hyderabad",
    "Latitude": "17.338",
    "Longitude": "78.5678",
    "RegionCode": "HYD",
    "State": "Telangana",
    "SubRegionCode": "HYD",
    "VenueAddress": "Door. No.5-5-185 and 5-5-186,Sy.No.53 and 56, 4th Floor, TATTVA MALL, Vanasthalipuram, Saheb Nagar Khurd, Hyderabad, Telangana 500070, India",
    "VenueCode": "ACEV",
    "VenueName": "ART CINEMAS: Vanasthalipuram"
  },
  "ACJC": {
    "AvailableFormats": "",
    "City": "Jalgaon",
    "FirstTracked": "2026-07-14",
    "Latitude": "21.013231",
    "Longitude": "75.56891",
    "RegionCode": "JALG",
    "State": "Maharashtra",
    "SubRegionCode": "JALG",
    "VenueAddress": "Bazaar Post Office Road, Behind Juna Bus Stand, Polan Peth, Shahunagar, Jalgaon, Maharashtra 425001, India",
    "VenueCode": "ACJC",
    "VenueName": "Ashok Cinema: Jalgaon"
  },
  "ACMG": {
    "AvailableFormats": "2D",
    "City": "Maharajganj",
    "Latitude": "27.1334",
    "Longitude": "83.5203",
    "RegionCode": "RAJG",
    "State": "Uttar Pradesh",
    "SubRegionCode": "RAJG",
    "VenueAddress": "Plot No 188, Mahuawa, NPP Maharajganj, Maharajganj, Uttar Pradesh 273303, India",
    "VenueCode": "ACMG",
    "VenueName": "Anant Cineplex: Maharajganj"
  },
  "ACPM": {
    "AvailableFormats": "2D",
    "City": "Hyderabad",
    "Latitude": "17.4676",
    "Longitude": "78.4282",
    "RegionCode": "HYD",
    "State": "Telangana",
    "SubRegionCode": "HYD",
    "VenueAddress": "Street Number 4, SP Nagar, Bharat Nagar,Moosapet, Opposite Sri Ramulu Theatre, Hyderabad, Telangana 500018, India",
    "VenueCode": "ACPM",
    "VenueName": "Asian Lakshmikala Cinepride: Moosapet"
  },
  "ACTV": {
    "AvailableFormats": "2D",
    "City": "Vellore",
    "Latitude": "12.9614",
    "Longitude": "79.1366",
    "RegionCode": "RANI",
    "State": "Tamil Nadu",
    "SubRegionCode": "RANI",
    "VenueAddress": "No 372, Bharathi Nagar, Bharathi Nagar, Katpadi, Vellore, Opposite Indian Overseas Bank, Vellore, Tamil Nadu 632007, India",
    "VenueCode": "ACTV",
    "VenueName": "AASCARS CINEMAS 4K DOLBY 7.1"
  },
  "ACXN": {
    "AvailableFormats": "2D",
    "City": "Nellimoodu",
    "Latitude": "8.38241",
    "Longitude": "77.04",
    "RegionCode": "TRIV",
    "State": "Kerala",
    "SubRegionCode": "TRIV",
    "VenueAddress": "Vizhinjam, Uchakkada Road, Nellimoodu, Kerala 695524, India",
    "VenueCode": "ACXN",
    "VenueName": "Anu Cinemax 4K Atmos: Neyyattinkara, Nellimoodu"
  },
  "ADMB": {
    "AvailableFormats": "",
    "City": "Dhule",
    "FirstTracked": "2026-07-14",
    "Latitude": "20.89633",
    "Longitude": "74.775505",
    "RegionCode": "DHLE",
    "State": "Maharashtra",
    "SubRegionCode": "DHLE",
    "VenueAddress": "Opp. Shriram Petrol Pump, Agra Road, Dhule, Maharashtra 424001, India",
    "VenueCode": "ADMB",
    "VenueName": "BIG Cinemas: Manohar, Dhule"
  },
  "AGSM": {
    "AvailableFormats": "2D",
    "City": "Chennai",
    "Latitude": "13.0601",
    "Longitude": "80.1648",
    "RegionCode": "CHEN",
    "State": "Tamil Nadu",
    "SubRegionCode": "CHEN",
    "VenueAddress": "No 3/47, Alapakkam Main Road, Subramaniapuram, Pallavan Nagar, Chennai, Tamil Nadu 600095, India",
    "VenueCode": "AGSM",
    "VenueName": "AGS Cinemas: Maduravoyal"
  },
  "AKCH": {
    "AvailableFormats": "2D",
    "City": "Kollam",
    "Latitude": "8.81261",
    "Longitude": "76.6716",
    "RegionCode": "KOLM",
    "State": "Kerala",
    "SubRegionCode": "KOLM",
    "VenueAddress": "Paravur, North Paravur Road, Near ValluVally Juma Masjid, Kollam, Kerala 691301, India",
    "VenueCode": "AKCH",
    "VenueName": "Ashok Cine House: Paravur"
  },
  "AKTG": {
    "AvailableFormats": "2D",
    "City": "Gadarwara",
    "Latitude": "22.9202",
    "Longitude": "78.7821",
    "RegionCode": "GDWR",
    "State": "Madhya Pradesh",
    "SubRegionCode": "GDWR",
    "VenueAddress": "Alka Talkies Road, Vijay Colony, Bhabha Ward, Gadarwara, Madhya Pradesh 487551, India",
    "VenueCode": "AKTG",
    "VenueName": "Alka Talkies: Gadarwara"
  },
  "ALPC": {
    "AvailableFormats": "2D",
    "City": "Bhopal",
    "Latitude": "23.2648",
    "Longitude": "77.4101",
    "RegionCode": "BHOP",
    "State": "Madhya Pradesh",
    "SubRegionCode": "BHOP",
    "VenueAddress": "Hamidia Road, Railway Colony, Near Railway Station, Bhopal, Madhya Pradesh 460160, India",
    "VenueCode": "ALPC",
    "VenueName": "Alpana Air-Cooled Cineplex: Bhopal"
  },
  "AMCA": {
    "AvailableFormats": "2D",
    "City": "Hyderabad",
    "Latitude": "17.3717",
    "Longitude": "78.4302",
    "RegionCode": "HYD",
    "State": "Telangana",
    "SubRegionCode": "HYD",
    "VenueAddress": "1st Floor, MCube Mall, Attapur Ring Road, Somi Reddy Nagar, Rajendra Nagar,Attapur, Hyderabad, Telangana 500048, India",
    "VenueCode": "AMCA",
    "VenueName": "Asian M Cube Mall: Attapur"
  },
  "AMHR": {
    "AvailableFormats": "2D",
    "City": "Virudhunagar",
    "Latitude": "9.59045",
    "Longitude": "77.9527",
    "RegionCode": "VIRU",
    "State": "Tamil Nadu",
    "SubRegionCode": "VIRU",
    "VenueAddress": "RR Nagar, Sivagami Puram, Virudhunagar, Tamil Nadu 626001, India",
    "VenueCode": "AMHR",
    "VenueName": "Amirtharaj Theatre A/C 2K Dolby 7.1: Virudhunagar"
  },
  "AMRL": {
    "AvailableFormats": "2D",
    "City": "Amreli",
    "Latitude": "21.6013",
    "Longitude": "71.2198",
    "RegionCode": "AMRE",
    "State": "Gujarat",
    "SubRegionCode": "AMRE",
    "VenueAddress": "2nd Floor, Opera House, Station Road, Opposite - Krishna Petrol Pump, Amreli, Gujarat 365601, India",
    "VenueCode": "AMRL",
    "VenueName": "Redcorner Cinema: Amreli"
  },
  "ANAN": {
    "AvailableFormats": "2D",
    "City": "Khed",
    "Latitude": "17.7125",
    "Longitude": "73.4093",
    "RegionCode": "KHED",
    "State": "Maharashtra",
    "SubRegionCode": "KHED",
    "VenueAddress": "Near Nagarpalika, Khed Dapoli Road, Khed, Maharashtra 415709, India",
    "VenueCode": "ANAN",
    "VenueName": "City Pride: Annand"
  },
  "ANJR": {
    "AvailableFormats": "",
    "City": "Choutuppal",
    "FirstTracked": "2026-07-14",
    "Latitude": "17.253859",
    "Longitude": "78.893906",
    "RegionCode": "CHOU",
    "State": "Telangana",
    "SubRegionCode": "CHOU",
    "VenueAddress": "GM Complex, NH65, Choutuppal, Telangana 508252, India",
    "VenueCode": "ANJR",
    "VenueName": "Anji Reddy 70MM: Choutuppal"
  },
  "ANST": {
    "AvailableFormats": "2D",
    "City": "Sangareddy",
    "Latitude": "17.3712",
    "Longitude": "78.0502",
    "RegionCode": "SARE",
    "State": "Telangana",
    "SubRegionCode": "SARE",
    "VenueAddress": "Sitara Theatre Road, Veerabhadra Nagar, Near Bismilla Masjid, Sangareddy, Telangana 502001, India",
    "VenueCode": "ANST",
    "VenueName": "Asian Nithin Sitara: Sangareddy"
  },
  "APAP": {
    "AvailableFormats": "2D",
    "City": "Pattukkottai",
    "Latitude": "10.418",
    "Longitude": "79.3198",
    "RegionCode": "PATU",
    "State": "Tamil Nadu",
    "SubRegionCode": "PATU",
    "VenueAddress": "Nadimuthu Nagar, Pattukottai,Tamil Nadu, Near Komala vilas raju thirumana mahal, Pattukkottai, Tamil Nadu 614602, India",
    "VenueCode": "APAP",
    "VenueName": "Annapoorna Cinemas 4K Dolby 7.1: Pattukottai"
  },
  "APNS": {
    "AvailableFormats": "",
    "City": "Hyderabad",
    "FirstTracked": "2026-07-14",
    "Latitude": "17.2859",
    "Longitude": "78.4141",
    "RegionCode": "HYD",
    "State": "Telangana",
    "SubRegionCode": "HYD",
    "VenueAddress": "1/97/11, Sathamrai Village, Langerguda, Hyderabad, Telangana 500052, India",
    "VenueCode": "APNS",
    "VenueName": "Aparna Cinemas: Shamshabad"
  },
  "APSU": {
    "AvailableFormats": "2D",
    "City": "Hubli",
    "Latitude": "15.3481",
    "Longitude": "75.144",
    "RegionCode": "HUBL",
    "State": "Karnataka",
    "SubRegionCode": "HUBL",
    "VenueAddress": "Coen Road, New Hubli, Opposite Corporation Bank, Hubli, Karnataka 580020, India",
    "VenueCode": "APSU",
    "VenueName": "Apsara & Sudha Cinemas: Hubli"
  },
  "ARCC": {
    "AvailableFormats": "2D",
    "City": "Nandyal",
    "Latitude": "15.4742",
    "Longitude": "78.4866",
    "RegionCode": "NADY",
    "State": "Andhra Pradesh",
    "SubRegionCode": "NADY",
    "VenueAddress": "SBI Colony, Nandyal-Thimmanayunipeta Road, Nandyal, Andhra Pradesh 518501, India",
    "VenueCode": "ARCC",
    "VenueName": "Sri Rama Complex: Nandyal"
  },
  "ARRP": {
    "AvailableFormats": "",
    "City": "Narsapur",
    "FirstTracked": "2026-07-14",
    "Latitude": "16.44076",
    "Longitude": "81.70493",
    "RegionCode": "NARP",
    "State": "Andhra Pradesh",
    "SubRegionCode": "NARP",
    "VenueAddress": "Narsapur Road, West Godavari, Narsapur, Andhra Pradesh 534275, India",
    "VenueCode": "ARRP",
    "VenueName": "Sri Raja Rajeshwari Picture Palace: Narsapur"
  },
  "ASCC": {
    "AvailableFormats": "2D",
    "City": "Coimbatore",
    "Latitude": "10.9599",
    "Longitude": "76.9808",
    "RegionCode": "COIM",
    "State": "Tamil Nadu",
    "SubRegionCode": "COIM",
    "VenueAddress": "231, Sundarapuram,Podanur, Sarada Mill Road, Near Podanur Panchayat Office, Coimbatore, Tamil Nadu 641023, India",
    "VenueCode": "ASCC",
    "VenueName": "Arasan Cinemas A/C 4K Dolby: Coimbatore"
  },
  "ASHN": {
    "AvailableFormats": "2D",
    "City": "Hyderabad",
    "Latitude": "17.5107",
    "Longitude": "78.2952",
    "RegionCode": "HYD",
    "State": "Telangana",
    "SubRegionCode": "HYD",
    "VenueAddress": "Sy. No. 101AA, 101 E, 105 E, Ramchandra Puram, Hyderabad, Telangana 500133, India",
    "VenueCode": "ASHN",
    "VenueName": "Asian Cinemart: RC Puram"
  },
  "ASMR": {
    "AvailableFormats": "2D",
    "City": "Miryalaguda",
    "Latitude": "16.8703",
    "Longitude": "79.5631",
    "RegionCode": "MRGD",
    "State": "Telangana",
    "SubRegionCode": "MRGD",
    "VenueAddress": "Islampura Road, Beside Madhusudhan Reddy Hospital, Miryalaguda, Telangana 508207, India",
    "VenueCode": "ASMR",
    "VenueName": "Asian Srinivasa Theater: Miryalaguda"
  },
  "ASSA": {
    "AvailableFormats": "2D",
    "City": "Mancherial",
    "Latitude": "18.8705",
    "Longitude": "79.4472",
    "RegionCode": "MANC",
    "State": "Telangana",
    "SubRegionCode": "MANC",
    "VenueAddress": "Station Road, Mancherial, Mancherial, Telangana 504302, India",
    "VenueCode": "ASSA",
    "VenueName": "Asian Srinivasa: Mancherial"
  },
  "ASTS": {
    "AvailableFormats": "2D",
    "City": "Davanagere",
    "Latitude": "14.4673",
    "Longitude": "75.9249",
    "RegionCode": "DAVA",
    "State": "Karnataka",
    "SubRegionCode": "DAVA",
    "VenueAddress": "SH 65, Ashoka Road, KB Extension, Near Railway Gate, Davanagere, Karnataka 577001, India",
    "VenueCode": "ASTS",
    "VenueName": "Ashoka Talkies: Davanagere"
  },
  "ATCK": {
    "AvailableFormats": "3D|2D",
    "City": "Kolkata",
    "Latitude": "22.7641",
    "Longitude": "88.3696",
    "RegionCode": "BARR",
    "State": "West Bengal",
    "SubRegionCode": "BARR",
    "VenueAddress": "91-73, Ghosh Para Road, North 24Pgs, Barrackpore, Near Barrackpore Railway Station, Kolkata, West Bengal 700120, India",
    "VenueCode": "ATCK",
    "VenueName": "Atindra Cinema: Barrackpore"
  },
  "ATKY": {
    "AvailableFormats": "",
    "City": "Kottayam",
    "FirstTracked": "2026-07-14",
    "Latitude": "9.589517",
    "Longitude": "76.51791",
    "RegionCode": "KTYM",
    "State": "Kerala",
    "SubRegionCode": "KTYM",
    "VenueAddress": "Palace Road, Thirunakara, Behind Bharath Hospital Puthenangady, Kottayam, Kerala 686001, India",
    "VenueCode": "ATKY",
    "VenueName": "Anaswara Theatre 2K Triple Beam 3D: Kottayam"
  },
  "ATTS": {
    "AvailableFormats": "2D",
    "City": "Hoshiarpur",
    "Latitude": "31.5552",
    "Longitude": "75.8694",
    "RegionCode": "TNDA",
    "State": "Punjab",
    "SubRegionCode": "TNDA",
    "VenueAddress": "Tanda Road, Bharat Petroleum, Hoshiarpur, Hoshiarpur, Punjab 146001, India",
    "VenueCode": "ATTS",
    "VenueName": "AG Star Cinemaz Hoshiarpur (Near Amber Palace)"
  },
  "AVCH": {
    "AvailableFormats": "2D",
    "City": "Khandwa",
    "Latitude": "21.8169",
    "Longitude": "76.3434",
    "RegionCode": "KHDW",
    "State": "Madhya Pradesh",
    "SubRegionCode": "KHDW",
    "VenueAddress": "Burhanpur - Pandhana Road, Plot No.106, Kunbi, East Nimar, Khandwa, Madhya Pradesh 450001, India",
    "VenueCode": "AVCH",
    "VenueName": "Abhishek Veer Cinemas: Khandwa"
  },
  "AWCT": {
    "AvailableFormats": "2D",
    "City": "Thodupuzha",
    "Latitude": "9.90285",
    "Longitude": "76.7153",
    "RegionCode": "THOD",
    "State": "Kerala",
    "SubRegionCode": "THOD",
    "VenueAddress": "Silver Hills, Mount Sinai Road, Near Mount Senai Hospital, Thodupuzha, Kerala 685584, India",
    "VenueCode": "AWCT",
    "VenueName": "Silver Hills Naxa Cinemas 4K Dolby ATMOS"
  },
  "AYOU": {
    "AvailableFormats": "2D",
    "City": "Pithampur",
    "Latitude": "22.6153",
    "Longitude": "75.6509",
    "RegionCode": "PITH",
    "State": "Madhya Pradesh",
    "SubRegionCode": "PITH",
    "VenueAddress": "S 24 Mall, Mhow Neemuch Road, Bardari Gram, Pithampur, Madhya Pradesh 454775, India",
    "VenueCode": "AYOU",
    "VenueName": "AYOU Cinemas: Pithampur"
  },
  "BARA": {
    "AvailableFormats": "2D",
    "City": "Kolkata",
    "Latitude": "22.5794",
    "Longitude": "88.4595",
    "RegionCode": "KOLK",
    "State": "West Bengal",
    "SubRegionCode": "KOLK",
    "VenueAddress": "4TH Floor, Axis Mall, 1C, 11, CF Block(Newtown), Action Area 1C, CF-9 New Town, Rajarhat, Near Novotel Kolkata Hotel And Residences, Kolkata, West Bengal 700156, India",
    "VenueCode": "BARA",
    "VenueName": "Bioscope: Axis Mall, Rajarhat"
  },
  "BBTC": {
    "AvailableFormats": "2D",
    "City": "Channapatna",
    "Latitude": "12.6456",
    "Longitude": "77.1945",
    "RegionCode": "CPTN",
    "State": "Karnataka",
    "SubRegionCode": "CPTN",
    "VenueAddress": "16th Cross, Mangalavara Pete Road, Near Big Bazar, Channapatna, Karnataka 562160, India",
    "VenueCode": "BBTC",
    "VenueName": "Sri Balaji Talkies: Channapatna"
  },
  "BCWG": {
    "AvailableFormats": "2D|3D",
    "City": "Ghaziabad",
    "Latitude": "28.6797",
    "Longitude": "77.3819",
    "RegionCode": "NCR",
    "State": "NCR",
    "SubRegionCode": "GHAZ",
    "VenueAddress": "Bhutani City Centre, Ghaziabad T-Point, Mohan Nagar, Near Air Force Station Hindon, Ghaziabad, NCR 201007, India",
    "VenueCode": "BCWG",
    "VenueName": "B18 Cinemas (Bhutani Cineplex) City Center GZB"
  },
  "BHAC": {
    "AvailableFormats": "2D",
    "City": "Bengaluru",
    "Latitude": "13.0415",
    "Longitude": "77.5175",
    "RegionCode": "HOKT",
    "State": "Karnataka",
    "SubRegionCode": "HOKT",
    "VenueAddress": "Prashanth Nagar, T. Dasarahalli, Dasara Halli Cross, Next To Rockline Mall, Bengaluru, Karnataka 560057, India",
    "VenueCode": "BHAC",
    "VenueName": "Bharathi Theatre (Peenya) A/C 4K 7.1 Dolby Digital"
  },
  "BIJH": {
    "AvailableFormats": "2D",
    "City": "Jhabua",
    "Latitude": "22.7609",
    "Longitude": "74.5879",
    "RegionCode": "JHAB",
    "State": "Madhya Pradesh",
    "SubRegionCode": "JHAB",
    "VenueAddress": "Infront of College Ground, Ranapur Road, Jhabua, Madhya Pradesh 457661, India",
    "VenueCode": "BIJH",
    "VenueName": "B4 Cinema: Jhabua"
  },
  "BJTS": {
    "AvailableFormats": "2D",
    "City": "Chikkaballapur",
    "Latitude": "13.4311",
    "Longitude": "77.7307",
    "RegionCode": "CHIK",
    "State": "Karnataka",
    "SubRegionCode": "CHIK",
    "VenueAddress": "B B Road, Near Chikkaballapur Road, Chikkaballapur, Karnataka 562101, India",
    "VenueCode": "BJTS",
    "VenueName": "Balaji Talkies: Chikkaballapura"
  },
  "BLJI": {
    "AvailableFormats": "2D",
    "City": "Vijayawada",
    "Latitude": "16.4726",
    "Longitude": "80.7163",
    "RegionCode": "KADU",
    "State": "Andhra Pradesh",
    "SubRegionCode": "KADU",
    "VenueAddress": "Bundar Road, Poranki, Near Priya Foods, Vijayawada, Andhra Pradesh 521137, India",
    "VenueCode": "BLJI",
    "VenueName": "Balaji Cine Villa: Vijayawada"
  },
  "BMRV": {
    "AvailableFormats": "2D",
    "City": "Veeraghattam",
    "Latitude": "18.6896",
    "Longitude": "83.6086",
    "RegionCode": "VEER",
    "State": "Andhra Pradesh",
    "SubRegionCode": "VEER",
    "VenueAddress": "Jiyyammavalasa Road, Down street, Veeraghattam, Andhra Pradesh 532460, India",
    "VenueCode": "BMRV",
    "VenueName": "BMR CINEMAX: Veeraghattam"
  },
  "BPKC": {
    "AvailableFormats": "",
    "City": "Bhopal",
    "FirstTracked": "2026-07-14",
    "Latitude": "23.144285",
    "Longitude": "77.497505",
    "RegionCode": "BHOP",
    "State": "Madhya Pradesh",
    "SubRegionCode": "BHOP",
    "VenueAddress": "2nd Floor, British Park Minimall,11th Mile, Hoshanagabad Road, Opposite IPER College, Bhopal, Madhya Pradesh 462026, India",
    "VenueCode": "BPKC",
    "VenueName": "British Park Cineplex: Bhopal"
  },
  "BSMP": {
    "AvailableFormats": "2D",
    "City": "Ambikapur",
    "Latitude": "23.1147",
    "Longitude": "83.198",
    "RegionCode": "AMBI",
    "State": "Chhattisgarh",
    "SubRegionCode": "AMBI",
    "VenueAddress": "Kharsia Road, Beside Hotel Grand Basant, NH 78, Ambikapur, Chhattisgarh 497001, India",
    "VenueCode": "BSMP",
    "VenueName": "Basant Multiplex: Ambikapur"
  },
  "BTDA": {
    "AvailableFormats": "2D",
    "City": "Acharapakkam",
    "Latitude": "12.4071",
    "Longitude": "79.8161",
    "RegionCode": "ACHA",
    "State": "Tamil Nadu",
    "SubRegionCode": "ACHA",
    "VenueAddress": "Periyar Nagar, Acharapakam, Near Abhiram Honda Showroom, Acharapakkam, Tamil Nadu 603301, India",
    "VenueCode": "BTDA",
    "VenueName": "Balaji Theatre A/C Dolby 7.1: Acharapakkam"
  },
  "BWCM": {
    "AvailableFormats": "2D",
    "City": "Georai",
    "Latitude": "19.2639",
    "Longitude": "75.7489",
    "RegionCode": "GEOR",
    "State": "Maharashtra",
    "SubRegionCode": "GEOR",
    "VenueAddress": "S No. 59, Shivaji Complex, Georai Main Road, Shastri Chowk Bus Stand Road, Dist-Beed, Georai, Maharashtra 431127, India",
    "VenueCode": "BWCM",
    "VenueName": "Bhagwati Chitra Mandir: Georai"
  },
  "CAIS": {
    "AvailableFormats": "2D",
    "City": "Kochi",
    "Latitude": "10.1068",
    "Longitude": "76.3631",
    "RegionCode": "PALY",
    "State": "Kerala",
    "SubRegionCode": "PALY",
    "VenueAddress": "Little Flower Ln, Periyar Nagar, Perumbavoor Aluva Road, Near Passport Office, Kochi, Kerala 683101, India",
    "VenueCode": "CAIS",
    "VenueName": "Casino Talkies A/C Real Laser 3D DOLBY 7.1: Aluva"
  },
  "CCAD": {
    "AvailableFormats": "2D",
    "City": "Anand",
    "Latitude": "22.5673",
    "Longitude": "72.9433",
    "RegionCode": "AND",
    "State": "Gujarat",
    "SubRegionCode": "AND",
    "VenueAddress": "Lambhvel Road, Purushottam Nagar, Anand, Gujarat 388001, India",
    "VenueCode": "CCAD",
    "VenueName": "Connplex Cinemas: Anand"
  },
  "CCDU": {
    "AvailableFormats": "",
    "City": "Dehradun",
    "FirstTracked": "2026-07-14",
    "Latitude": "30.32804",
    "Longitude": "78.04471",
    "RegionCode": "DEH",
    "State": "Uttarakhand",
    "SubRegionCode": "DEH",
    "VenueAddress": "19, Rajpur Road, Chukkuwala, Near State Bank Of India, Dehradun, Uttarakhand 248001, India",
    "VenueCode": "CCDU",
    "VenueName": "Chhayadeep Cinema: Dehradun"
  },
  "CCKP": {
    "AvailableFormats": "2D",
    "City": "Kalol (Panchmahal)",
    "Latitude": "22.6112",
    "Longitude": "73.4662",
    "RegionCode": "PANH",
    "State": "Gujarat",
    "SubRegionCode": "PANH",
    "VenueAddress": "Cinema City, GJ SH 87, Near Lal Darwaja, Jantral, Kalol (Panchmahal), Gujarat 389330, India",
    "VenueCode": "CCKP",
    "VenueName": "FUN Cinemas Cinema City Multiplex: Kalol"
  },
  "CCMP": {
    "AvailableFormats": "3D|2D",
    "City": "Navi Mumbai",
    "Latitude": "18.9991",
    "Longitude": "73.123",
    "RegionCode": "MUMBAI",
    "State": "Maharashtra",
    "SubRegionCode": "THAN",
    "VenueAddress": "Plot 1/3 Shubham Commercial Complex, Sector 11 New Panvel, Near Punjab National Bank Near Ganaraj Auto Service And Petrol Pump, Navi Mumbai, Maharashtra 410206, India",
    "VenueCode": "CCMP",
    "VenueName": "Miraj Cineraj Cinemas: Panvel"
  },
  "CCPN": {
    "AvailableFormats": "2D",
    "City": "Pathalgaon",
    "Latitude": "22.5576",
    "Longitude": "83.4644",
    "RegionCode": "PAHT",
    "State": "Chhattisgarh",
    "SubRegionCode": "PAHT",
    "VenueAddress": "C2 Cinemas, 3rd Floor HM Tower, Jashpur Road, Pathalgaon, Chhattisgarh 496118, India",
    "VenueCode": "CCPN",
    "VenueName": "C2 Cinema: Pathalgaon"
  },
  "CCSP": {
    "AvailableFormats": "",
    "City": "Patna",
    "Latitude": "25.6188",
    "Longitude": "85.0483",
    "RegionCode": "PATN",
    "State": "Bihar",
    "SubRegionCode": "PATN",
    "VenueAddress": "Bailey Road, Shri Krishna Puram, Opposite RPS More, Patna, Bihar 801503, India",
    "VenueCode": "CCSP",
    "VenueName": "Cinema Cafe Max Western Mall, Opp RPS More: Patna"
  },
  "CDOK": {
    "AvailableFormats": "2D",
    "City": "Jajpur Road",
    "Latitude": "20.9518",
    "Longitude": "86.1306",
    "RegionCode": "JAJP",
    "State": "Odisha",
    "SubRegionCode": "JAJP",
    "VenueAddress": "Utkal Centre Point Mall, Chorda Bypass Square, Byasanagar Main Road, Jajpur Road, Odisha 755019, India",
    "VenueCode": "CDOK",
    "VenueName": "Connplex Cinemas (Signature): Utkal Centre Point"
  },
  "CEPO": {
    "AvailableFormats": "2D",
    "City": "Pune",
    "Latitude": "18.518",
    "Longitude": "73.8561",
    "RegionCode": "PUNE",
    "State": "Maharashtra",
    "SubRegionCode": "PUNE",
    "VenueAddress": "Near Nana Wada, Chhatrapati Shivaji Maharaj Road, Budhwar Peth, Pune, Maharashtra 411002, India",
    "VenueCode": "CEPO",
    "VenueName": "CinePRO: Vasant Cinema, Pune"
  },
  "CGCB": {
    "AvailableFormats": "",
    "City": "Bathinda",
    "Latitude": "30.1649",
    "Longitude": "74.9233",
    "RegionCode": "BHAT",
    "State": "Punjab",
    "SubRegionCode": "BHAT",
    "VenueAddress": "3rd Floor, Green city square, Near AIIMS hospital, Dabwali Road, Bathinda, Punjab 151001, India",
    "VenueCode": "CGCB",
    "VenueName": "Cinepolis: Green City Square, Bathinda"
  },
  "CGOS": {
    "AvailableFormats": "2D",
    "City": "Ahmedabad",
    "Latitude": "23.0157",
    "Longitude": "72.5294",
    "RegionCode": "AHD",
    "State": "Gujarat",
    "SubRegionCode": "AHD",
    "VenueAddress": "Near Shyamal, Cross Road, 132 Feet Ring Road, Ahmedabad, Gujarat 380015, India",
    "VenueCode": "CGOS",
    "VenueName": "City Gold Satellite: Ahmedabad"
  },
  "CHKM": {
    "AvailableFormats": "2D",
    "City": "Kadalundi",
    "Latitude": "11.1549",
    "Longitude": "75.8473",
    "RegionCode": "KOZH",
    "State": "Kerala",
    "SubRegionCode": "KOZH",
    "VenueAddress": "8/567, Mannur Valavu, Mannur Valavu, Kadalundi, Kadalundi, Kerala 673328, India",
    "VenueCode": "CHKM",
    "VenueName": "Chithra Cineplex 4K RGB Laser dtsX: Mannur Valavu"
  },
  "CIBA": {
    "AvailableFormats": "2D",
    "City": "Korba",
    "Latitude": "22.3513",
    "Longitude": "82.6993",
    "RegionCode": "KRBA",
    "State": "Chhattisgarh",
    "SubRegionCode": "KRBA",
    "VenueAddress": "City Center Mall, B-10, Purani Basti, Power House Road, Korba, Chhattisgarh 495678, India",
    "VenueCode": "CIBA",
    "VenueName": "Cinemood Multiplex (Dolby Atmos Sound): Korba"
  },
  "CIMN": {
    "AvailableFormats": "",
    "City": "Greater Noida",
    "FirstTracked": "2026-07-14",
    "Latitude": "28.457985",
    "Longitude": "77.52814",
    "RegionCode": "NCR",
    "State": "NCR",
    "SubRegionCode": "GRET",
    "VenueAddress": "MSX Mall, Sector Swarn Nagri, Plot No. K-4, 4th Avenue, Sector 18 Block F, Industrial Area, Greater Noida, NCR 201310, India",
    "VenueCode": "CIMN",
    "VenueName": "Cineport Cinemas: MSX Mall, Greater Noida"
  },
  "CKMC": {
    "AvailableFormats": "2D",
    "City": "Palakkad",
    "Latitude": "10.7566",
    "Longitude": "76.5009",
    "RegionCode": "PLKK",
    "State": "Kerala",
    "SubRegionCode": "PLKK",
    "VenueAddress": "Kuzhalmannam mankara Road, Pilappulli, Peringottukurissi, Near Peringottukurissi Service Cooperative Bank, Palakkad, Kerala 678573, India",
    "VenueCode": "CKMC",
    "VenueName": "CKM Victory Cinemas: Peringottukurissi"
  },
  "CLDR": {
    "AvailableFormats": "2D",
    "City": "Ramanathapuram",
    "Latitude": "9.35868",
    "Longitude": "78.8433",
    "RegionCode": "RAPU",
    "State": "Tamil Nadu",
    "SubRegionCode": "RAPU",
    "VenueAddress": "9R5V+F8C, Mandapam Road, Kadampa Nagar, Ramanathapuram, Tamil Nadu 623501, India",
    "VenueCode": "CLDR",
    "VenueName": "The Cine Lounge Dolby 7.1: GSM Mall Ramanathapuram"
  },
  "CLSB": {
    "AvailableFormats": "2D",
    "City": "Siwan",
    "Latitude": "26.2307",
    "Longitude": "84.3694",
    "RegionCode": "SWNB",
    "State": "Bihar",
    "SubRegionCode": "SWNB",
    "VenueAddress": "Chandrika Tower, Gaushala Road, Pakdi Bus Stand, Siwan, Bihar 841226, India",
    "VenueCode": "CLSB",
    "VenueName": "Connplex Cinemas (Luxuriance): Siwan"
  },
  "CMCT": {
    "AvailableFormats": "2D",
    "City": "Thamarassery",
    "Latitude": "11.4148",
    "Longitude": "75.9358",
    "RegionCode": "KOZH",
    "State": "Kerala",
    "SubRegionCode": "KOZH",
    "VenueAddress": "City Mall, Thamarassery, Kerala, Thamarassery, Kerala 673573, India",
    "VenueCode": "CMCT",
    "VenueName": "City Mall Cinemas: Thamarassery"
  },
  "CMMH": {
    "AvailableFormats": "2D",
    "City": "Bhandara",
    "Latitude": "21.0849",
    "Longitude": "79.782",
    "RegionCode": "BHAA",
    "State": "Maharashtra",
    "SubRegionCode": "BHAA",
    "VenueAddress": "Lakhani, Gadegaon, Opposite - Ashok Leyland, Bhandara, Maharashtra 441804, India",
    "VenueCode": "CMMH",
    "VenueName": "Chhotu Maharaj Cine Cafe: Lakhani"
  },
  "CMSA": {
    "AvailableFormats": "2D",
    "City": "Shrigonda",
    "Latitude": "18.6277",
    "Longitude": "74.6887",
    "RegionCode": "SHRI",
    "State": "Maharashtra",
    "SubRegionCode": "SHRI",
    "VenueAddress": "Pargaon, Ahmednagar Road, Shrigonda, Maharashtra 413701, India",
    "VenueCode": "CMSA",
    "VenueName": "Chhotu Maharaj Cine Cafe: Shrigonda"
  },
  "CMVB": {
    "AvailableFormats": "2D",
    "City": "Vikarabad",
    "Latitude": "17.3464",
    "Longitude": "77.9056",
    "RegionCode": "VKBD",
    "State": "Telangana",
    "SubRegionCode": "VKBD",
    "VenueAddress": "Vikarabad - Mominpet Road, Alampally, Near Petrol Pump, Opposite Fathe Garden Function Hall, Vikarabad, Telangana 501101, India",
    "VenueCode": "CMVB",
    "VenueName": "Cinemax: Vikarabad"
  },
  "CNAD": {
    "AvailableFormats": "",
    "City": "Ahmedabad",
    "FirstTracked": "2026-07-14",
    "Latitude": "23.163",
    "Longitude": "72.5399",
    "RegionCode": "AHD",
    "State": "Gujarat",
    "SubRegionCode": "AHD",
    "VenueAddress": "306-308, Center Point, Adani Shantigram Township, Khodiyar, Ahmedabad, Gujarat 382501, India",
    "VenueCode": "CNAD",
    "VenueName": "Connplex Cinemas (Luxuriance): Adani Shantigram"
  },
  "CNFX": {
    "AvailableFormats": "2D",
    "City": "Datia",
    "Latitude": "25.6653",
    "Longitude": "78.4609",
    "RegionCode": "DATI",
    "State": "Madhya Pradesh",
    "SubRegionCode": "DATI",
    "VenueAddress": "National Highway 44 Jhansi road, First floor Ratan mega mall, Near District and sessions court, Datia, Madhya Pradesh 475661, India",
    "VenueCode": "CNFX",
    "VenueName": "Cineflix Cinemas: Datia"
  },
  "CNPS": {
    "AvailableFormats": "3D|2D",
    "City": "Bilaspur",
    "Latitude": "22.071",
    "Longitude": "82.1504",
    "RegionCode": "BILA",
    "State": "Chhattisgarh",
    "SubRegionCode": "BILA",
    "VenueAddress": "4th Floor, Shri Krishna Central Mall, Vinoba Nagar, Bilaspur, Chhattisgarh 495001, India",
    "VenueCode": "CNPS",
    "VenueName": "Connplex Cinemas (Signature) : Bilaspur"
  },
  "CNVG": {
    "AvailableFormats": "2D",
    "City": "Gurugram (Gurgaon)",
    "Latitude": "28.4157",
    "Longitude": "77.1027",
    "RegionCode": "NCR",
    "State": "NCR",
    "SubRegionCode": "GURG",
    "VenueAddress": "Ireo Grand View High Street, Golf Course Extension Road, Sector 58, Gurugram (Gurgaon), NCR 122102, India",
    "VenueCode": "CNVG",
    "VenueName": "Cinepolis: Grand View High Street, Gurugram"
  },
  "CONX": {
    "AvailableFormats": "2D",
    "City": "Bettiah",
    "Latitude": "26.809",
    "Longitude": "84.516",
    "RegionCode": "BETA",
    "State": "Bihar",
    "SubRegionCode": "BETA",
    "VenueAddress": "Kishore Kunj, Sant Kabir Road, Banuchapara, West Champaran, Bettiah, Bihar 845438, India",
    "VenueCode": "CONX",
    "VenueName": "Connplex Cinemas (Signature): Bettiah"
  },
  "CPCK": {
    "AvailableFormats": "2D|IMAX 2D",
    "City": "Kochi",
    "Latitude": "9.97799",
    "Longitude": "76.2833",
    "RegionCode": "KOCH",
    "State": "Kerala",
    "SubRegionCode": "KOCH",
    "VenueAddress": "6th floor, M.G.Rroad, Ernakulam, Near Abad Plaza Hotel, Kochi, Kerala 682035, India",
    "VenueCode": "CPCK",
    "VenueName": "Cinepolis: Centre Square, Kochi"
  },
  "CPGV": {
    "AvailableFormats": "3D|2D",
    "City": "Greater Noida",
    "Latitude": "28.4529",
    "Longitude": "77.526",
    "RegionCode": "NCR",
    "State": "NCR",
    "SubRegionCode": "GRET",
    "VenueAddress": "Plot No SH 3, Site IV, Greater Noida, Near Pari Chowk, Greater Noida, NCR 201308, India",
    "VenueCode": "CPGV",
    "VenueName": "Cinepolis: Grand Venice Mall, Greater Noida"
  },
  "CPKT": {
    "AvailableFormats": "3D|2D",
    "City": "Pune",
    "Latitude": "18.4997",
    "Longitude": "73.821",
    "RegionCode": "PUNE",
    "State": "Maharashtra",
    "SubRegionCode": "PUNE",
    "VenueAddress": "Survey No.20/1,2, Kothrud, Near Tara Residency, Pune, Maharashtra 411038, India",
    "VenueCode": "CPKT",
    "VenueName": "City Pride: Kothrud"
  },
  "CPMX": {
    "AvailableFormats": "",
    "City": "Jasdan",
    "FirstTracked": "2026-07-14",
    "Latitude": "22.024336",
    "Longitude": "71.17932",
    "RegionCode": "JASD",
    "State": "Gujarat",
    "SubRegionCode": "JASD",
    "VenueAddress": "Ring Road, Atkot Road, Aanand Nagar, Jasdan, Gujarat 360050, India",
    "VenueCode": "CPMX",
    "VenueName": "City Pride Multiplex: Jasdan"
  },
  "CPRP": {
    "AvailableFormats": "2D|3D",
    "City": "Pune",
    "Latitude": "18.5933",
    "Longitude": "73.7864",
    "RegionCode": "PUNE",
    "State": "Maharashtra",
    "SubRegionCode": "PUNE",
    "VenueAddress": "Spot-18 Mall, 3rd Floor, Rahatani Rd, Pimpri Chinchwad, Pune, Maharashtra 411017, India",
    "VenueCode": "CPRP",
    "VenueName": "City Pride Royal Cinemas: Rahatani"
  },
  "CPUS": {
    "AvailableFormats": "2D",
    "City": "Surat",
    "Latitude": "21.1361",
    "Longitude": "72.7521",
    "RegionCode": "SURT",
    "State": "Gujarat",
    "SubRegionCode": "SURT",
    "VenueAddress": "Dumas Road, Opposite L and T Colony, Near Magdalla Circle, Surat, Gujarat 395007, India",
    "VenueCode": "CPUS",
    "VenueName": "City Plus Multiplex: Surat"
  },
  "CRJG": {
    "AvailableFormats": "2D",
    "City": "Jayamkondacholapuram",
    "Latitude": "11.2143",
    "Longitude": "79.3613",
    "RegionCode": "JYAM",
    "State": "Tamil Nadu",
    "SubRegionCode": "JYAM",
    "VenueAddress": "National Highway 227, Jayakondam, Near JK Plaza, Jayamkondacholapuram, Tamil Nadu 621802, India",
    "VenueCode": "CRJG",
    "VenueName": "CR Palace Theatre A/C 4K HD Dolby Digital 7.1"
  },
  "CSCV": {
    "AvailableFormats": "2D|3D",
    "City": "Vizag (Visakhapatnam)",
    "Latitude": "17.8083",
    "Longitude": "83.3751",
    "RegionCode": "VIZA",
    "State": "Andhra Pradesh",
    "SubRegionCode": "VIZA",
    "VenueAddress": "100 Feet Road, Madhurawada, Vizag (Visakhapatnam), Andhra Pradesh 530048, India",
    "VenueCode": "CSCV",
    "VenueName": "Cinepolis: Sreekanya Cineglitz, Madhurawada"
  },
  "CSSA": {
    "AvailableFormats": "2D|3D",
    "City": "Ahilyanagar (Ahmednagar)",
    "Latitude": "19.1192",
    "Longitude": "74.7289",
    "RegionCode": "AHMED",
    "State": "Maharashtra",
    "SubRegionCode": "AHMED",
    "VenueAddress": "3rd Floor, Kohinoor Mall, Premdan Chowk, Opposite Big Bazar, Ahilyanagar (Ahmednagar), Maharashtra 414003, India",
    "VenueCode": "CSSA",
    "VenueName": "Connplex Cinemas: Ahilyanagar"
  },
  "CSTR": {
    "AvailableFormats": "2D",
    "City": "Rajkot",
    "Latitude": "22.276",
    "Longitude": "70.7415",
    "RegionCode": "RAJK",
    "State": "Gujarat",
    "SubRegionCode": "RAJK",
    "VenueAddress": "2nd Ring Road, Serenity Garden Road, Near Valupani restaurant, Rajkot, Gujarat 360004, India",
    "VenueCode": "CSTR",
    "VenueName": "Connplex Cinemas: Rajkot"
  },
  "CTLC": {
    "AvailableFormats": "2D",
    "City": "Chapra",
    "Latitude": "25.7875",
    "Longitude": "84.7145",
    "RegionCode": "CHPR",
    "State": "Bihar",
    "SubRegionCode": "CHPR",
    "VenueAddress": "Ware House Colony, Main Road, Near Gudri Chowk, Chapra, Bihar 841301, India",
    "VenueCode": "CTLC",
    "VenueName": "Cinemaoo The Luxury: Chapra"
  },
  "CTNR": {
    "AvailableFormats": "",
    "City": "Hyderabad",
    "Latitude": "17.503",
    "Longitude": "78.4773",
    "RegionCode": "HYD",
    "State": "Telangana",
    "SubRegionCode": "HYD",
    "VenueAddress": "Cinepolis TNR North City, SY No 85 and 89, NH-44, 7, Suchitra Road, NH-44, 7, Suchitra Road, Hyderabad, Telangana 500055, India",
    "VenueCode": "CTNR",
    "VenueName": "Cinepolis: TNR North City, Suchitra, Hyderabad"
  },
  "CUJC": {
    "AvailableFormats": "2D",
    "City": "Hisar",
    "Latitude": "29.0998",
    "Longitude": "75.9068",
    "RegionCode": "HISR",
    "State": "Haryana",
    "SubRegionCode": "HISR",
    "VenueAddress": "Green Valley Lodge, Delhi Hisar Road, Indian Oil Petrol Pump, Hansi, Near Miyar Toll Plaza, Hisar, Haryana 125033, India",
    "VenueCode": "CUJC",
    "VenueName": "Chhotu Maharaj Cine Cafe: Hansi"
  },
  "CVRN": {
    "AvailableFormats": "3D|2D",
    "City": "Nagpur",
    "Latitude": "21.1327",
    "Longitude": "79.0957",
    "RegionCode": "NAGP",
    "State": "Maharashtra",
    "SubRegionCode": "NAGP",
    "VenueAddress": "City Survey No. 362/1, Ward No 90 (New), Mouza Jat - Tarodi, Near Medical Square, Rambagh Road, Nagpur, Maharashtra 440003, India",
    "VenueCode": "CVRN",
    "VenueName": "Cinepolis: VR Mall, Nagpur"
  },
  "CXKR": {
    "AvailableFormats": "2D",
    "City": "Rourkela",
    "Latitude": "22.2342",
    "Longitude": "84.8724",
    "RegionCode": "RKOR",
    "State": "Odisha",
    "SubRegionCode": "RKOR",
    "VenueAddress": "Railway Colony, Ring Road, Rourkela, Odisha 769001, India",
    "VenueCode": "CXKR",
    "VenueName": "Cineplexx: Beside Hotel Deepti, Rourkela"
  },
  "CZVX": {
    "AvailableFormats": "2D",
    "City": "Barshi",
    "Latitude": "18.2404",
    "Longitude": "75.6974",
    "RegionCode": "BRHI",
    "State": "Maharashtra",
    "SubRegionCode": "BRHI",
    "VenueAddress": "Chatrapati Cinema Hall, Chatrapati Bhavan, Latur Road, Barshi, Maharashtra 413401, India",
    "VenueCode": "CZVX",
    "VenueName": "Chatrapati Cinema: Barshi"
  },
  "DCAK": {
    "AvailableFormats": "2D",
    "City": "Kodungallur",
    "Latitude": "10.2315",
    "Longitude": "76.1974",
    "RegionCode": "KODU",
    "State": "Kerala",
    "SubRegionCode": "KODU",
    "VenueAddress": "Kalpaka Road, Star Nagar, Kodungallur, Kerala 680668, India",
    "VenueCode": "DCAK",
    "VenueName": "D CINEMAA: MUGHAL MALL BARCO 4K LASER, KODUNGALLUR"
  },
  "DCIN": {
    "AvailableFormats": "2D",
    "City": "Nagaon",
    "Latitude": "26.3528",
    "Longitude": "92.6713",
    "RegionCode": "NAAM",
    "State": "Assam",
    "SubRegionCode": "NAAM",
    "VenueAddress": "Divyajyoti Cinema Hall, Dhing Gate Flyover, Near Haibargaon Railway Station,Nagaon, Assam 782002, India",
    "VenueCode": "DCIN",
    "VenueName": "Divyajyoti Cinema: Nagaon"
  },
  "DCRP": {
    "AvailableFormats": "2D",
    "City": "Ramanathapuram",
    "Latitude": "9.36634",
    "Longitude": "78.8362",
    "RegionCode": "RAPU",
    "State": "Tamil Nadu",
    "SubRegionCode": "RAPU",
    "VenueAddress": "41, East Coast Road, Chalai Bazar, Ramanathapuram, Near om sakthi temple, Ramanathapuram, Tamil Nadu 623504, India",
    "VenueCode": "DCRP",
    "VenueName": "D Cinema A/C Sony 4K 3D: Ramanathapuram"
  },
  "DDXB": {
    "AvailableFormats": "2D|3D",
    "City": "Bhopal",
    "Latitude": "23.1876",
    "Longitude": "77.4174",
    "RegionCode": "BHOP",
    "State": "Madhya Pradesh",
    "SubRegionCode": "BHOP",
    "VenueAddress": "Kolar Road, Mandakini Colony, Near Vishal Maega Mart, Bhopal, Madhya Pradesh 462042, India",
    "VenueCode": "DDXB",
    "VenueName": "DDX Cinema Kolar: Bhopal"
  },
  "DFCH": {
    "AvailableFormats": "2D",
    "City": "Dhemaji",
    "Latitude": "27.4716",
    "Longitude": "94.5575",
    "RegionCode": "DHEM",
    "State": "Assam",
    "SubRegionCode": "DHEM",
    "VenueAddress": "Ward No 3, Dhemaji Chariali, Chariali, Near Indian Oil Petrol Pump Rupanti Borgohain Path, Dhemaji, Assam 787057, India",
    "VenueCode": "DFCH",
    "VenueName": "Dhemaji Cinema & Cafe"
  },
  "DIKT": {
    "AvailableFormats": "2D",
    "City": "Madurai",
    "Latitude": "9.88169",
    "Longitude": "78.0556",
    "RegionCode": "MADU",
    "State": "Tamil Nadu",
    "SubRegionCode": "MADU",
    "VenueAddress": "National Highway 7, Thirunagar, Thanakkankulam, Near LIC of India, Branch Office, Madurai, Tamil Nadu 625006, India",
    "VenueCode": "DIKT",
    "VenueName": "Dhevi Kalaivani Theatre A/C DTS: Madurai"
  },
  "DLMT": {
    "AvailableFormats": "2D",
    "City": "Akaltara",
    "Latitude": "22.0352",
    "Longitude": "82.4273",
    "RegionCode": "AKAL",
    "State": "Chhattisgarh",
    "SubRegionCode": "AKAL",
    "VenueAddress": "Baloda Road, Beside DL Fuels, Akaltara, Chhattisgarh 495552, India",
    "VenueCode": "DLMT",
    "VenueName": "DL Multiplex: Akaltara"
  },
  "DNCS": {
    "AvailableFormats": "2D",
    "City": "Shirur",
    "Latitude": "18.818",
    "Longitude": "74.3666",
    "RegionCode": "SHRU",
    "State": "Maharashtra",
    "SubRegionCode": "SHRU",
    "VenueAddress": "2nd Floor, A Wing, Oxy Gold, Baburao Nagar, Shirur Bypass, Shirur, Maharashtra 412210, India",
    "VenueCode": "DNCS",
    "VenueName": "Digigold Nova Cinemaz: Shirur"
  },
  "DRCA": {
    "AvailableFormats": "2D",
    "City": "Durgapur",
    "Latitude": "23.5376",
    "Longitude": "87.3015",
    "RegionCode": "DURGA",
    "State": "West Bengal",
    "SubRegionCode": "DURGA",
    "VenueAddress": "Nazrul Sarani, Doctor`s Colony, City Center, Near Srijani Auditorium, Durgapur, West Bengal 713216, India",
    "VenueCode": "DRCA",
    "VenueName": "Durgapur Cinema: Durgapur"
  },
  "DSCZ": {
    "AvailableFormats": "2D",
    "City": "Nabarangpur",
    "Latitude": "19.2204",
    "Longitude": "82.5404",
    "RegionCode": "NAGU",
    "State": "Odisha",
    "SubRegionCode": "NAGU",
    "VenueAddress": "Plot No. 1910, Katha No.122, Ichabatiguda, Nabarangpur, Odisha 764059, India",
    "VenueCode": "DSCZ",
    "VenueName": "DS3 Cinemas: Nabarangpur"
  },
  "DTVP": {
    "AvailableFormats": "2D",
    "City": "Vijayapura",
    "Latitude": "16.8269",
    "Longitude": "75.7164",
    "RegionCode": "VJPR",
    "State": "Karnataka",
    "SubRegionCode": "VJPR",
    "VenueAddress": "Tippu Sultan Circle, D.C Office Road, Near KSRTC Bus Stand, Vijayapura, Karnataka 586101, India",
    "VenueCode": "DTVP",
    "VenueName": "Dreamland A/C Dolby Theatre: Vijayapura (Bijapur)"
  },
  "DVPM": {
    "AvailableFormats": "2D",
    "City": "Pandharpur",
    "Latitude": "17.6802",
    "Longitude": "75.3231",
    "RegionCode": "PNDH",
    "State": "Maharashtra",
    "SubRegionCode": "PNDH",
    "VenueAddress": "Pune - Pandharpur Road, Market Yard, Gokul Nagar, Isbavi, Near New S.T. Stand, Pandharpur, Maharashtra 413304, India",
    "VenueCode": "DVPM",
    "VenueName": "DVP Square: Pandharpur"
  },
  "ECGN": {
    "AvailableFormats": "2D",
    "City": "Gondia",
    "Latitude": "21.4655",
    "Longitude": "80.1894",
    "RegionCode": "AMGN",
    "State": "Maharashtra",
    "SubRegionCode": "AMGN",
    "VenueAddress": "2nd Floor, Platinum Plaza, Ward No 9, Lohiya Ward, Pal Chowk, Rail Toly, Bhandarkar Road, Near State Bank of India, Gondia, Maharashtra 441614, India",
    "VenueCode": "ECGN",
    "VenueName": "EOS Cinemas: Gondia"
  },
  "EETS": {
    "AvailableFormats": "2D",
    "City": "Erode",
    "Latitude": "11.3288",
    "Longitude": "77.7098",
    "RegionCode": "EROD",
    "State": "Tamil Nadu",
    "SubRegionCode": "EROD",
    "VenueAddress": "468, Brough Road, Teachers Colony, Palayapalayam, Near Aanjaneyar Kovil, Erode, Tamil Nadu 638001, India",
    "VenueCode": "EETS",
    "VenueName": "Sangeetha Theatre A/C 4K Dolby 7.1: Erode"
  },
  "EMCI": {
    "AvailableFormats": "2D",
    "City": "Kolkata",
    "Latitude": "22.3973",
    "Longitude": "88.4883",
    "RegionCode": "BARR",
    "State": "West Bengal",
    "SubRegionCode": "BARR",
    "VenueAddress": "Baruipur - Champahati Road, Opposite State Bank of India, Kolkata, West Bengal 743330, India",
    "VenueCode": "EMCI",
    "VenueName": "Elora Multiplex: Champahati"
  },
  "ERSD": {
    "AvailableFormats": "2D|3D",
    "City": "Jabalpur",
    "Latitude": "23.1689",
    "Longitude": "79.9336",
    "RegionCode": "JABL",
    "State": "Madhya Pradesh",
    "SubRegionCode": "JABL",
    "VenueAddress": "Samdareeya Mall, Civic Centre, Near Mata Gujri College, Jabalpur, Madhya Pradesh 482001, India",
    "VenueCode": "ERSD",
    "VenueName": "Samdareeya Era Cinema: Jabalpur"
  },
  "ESSH": {
    "AvailableFormats": "2D",
    "City": "Hisar",
    "Latitude": "29.1543",
    "Longitude": "75.7222",
    "RegionCode": "HISR",
    "State": "Haryana",
    "SubRegionCode": "HISR",
    "VenueAddress": "Railway Road, Mehta Nagar, Rampura Mohalla, Hisar, Haryana 125001, India",
    "VenueCode": "ESSH",
    "VenueName": "Elite Cinema: Hisar"
  },
  "EVMC": {
    "AvailableFormats": "2D",
    "City": "Muvattupuzha",
    "Latitude": "9.97985",
    "Longitude": "76.5837",
    "RegionCode": "MUVA",
    "State": "Kerala",
    "SubRegionCode": "MUVA",
    "VenueAddress": "SH8, Kizhakkekara, Muvattupuzha, Near Nirmala Shopping Centre, Muvattupuzha, Kerala 686661, India",
    "VenueCode": "EVMC",
    "VenueName": "EVM Latha 4k 3D RGB Pure laser 7.1: Muvattupuzha"
  },
  "FCCT": {
    "AvailableFormats": "2D",
    "City": "Talwandi Bhai",
    "Latitude": "30.8429",
    "Longitude": "74.9334",
    "RegionCode": "TALW",
    "State": "Punjab",
    "SubRegionCode": "TALW",
    "VenueAddress": "Talwandi Bhai Moga Road, Near Fun Island, Talwandi Bhai, Punjab 142050, India",
    "VenueCode": "FCCT",
    "VenueName": "FunIsland Cinemas: Talwandi Bhai"
  },
  "FCRT": {
    "AvailableFormats": "2D",
    "City": "Betul",
    "Latitude": "21.9002",
    "Longitude": "77.9061",
    "RegionCode": "BETU",
    "State": "Madhya Pradesh",
    "SubRegionCode": "BETU",
    "VenueAddress": "Hirani Marg, Ganj, Opposite Kapoor Furnitures, Betul, Madhya Pradesh 460001, India",
    "VenueCode": "FCRT",
    "VenueName": "Rajtilak Multiscreen: Betul"
  },
  "FMDA": {
    "AvailableFormats": "2D|3D",
    "City": "Mumbai",
    "Latitude": "19.2633",
    "Longitude": "72.8746",
    "RegionCode": "MUMBAI",
    "State": "Maharashtra",
    "SubRegionCode": "MWEST",
    "VenueAddress": "3rd Floor, Thakur Mall, Opposite Sunshine Hotel, Near Dahisar Toll Naka, Dahisar East, Mumbai, Maharashtra 400068, India",
    "VenueCode": "FMDA",
    "VenueName": "INOX: Thakur Mall, Dahisar"
  },
  "FMPT": {
    "AvailableFormats": "2D",
    "City": "Petlad",
    "Latitude": "22.4938",
    "Longitude": "72.8013",
    "RegionCode": "BORM",
    "State": "Gujarat",
    "SubRegionCode": "BORM",
    "VenueAddress": "Novello Entertainment, Sunav Road, Near Sanatorium, Petlad, Gujarat 388450, India",
    "VenueCode": "FMPT",
    "VenueName": "Flamingo Cinemas: Petlad"
  },
  "FNCH": {
    "AvailableFormats": "2D|3D",
    "City": "Chandigarh",
    "Latitude": "30.713",
    "Longitude": "76.8447",
    "RegionCode": "CHD",
    "State": "Chandigarh",
    "SubRegionCode": "CHD",
    "VenueAddress": "Dhillon Complex, Mani Majra, Chandigarh, Chandigarh 160101, India",
    "VenueCode": "FNCH",
    "VenueName": "Fun Cinemas: Republic Mall, Chandigarh"
  },
  "FNLN": {
    "AvailableFormats": "3D|2D",
    "City": "Delhi",
    "Latitude": "28.6373",
    "Longitude": "77.2858",
    "RegionCode": "NCR",
    "State": "NCR",
    "SubRegionCode": "DELHI",
    "VenueAddress": "East Centre, Plot No-10, Main Vikas Marg, District Centre, Laxminagar, Delhi, NCR 110092, India",
    "VenueCode": "FNLN",
    "VenueName": "Cinepolis: V3S Mall, Laxmi Nagar"
  },
  "FRPU": {
    "AvailableFormats": "2D",
    "City": "Patran",
    "Latitude": "29.9458",
    "Longitude": "76.0642",
    "RegionCode": "PATR",
    "State": "Punjab",
    "SubRegionCode": "PATR",
    "VenueAddress": "Narwana Bye Pass Road, Patiala, Patran, Punjab 147105, India",
    "VenueCode": "FRPU",
    "VenueName": "Om Jee Cinemas: Patran"
  },
  "FVPN": {
    "AvailableFormats": "2D",
    "City": "Vadodara",
    "Latitude": "22.2892",
    "Longitude": "73.2096",
    "RegionCode": "ANKV",
    "State": "Gujarat",
    "SubRegionCode": "ANKV",
    "VenueAddress": "9/10,Pratapnagar Road, Pratapnagar, Bhatia Chawl, Opposite Yogini Vasantdevi Hospital,Moghul Wada, Vadodara, Gujarat 390004, India",
    "VenueCode": "FVPN",
    "VenueName": "Cinemarc Vihar: Pratapnagar"
  },
  "GAJK": {
    "AvailableFormats": "2D",
    "City": "Khamgaon",
    "Latitude": "20.7055",
    "Longitude": "76.5675",
    "RegionCode": "KHMG",
    "State": "Maharashtra",
    "SubRegionCode": "KHMG",
    "VenueAddress": "Gandhi Chowk, Jagdamba Mata Marg, Opposite Congress Office, Khamgaon, Maharashtra 444303, India",
    "VenueCode": "GAJK",
    "VenueName": "Gajanan Talkies: Khamgaon"
  },
  "GAUT": {
    "AvailableFormats": "2D",
    "City": "Berhampur",
    "Latitude": "19.3128",
    "Longitude": "84.7861",
    "RegionCode": "BERP",
    "State": "Odisha",
    "SubRegionCode": "BERP",
    "VenueAddress": "Gandhi Nagar, Near Hanuman Temple, Berhampur, Odisha 760001, India",
    "VenueCode": "GAUT",
    "VenueName": "Gautam Cinema A/C Dolby Digital 2K: Berhampur"
  },
  "GCCH": {
    "AvailableFormats": "2D",
    "City": "Raigarh",
    "Latitude": "21.8949",
    "Longitude": "83.3958",
    "RegionCode": "RAIG",
    "State": "Chhattisgarh",
    "SubRegionCode": "RAIG",
    "VenueAddress": "Grand Mall, 4th Floor, Gouri Shankar Mandir Chowk, Raigarh, Chhattisgarh 496001, India",
    "VenueCode": "GCCH",
    "VenueName": "Grand Cinemas: Raigarh"
  },
  "GCFK": {
    "AvailableFormats": "2D",
    "City": "Kochi",
    "Latitude": "9.95385",
    "Longitude": "76.2477",
    "RegionCode": "PALY",
    "State": "Kerala",
    "SubRegionCode": "PALY",
    "VenueAddress": "Pandikudy, Anavathil, Thamaraparambu, Chullickal, Near Keraleswaram Siva Temple, Kochi, Kerala 682001, India",
    "VenueCode": "GCFK",
    "VenueName": "G Cinemas Fort Kochi: 4K Dolby ATMOS"
  },
  "GCMA": {
    "AvailableFormats": "2D",
    "City": "Morena",
    "Latitude": "26.4905",
    "Longitude": "77.9869",
    "RegionCode": "MRMP",
    "State": "Madhya Pradesh",
    "SubRegionCode": "MRMP",
    "VenueAddress": "Hariraj Palace, M S Road, Morena, Madhya Pradesh 476001, India",
    "VenueCode": "GCMA",
    "VenueName": "Gold Cinema: Morena"
  },
  "GCRP": {
    "AvailableFormats": "2D",
    "City": "Chennai",
    "Latitude": "13.0999",
    "Longitude": "80.1795",
    "RegionCode": "CHEN",
    "State": "Tamil Nadu",
    "SubRegionCode": "CHEN",
    "VenueAddress": "64, Periyar Nagar, Mes Colony, Chennai, Tamil Nadu 600050, India",
    "VenueCode": "GCRP",
    "VenueName": "Green Cinemas 4K Atmos, PLF: Padi"
  },
  "GCYC": {
    "AvailableFormats": "2D",
    "City": "Yewat",
    "Latitude": "18.4758",
    "Longitude": "74.2682",
    "RegionCode": "YEWE",
    "State": "Maharashtra",
    "SubRegionCode": "YEWE",
    "VenueAddress": "Yawat Dorgewadi Road, Yavat, Yewat, Maharashtra 412214, India",
    "VenueCode": "GCYC",
    "VenueName": "Gunjan Cinema: Yewat"
  },
  "GDCP": {
    "AvailableFormats": "",
    "City": "Jaipur",
    "FirstTracked": "2026-07-14",
    "Latitude": "26.9355",
    "Longitude": "75.7919",
    "RegionCode": "JAIP",
    "State": "Rajasthan",
    "SubRegionCode": "JAIP",
    "VenueAddress": "City Plaza Mall, Jhotwara Road, Sindhi Colony, Bani Park, Jaipur, Rajasthan 302016, India",
    "VenueCode": "GDCP",
    "VenueName": "Gold Cinema: City Plaza, Bani Park (Newly Opened)"
  },
  "GDPB": {
    "AvailableFormats": "",
    "City": "Guwahati",
    "FirstTracked": "2026-07-14",
    "Latitude": "26.180979",
    "Longitude": "91.75014",
    "RegionCode": "GUW",
    "State": "Assam",
    "SubRegionCode": "GUW",
    "VenueAddress": "ASTC Complex, Paltan Bazar, Guwahati, Assam 781001, India",
    "VenueCode": "GDPB",
    "VenueName": "Gold Cinema: Paltan Bazar, Guwahati"
  },
  "GGBC": {
    "AvailableFormats": "2D",
    "City": "Chandrapur",
    "Latitude": "20.6064",
    "Longitude": "79.8648",
    "RegionCode": "CHAN",
    "State": "Maharashtra",
    "SubRegionCode": "CHAN",
    "VenueAddress": "New Gold Star Cinema, Churhe Bada, Brahmapuri, Chandrapur, Maharashtra 441206, India",
    "VenueCode": "GGBC",
    "VenueName": "New Gold Star Cinema: Bramhapuri, Chandrapur"
  },
  "GGYP": {
    "AvailableFormats": "",
    "City": "Chennai",
    "FirstTracked": "2026-07-14",
    "Latitude": "13.41042",
    "Longitude": "80.12794",
    "RegionCode": "CHEN",
    "State": "Tamil Nadu",
    "SubRegionCode": "CHEN",
    "VenueAddress": "No 109, GNT Road, Gummidipoondi, Chennai, Tamil Nadu 601201, India",
    "VenueCode": "GGYP",
    "VenueName": "Ganapathy Theatre 2K Dts: Gummidipoondi, Chennai"
  },
  "GKDN": {
    "AvailableFormats": "2D",
    "City": "Kondamallepally",
    "Latitude": "16.7125",
    "Longitude": "78.9814",
    "RegionCode": "NALK",
    "State": "Telangana",
    "SubRegionCode": "NALK",
    "VenueAddress": "3rd Floor, Vishnu Shopping Mall, MLG Road, Near AMC, Kondamallepally, Telangana 508243, India",
    "VenueCode": "GKDN",
    "VenueName": "GK Cineplex Dolby Atmos: Kondamallepally"
  },
  "GMCN": {
    "AvailableFormats": "2D",
    "City": "Jaipur",
    "Latitude": "26.9156",
    "Longitude": "75.8236",
    "RegionCode": "JAIP",
    "State": "Rajasthan",
    "SubRegionCode": "JAIP",
    "VenueAddress": "MI Road, Near syndicate Bank Bayana Branch, Jaipur, Rajasthan 302003, India",
    "VenueCode": "GMCN",
    "VenueName": "GEM Cinema: Jaipur"
  },
  "GOCS": {
    "AvailableFormats": "2D|3D",
    "City": "Mumbai",
    "Latitude": "19.0895",
    "Longitude": "72.8393",
    "RegionCode": "MUMBAI",
    "State": "Maharashtra",
    "SubRegionCode": "MWEST",
    "VenueAddress": "2nd Floor, Milan Garment Hub, Milan Subway Road, Santacruz West, Mumbai, Maharashtra 400054, India",
    "VenueCode": "GOCS",
    "VenueName": "Gold Cinema: Santacruz (W)"
  },
  "GPDC": {
    "AvailableFormats": "3D|2D",
    "City": "Gurugram (Gurgaon)",
    "Latitude": "28.5043",
    "Longitude": "77.0974",
    "RegionCode": "NCR",
    "State": "NCR",
    "SubRegionCode": "GURG",
    "VenueAddress": "4th Floor, Ambience Mall, NH-8, Near Toll Plaza, Gurugram (Gurgaon), NCR 122001, India",
    "VenueCode": "GPDC",
    "VenueName": "Gurugram: PVR Director`s Cut, Ambience Mall"
  },
  "GRCG": {
    "AvailableFormats": "2D|3D",
    "City": "Guwahati",
    "Latitude": "26.1799",
    "Longitude": "91.7514",
    "RegionCode": "GUW",
    "State": "Assam",
    "SubRegionCode": "GUW",
    "VenueAddress": "Grand Plaza, 5th Floor, Hotel Maitri Residency, G.S. Road, Paltan Bazar, Guwahati, Assam 781008, India",
    "VenueCode": "GRCG",
    "VenueName": "Grande Cines: Paltan bazar, Guwahati"
  },
  "GSER": {
    "AvailableFormats": "2D",
    "City": "Sri Ganganagar",
    "Latitude": "29.8695",
    "Longitude": "73.8756",
    "RegionCode": "SRIG",
    "State": "Rajasthan",
    "SubRegionCode": "SRIG",
    "VenueAddress": "Shreenath Enclave, Suratgarh Road, NH62, Sri Ganganagar, Rajasthan 335001, India",
    "VenueCode": "GSER",
    "VenueName": "Gold Cinema:NH-62 Shreenath Enclave,Sri Ganganagar"
  },
  "GTCX": {
    "AvailableFormats": "2D",
    "City": "Kattanam",
    "Latitude": "9.17694",
    "Longitude": "76.5636",
    "RegionCode": "NOOR",
    "State": "Kerala",
    "SubRegionCode": "NOOR",
    "VenueAddress": "Kayamkulam - Punalur Road, Near South Indian Bank, Kattanam, Kerala 690503, India",
    "VenueCode": "GTCX",
    "VenueName": "Ganam Theatre Complex 4K 3D: Kattanam"
  },
  "GTTA": {
    "AvailableFormats": "2D",
    "City": "Falakata",
    "Latitude": "26.5179",
    "Longitude": "89.2024",
    "RegionCode": "FALA",
    "State": "West Bengal",
    "SubRegionCode": "FALA",
    "VenueAddress": "Babupara, Near Netaji Road, Opposite Falakata Park, Falakata, West Bengal 735211, India",
    "VenueCode": "GTTA",
    "VenueName": "Gouri Talkies: Falakata"
  },
  "GVCP": {
    "AvailableFormats": "2D",
    "City": "Pileru",
    "Latitude": "13.6577",
    "Longitude": "78.9366",
    "RegionCode": "PLRU",
    "State": "Andhra Pradesh",
    "SubRegionCode": "PLRU",
    "VenueAddress": "Off National Highway 205, Piler, Pileru, Andhra Pradesh 517214, India",
    "VenueCode": "GVCP",
    "VenueName": "GV Cinemas (Ajantha Theater): Pileru"
  },
  "HANS": {
    "AvailableFormats": "",
    "City": "Chalisgaon",
    "FirstTracked": "2026-07-14",
    "Latitude": "20.4616",
    "Longitude": "74.9972",
    "RegionCode": "CHLS",
    "State": "Maharashtra",
    "SubRegionCode": "CHLS",
    "VenueAddress": "92, Ganesh Nagar, Hans Theatre Road, Chalisgaon, Maharashtra 424101, India",
    "VenueCode": "HANS",
    "VenueName": "Raj Chitramandir: Chalisgaon"
  },
  "HFLM": {
    "AvailableFormats": "",
    "City": "Margao",
    "FirstTracked": "2026-07-14",
    "Latitude": "15.2715",
    "Longitude": "73.9686",
    "RegionCode": "MARG",
    "State": "Goa",
    "SubRegionCode": "MARG",
    "VenueAddress": "St. Joaquim Aquem Road, Opp Monastery, Near Aquem Post Office, Margao, Goa 403601, India",
    "VenueCode": "HFLM",
    "VenueName": "Z Square Cine Vishant: Margao"
  },
  "HILC": {
    "AvailableFormats": "2D",
    "City": "Renukoot",
    "Latitude": "24.2144",
    "Longitude": "83.0364",
    "RegionCode": "RENU",
    "State": "Uttar Pradesh",
    "SubRegionCode": "RENU",
    "VenueAddress": "Hindalco Colony, Opp. Ramleela ground, Birla Market, Renukoot, Uttar Pradesh 231217, India",
    "VenueCode": "HILC",
    "VenueName": "HIL Cinema: Renukoot"
  },
  "HRSR": {
    "AvailableFormats": "",
    "City": "Chennai",
    "Latitude": "13.1216",
    "Longitude": "80.0703",
    "RegionCode": "CHEN",
    "State": "Tamil Nadu",
    "SubRegionCode": "CHEN",
    "VenueAddress": "Chennai - Thiruttani, Renigunta Highway, Chennai, Tamil Nadu 600072, India",
    "VenueCode": "HRSR",
    "VenueName": "Sri Hari Theatre Dolby Atmos: Pattabiram"
  },
  "IBYG": {
    "AvailableFormats": "2D",
    "City": "Gurugram (Gurgaon)",
    "Latitude": "28.4038",
    "Longitude": "76.948",
    "RegionCode": "NCR",
    "State": "NCR",
    "SubRegionCode": "GURG",
    "VenueAddress": "2nd Floor, IRIS Broadway, Sector 85, Gurugram (Gurgaon), NCR 122004, India",
    "VenueCode": "IBYG",
    "VenueName": "INOX: IRIS Broadway Gurugram"
  },
  "IFRM": {
    "AvailableFormats": "2D|3D",
    "City": "Kolkata",
    "Latitude": "22.6242",
    "Longitude": "88.3537",
    "RegionCode": "KOLK",
    "State": "West Bengal",
    "SubRegionCode": "KOLK",
    "VenueAddress": "212, Girish Ghosh Road, Belur, Howrah, Kolkata, West Bengal 711202, India",
    "VenueCode": "IFRM",
    "VenueName": "INOX: Forum Rangoli Mall, Belur"
  },
  "IMCC": {
    "AvailableFormats": "",
    "City": "Manipal",
    "FirstTracked": "2026-07-14",
    "Latitude": "13.349167",
    "Longitude": "74.7829",
    "RegionCode": "MANI",
    "State": "Karnataka",
    "SubRegionCode": "MANI",
    "VenueAddress": "1st Floor, Central Cinemas, Lamindra Nagar, Near KFC, Udupi Main Road, Manipal, Karnataka 576104, India",
    "VenueCode": "IMCC",
    "VenueName": "INOX: Manipal Central Cinemas"
  },
  "IMPM": {
    "AvailableFormats": "2D",
    "City": "Trivandrum",
    "Latitude": "8.32379",
    "Longitude": "77.1803",
    "RegionCode": "VKAL",
    "State": "Kerala",
    "SubRegionCode": "VKAL",
    "VenueAddress": "Pandathalamood, Aallumoodu, Kaliyikkavila, Trivandrum, Kerala 629194, India",
    "VenueCode": "IMPM",
    "VenueName": "IMP Big Screen 2K 3D Dolby Atmos"
  },
  "INBB": {
    "AvailableFormats": "2D",
    "City": "Bhubaneswar",
    "Latitude": "20.2868",
    "Longitude": "85.8474",
    "RegionCode": "BHUB",
    "State": "Odisha",
    "SubRegionCode": "BHUB",
    "VenueAddress": "Market Street, Sahid Nagar, Bhubaneswar, Odisha 751007, India",
    "VenueCode": "INBB",
    "VenueName": "INOX: BMC Bhawani Mall"
  },
  "INBW": {
    "AvailableFormats": "2D|3D",
    "City": "Burdwan",
    "Latitude": "23.2467",
    "Longitude": "87.8653",
    "RegionCode": "BURD",
    "State": "West Bengal",
    "SubRegionCode": "BURD",
    "VenueAddress": "Burdwan Arcade, 4th Floor, 60, B. B. Ghosh Road, Next to Big Bazaar, Burdwan, West Bengal 713101, India",
    "VenueCode": "INBW",
    "VenueName": "INOX: Burdwan Arcade, B B Ghosh Road"
  },
  "INFR": {
    "AvailableFormats": "2D|3D",
    "City": "Faridabad",
    "Latitude": "28.4608",
    "Longitude": "77.3068",
    "RegionCode": "NCR",
    "State": "NCR",
    "SubRegionCode": "FARI",
    "VenueAddress": "3rd Floor, Crown Interiorz Mall, Delhi Mathura Road, Subash Nagar, Faridabad, NCR 121003, India",
    "VenueCode": "INFR",
    "VenueName": "INOX: Crown Interiorz Mall, Delhi Mathura Road"
  },
  "INJC": {
    "AvailableFormats": "",
    "City": "Jaipur",
    "FirstTracked": "2026-07-14",
    "Latitude": "26.903254",
    "Longitude": "75.79259",
    "RegionCode": "JAIP",
    "State": "Rajasthan",
    "SubRegionCode": "JAIP",
    "VenueAddress": "3rd Floor, Crystal Palm Mall, Sardar Patel Marg, Shivaji Nagar, Opposite MGF Metropolitan Mall, Jaipur, Rajasthan 302001, India",
    "VenueCode": "INJC",
    "VenueName": "INOX: Crystal Palm, C Scheme"
  },
  "INMK": {
    "AvailableFormats": "2D|3D",
    "City": "Kolhapur",
    "Latitude": "16.6987",
    "Longitude": "74.2312",
    "RegionCode": "KOLH",
    "State": "Maharashtra",
    "SubRegionCode": "KOLH",
    "VenueAddress": "2nd Floor, Reliance Mega Mall, Old Dalal Market, Laxmipuri, Near Lakshmi Vilas bank, Kolhapur, Maharashtra 416002, India",
    "VenueCode": "INMK",
    "VenueName": "INOX: Reliance Mega Mall, Kolhapur"
  },
  "INPM": {
    "AvailableFormats": "3D|2D",
    "City": "Meerut",
    "Latitude": "28.9528",
    "Longitude": "77.7315",
    "RegionCode": "MERT",
    "State": "Uttar Pradesh",
    "SubRegionCode": "MERT",
    "VenueAddress": "PVS Multiplex India Ltd, PVS Mall, 2nd Floor, I Block, Shastri Nagar, Meerut, Uttar Pradesh 250001, India",
    "VenueCode": "INPM",
    "VenueName": "INOX: PVS Mall, Meerut"
  },
  "INRD": {
    "AvailableFormats": "3D|2D",
    "City": "Delhi",
    "Latitude": "28.6506",
    "Longitude": "77.1219",
    "RegionCode": "NCR",
    "State": "NCR",
    "SubRegionCode": "DELHI",
    "VenueAddress": "R Cube Monad Mall, Shivaji Place District Centre, Raja Garden, Delhi, NCR 110027, India",
    "VenueCode": "INRD",
    "VenueName": "INOX: RCube, Monad Mall: Delhi"
  },
  "INSG": {
    "AvailableFormats": "2D|3D",
    "City": "Gurugram (Gurgaon)",
    "Latitude": "28.4047",
    "Longitude": "76.9359",
    "RegionCode": "NCR",
    "State": "NCR",
    "SubRegionCode": "GURG",
    "VenueAddress": "INOX Leisure Ltd, 2nd Floor, Sapphire 90 Mall, sector 90, Haryana, Gurugram (Gurgaon), NCR 122505, India",
    "VenueCode": "INSG",
    "VenueName": "INOX Sapphire 90 Mall: Gurugram"
  },
  "INTS": {
    "AvailableFormats": "2D",
    "City": "Srinagar",
    "Latitude": "34.0652",
    "Longitude": "74.8456",
    "RegionCode": "SRNG",
    "State": "Jammu and Kashmir",
    "SubRegionCode": "SRNG",
    "VenueAddress": "Taksal Hospitality Pvt. Ltd. Khasra No: 946/802, Mouza, Shivpora, Srinagar, Jammu and Kashmir 190004, India",
    "VenueCode": "INTS",
    "VenueName": "INOX: Srinagar Shivpora"
  },
  "INVS": {
    "AvailableFormats": "2D",
    "City": "Madurai",
    "Latitude": "9.93825",
    "Longitude": "78.136",
    "RegionCode": "MADU",
    "State": "Tamil Nadu",
    "SubRegionCode": "MADU",
    "VenueAddress": "No. 31, 5th Floor, Vishaal De Mall, Gokhale Road, Chinna Chokkikulam, Madurai, Tamil Nadu 625002, India",
    "VenueCode": "INVS",
    "VenueName": "INOX: Vishaal De Mall"
  },
  "IOMH": {
    "AvailableFormats": "2D",
    "City": "Hyderabad",
    "Latitude": "17.405558",
    "Longitude": "78.496391",
    "RegionCode": "HYD",
    "State": "Telangana",
    "SubRegionCode": "HYD",
    "VenueAddress": "Odeon Mall, Chikkadpally, New Nallakunta, Hyderabad, Telangana 500020, India",
    "VenueCode": "IOMH",
    "VenueName": "INOX: Odeon 4K, LASER, ATMOS, DTS-X: RTC X Roads"
  },
  "IPMM": {
    "AvailableFormats": "2D",
    "City": "Mughalsarai",
    "Latitude": "25.2937",
    "Longitude": "83.0992",
    "RegionCode": "MGSI",
    "State": "Uttar Pradesh",
    "SubRegionCode": "MGSI",
    "VenueAddress": "Second Floor, IP Mughal Multiplex, Chandauli District, GT Road, Mughalsarai, Uttar Pradesh 232101, India",
    "VenueCode": "IPMM",
    "VenueName": "IP Cinemas: IP Mughal Multiplex"
  },
  "ISML": {
    "AvailableFormats": "2D|3D",
    "City": "Gurugram (Gurgaon)",
    "Latitude": "28.3925",
    "Longitude": "76.9676",
    "RegionCode": "NCR",
    "State": "NCR",
    "SubRegionCode": "GURG",
    "VenueAddress": "INOX Leisure Ltd, 2nd Floor, Sapphire Mall, Sector - 83, NH - 8, Gurugram (Gurgaon), NCR 122004, India",
    "VenueCode": "ISML",
    "VenueName": "INOX: Gurgaon Sapphire 83"
  },
  "IWPM": {
    "AvailableFormats": "2D",
    "City": "Gangtok",
    "Latitude": "27.3295",
    "Longitude": "88.612",
    "RegionCode": "GANG",
    "State": "Sikkim",
    "SubRegionCode": "GANG",
    "VenueAddress": "4th Floor, West Point Mall, DPH Road, Arithang, Gangtok, Sikkim 737101, India",
    "VenueCode": "IWPM",
    "VenueName": "INOX: West Point Mall, Gangtok-MN"
  },
  "JAYD": {
    "AvailableFormats": "2D",
    "City": "Tirupati",
    "Latitude": "13.631",
    "Longitude": "79.4247",
    "RegionCode": "TIRU",
    "State": "Andhra Pradesh",
    "SubRegionCode": "TIRU",
    "VenueAddress": "Mallaiah Gunta Katta, Tata Nagar, Tirupati, Andhra Pradesh 517501, India",
    "VenueCode": "JAYD",
    "VenueName": "NVR Jaysyam A/C 4K Dolby Atmos: Tirupati"
  },
  "JCHB": {
    "AvailableFormats": "2D",
    "City": "Chapra",
    "Latitude": "25.7839",
    "Longitude": "84.7407",
    "RegionCode": "CHPR",
    "State": "Bihar",
    "SubRegionCode": "CHPR",
    "VenueAddress": "Sri Nandan Path Road, Dahiyawan Tola, Near Astha Nursing Home, Chapra, Bihar 841301, India",
    "VenueCode": "JCHB",
    "VenueName": "Jyoti Cinema: Chapra"
  },
  "JDDD": {
    "AvailableFormats": "2D|3D",
    "City": "Ranchi",
    "Latitude": "23.358",
    "Longitude": "85.3247",
    "RegionCode": "RANC",
    "State": "Jharkhand",
    "SubRegionCode": "RANC",
    "VenueAddress": "JD High Street Mall, 07th Floor, Mahatma Gandhi Main Road, Opposite - GEL Church Complex, Ranchi, Jharkhand 834001, India",
    "VenueCode": "JDDD",
    "VenueName": "JD Cinemas: JD HI Street Mall, Ranchi"
  },
  "JHTP": {
    "AvailableFormats": "",
    "City": "Parappanangadi",
    "FirstTracked": "2026-07-14",
    "Latitude": "11.045552",
    "Longitude": "75.86417",
    "RegionCode": "PAVP",
    "State": "Kerala",
    "SubRegionCode": "PAVP",
    "VenueAddress": "Parappanangadi - Chemmad - Malappuram Road, Putharikkal, Parappanangadi, Kerala 676303, India",
    "VenueCode": "JHTP",
    "VenueName": "Jaya Kerala Theatre: Parappanangadi"
  },
  "JKMA": {
    "AvailableFormats": "",
    "City": "Kharsia",
    "FirstTracked": "2026-07-14",
    "Latitude": "21.986858",
    "Longitude": "83.1043",
    "RegionCode": "KHAS",
    "State": "Chhattisgarh",
    "SubRegionCode": "KHAS",
    "VenueAddress": "Ajit Singh Nagar, Bus Stand Road, Near Axis Bank Limited, Kharsia, Chhattisgarh 496661, India",
    "VenueCode": "JKMA",
    "VenueName": "JK Multiplex: Kharsia"
  },
  "JMNP": {
    "AvailableFormats": "2D",
    "City": "Podalakur",
    "Latitude": "14.3866",
    "Longitude": "79.7334",
    "RegionCode": "PODA",
    "State": "Andhra Pradesh",
    "SubRegionCode": "PODA",
    "VenueAddress": "Kanigiri - Tirupathi Road, Near Vani Nursing Home, Podalakur, Andhra Pradesh 524409, India",
    "VenueCode": "JMNP",
    "VenueName": "Jamuna Complex: Podalakur"
  },
  "JSAI": {
    "AvailableFormats": "2D",
    "City": "Virudhachalam",
    "Latitude": "11.5248",
    "Longitude": "79.3221",
    "RegionCode": "VIDM",
    "State": "Tamil Nadu",
    "SubRegionCode": "VIDM",
    "VenueAddress": "State Highway 69, Mullai Nagar, Near A to Z Super Market, Virudhachalam, Tamil Nadu 606001, India",
    "VenueCode": "JSAI",
    "VenueName": "Jai Sai Krishna Cinemas A/C: Virudhachalam"
  },
  "JTCP": {
    "AvailableFormats": "2D",
    "City": "Petlad",
    "Latitude": "22.4768",
    "Longitude": "72.8087",
    "RegionCode": "PETL",
    "State": "Gujarat",
    "SubRegionCode": "PETL",
    "VenueAddress": "Morarji Shopping Centre, College Chokdi, Sarvodaya Society, Petlad, Gujarat 388450, India",
    "VenueCode": "JTCP",
    "VenueName": "City Light Theatre: Petlad"
  },
  "JTMA": {
    "AvailableFormats": "",
    "City": "Macherla",
    "FirstTracked": "2026-07-14",
    "Latitude": "16.477894",
    "Longitude": "79.43776",
    "RegionCode": "MACH",
    "State": "Andhra Pradesh",
    "SubRegionCode": "MACH",
    "VenueAddress": "Macharla - Karempudi Road, Opposite State Bank Of India, Macherla, Andhra Pradesh 522426, India",
    "VenueCode": "JTMA",
    "VenueName": "Rama Talkies: Macherla"
  },
  "JTPC": {
    "AvailableFormats": "2D",
    "City": "Coimbatore",
    "Latitude": "11.1508",
    "Longitude": "76.9435",
    "RegionCode": "COIM",
    "State": "Tamil Nadu",
    "SubRegionCode": "COIM",
    "VenueAddress": "NH67, Periyanaickenpalayam, Near Nellai Periya Lala Sweets, Coimbatore, Tamil Nadu 641020, India",
    "VenueCode": "JTPC",
    "VenueName": "Jayanthi Cinemas A/C 4K LASER ATMOS: P.N Palayam"
  },
  "JTSH": {
    "AvailableFormats": "",
    "City": "Kasibugga",
    "FirstTracked": "2026-07-14",
    "Latitude": "18.765408",
    "Longitude": "84.41901",
    "RegionCode": "KSBG",
    "State": "Andhra Pradesh",
    "SubRegionCode": "KSBG",
    "VenueAddress": "KT Road, Near LIC of India Branch Office, Kasibugga, Andhra Pradesh 532222, India",
    "VenueCode": "JTSH",
    "VenueName": "Hari Shankar Theatre: Kasibugga"
  },
  "JTVM": {
    "AvailableFormats": "2D",
    "City": "Anakapalle",
    "Latitude": "17.6903",
    "Longitude": "83.0088",
    "RegionCode": "ANKP",
    "State": "Andhra Pradesh",
    "SubRegionCode": "ANKP",
    "VenueAddress": "Number 11-4-22, Chinna Veedhi, Woodpeta, Anakapalle, Andhra Pradesh 531001, India",
    "VenueCode": "JTVM",
    "VenueName": "Venkateswara Movie Mart: Anakapalle"
  },
  "JYCR": {
    "AvailableFormats": "2D",
    "City": "Ramanathapuram",
    "Latitude": "9.36626",
    "Longitude": "78.8362",
    "RegionCode": "RAPU",
    "State": "Tamil Nadu",
    "SubRegionCode": "RAPU",
    "VenueAddress": "41/1 Devipattinam Road, Vaigai Nagar, Ramanathapuram, Tamil Nadu 623504, India",
    "VenueCode": "JYCR",
    "VenueName": "Jagan Theatre A/C Sony 4K 3D: Ramanathapuram"
  },
  "KACX": {
    "AvailableFormats": "2D",
    "City": "Raikot",
    "Latitude": "30.6484",
    "Longitude": "75.5757",
    "RegionCode": "RKOT",
    "State": "Punjab",
    "SubRegionCode": "RKOT",
    "VenueAddress": "Modern Footwear, 305/3888, Jagraon Road, Raikot, Raikot, Punjab 142034, India",
    "VenueCode": "KACX",
    "VenueName": "KVA Cineplex: Raikot"
  },
  "KATS": {
    "AvailableFormats": "",
    "City": "Rupnagar",
    "FirstTracked": "2026-07-14",
    "Latitude": "30.968328",
    "Longitude": "76.52254",
    "RegionCode": "RUPN",
    "State": "Punjab",
    "SubRegionCode": "RUPN",
    "VenueAddress": "Kalyan Cinema, Dashmesh Nagar, Near Phool Chakker College Road, Rupnagar, Punjab 140001, India",
    "VenueCode": "KATS",
    "VenueName": "KBP Kalyan Talkies: Rupnagar"
  },
  "KCCA": {
    "AvailableFormats": "2D",
    "City": "Goalpara",
    "Latitude": "26.1752",
    "Longitude": "90.6195",
    "RegionCode": "GOAL",
    "State": "Assam",
    "SubRegionCode": "GOAL",
    "VenueAddress": "Pancharatna Road, Near Kim Photostate Center, Goalpara, Assam 783101, India",
    "VenueCode": "KCCA",
    "VenueName": "Kalpana Cinema: Goalpara"
  },
  "KCMR": {
    "AvailableFormats": "2D",
    "City": "Udgir",
    "Latitude": "18.3814",
    "Longitude": "77.1251",
    "RegionCode": "UDGR",
    "State": "Maharashtra",
    "SubRegionCode": "UDGR",
    "VenueAddress": "Shelhal Road, Vikas Nagar, Udgir, Maharashtra 413517, India",
    "VenueCode": "KCMR",
    "VenueName": "Kalpana Chitra Mandir: Udgir"
  },
  "KCTK": {
    "AvailableFormats": "2D",
    "City": "Kochi",
    "Latitude": "10.1269",
    "Longitude": "76.199",
    "RegionCode": "PALY",
    "State": "Kerala",
    "SubRegionCode": "PALY",
    "VenueAddress": "Ayyampilly, Pallippuram Rd,Kochi, Near Rama Varma Union High School, Kochi, Kerala 682501, India",
    "VenueCode": "KCTK",
    "VenueName": "K Cinemas 4K Dolby Atmos Tripplebeam 3D: Cherai"
  },
  "KESR": {
    "AvailableFormats": "2D",
    "City": "Indapur",
    "Latitude": "18.1114",
    "Longitude": "75.0296",
    "RegionCode": "INDA",
    "State": "Maharashtra",
    "SubRegionCode": "INDA",
    "VenueAddress": "Near Bhaji Mandai Nehru Chowk, Dargah  Masjid, Indapur, Maharashtra 413106, India",
    "VenueCode": "KESR",
    "VenueName": "Keshar Cinema: Indapur"
  },
  "KICT": {
    "AvailableFormats": "2D",
    "City": "Tirupur",
    "Latitude": "11.142",
    "Longitude": "77.3239",
    "RegionCode": "TIRP",
    "State": "Tamil Nadu",
    "SubRegionCode": "TIRP",
    "VenueAddress": "Kumaran Road No 71, AVP Rd, Periyar Colony, Anupparpalayam Pudur, Near Juki Machinery India Private Limited, Tirupur, Tamil Nadu 641601, India",
    "VenueCode": "KICT",
    "VenueName": "Kalaivani Cinemas A/C DOLBY 9.2 Surround: Tirupur"
  },
  "KKSC": {
    "AvailableFormats": "2D",
    "City": "Memari",
    "Latitude": "23.1691",
    "Longitude": "88.0982",
    "RegionCode": "MMRR",
    "State": "West Bengal",
    "SubRegionCode": "MMRR",
    "VenueAddress": "Memari-Tarkeswar Road, Near Anita Super Market, Memari Auto Stores, Memari, West Bengal 713146, India",
    "VenueCode": "KKSC",
    "VenueName": "Kristi Cinema: Memari"
  },
  "KMAJ": {
    "AvailableFormats": "2D",
    "City": "Lonand",
    "Latitude": "18.038",
    "Longitude": "74.1832",
    "RegionCode": "LONZ",
    "State": "Maharashtra",
    "SubRegionCode": "LONZ",
    "VenueAddress": "Near Kumar Gas Egancy, Gyanaba Mauli Road, Lonand, Maharashtra 415521, India",
    "VenueCode": "KMAJ",
    "VenueName": "K Mahindra Cinema: Lonand"
  },
  "KMTV": {
    "AvailableFormats": "2D",
    "City": "Vadakara",
    "Latitude": "11.5927",
    "Longitude": "75.5903",
    "RegionCode": "VDKR",
    "State": "Kerala",
    "SubRegionCode": "VDKR",
    "VenueAddress": "Edodi, Near ICICI Bank Vadakara, Vadakara, Kerala 673101, India",
    "VenueCode": "KMTV",
    "VenueName": "Kirthi Mudra 4K RGB Laser Dolby Atmos"
  },
  "KPSG": {
    "AvailableFormats": "",
    "City": "Gooty",
    "FirstTracked": "2026-07-14",
    "Latitude": "15.110157",
    "Longitude": "77.63626",
    "RegionCode": "GOOT",
    "State": "Andhra Pradesh",
    "SubRegionCode": "GOOT",
    "VenueAddress": "Anantapur Road, Opp Ravi Teja Hotel, Gooty, Andhra Pradesh 515401, India",
    "VenueCode": "KPSG",
    "VenueName": "KPS Movie Land: Gooty"
  },
  "KRMT": {
    "AvailableFormats": "2D",
    "City": "Sakti",
    "Latitude": "22.0182",
    "Longitude": "82.9593",
    "RegionCode": "SAKT",
    "State": "Chhattisgarh",
    "SubRegionCode": "SAKT",
    "VenueAddress": "1st Floor, Jindal Plaza Station Road, Sakti Marg, Sakti, Chhattisgarh 495689, India",
    "VenueCode": "KRMT",
    "VenueName": "Krishna Metro Cinema: Sakti"
  },
  "KSCK": {
    "AvailableFormats": "",
    "City": "Karunagapally",
    "FirstTracked": "2026-07-14",
    "Latitude": "9.054752",
    "Longitude": "76.52673",
    "RegionCode": "KARG",
    "State": "Kerala",
    "SubRegionCode": "KARG",
    "VenueAddress": "Alumkadavu Road, Karunagappalli, Karunagapally, Kerala 690518, India",
    "VenueCode": "KSCK",
    "VenueName": "Khans Cinema A/C: Karunagapally"
  },
  "KSSB": {
    "AvailableFormats": "2D",
    "City": "Durg",
    "Latitude": "21.1646",
    "Longitude": "81.2613",
    "RegionCode": "DURG",
    "State": "Chhattisgarh",
    "SubRegionCode": "DURG",
    "VenueAddress": "Mahalaxmi Market, Mini Mata Chowk, Pulgaon, Near Kapada Market, Durg, Chhattisgarh 491001, India",
    "VenueCode": "KSSB",
    "VenueName": "K Sera Sera Miniplex: Durg"
  },
  "KTDI": {
    "AvailableFormats": "2D",
    "City": "Deoli(Rajasthan)",
    "Latitude": "25.7613",
    "Longitude": "75.3766",
    "RegionCode": "DEOY",
    "State": "Rajasthan",
    "SubRegionCode": "DEOY",
    "VenueAddress": "National Highway 52, Tonk Road, Narayani Nagar, Deoli(Rajasthan), Rajasthan 304804, India",
    "VenueCode": "KTDI",
    "VenueName": "Kisan Talkies: Deoli (RJ)"
  },
  "KTSN": {
    "AvailableFormats": "",
    "City": "Soron",
    "FirstTracked": "2026-07-14",
    "Latitude": "27.735193",
    "Longitude": "78.944405",
    "RegionCode": "SORO",
    "State": "Uttar Pradesh",
    "SubRegionCode": "SORO",
    "VenueAddress": "Krishna Talkies, Kachla Chungi town, Soron, Uttar Pradesh 207403, India",
    "VenueCode": "KTSN",
    "VenueName": "Krishna Talkies: Soron"
  },
  "KYRR": {
    "AvailableFormats": "2D",
    "City": "Rayakottai",
    "Latitude": "12.5146",
    "Longitude": "78.032",
    "RegionCode": "RTTA",
    "State": "Tamil Nadu",
    "SubRegionCode": "RTTA",
    "VenueAddress": "4/424, Shoolagiri Main Road, Rahamath Colony, Rayakottai, Tamil Nadu 635116, India",
    "VenueCode": "KYRR",
    "VenueName": "Kamaraj Theatre: Rayakottai"
  },
  "LARC": {
    "AvailableFormats": "2D",
    "City": "Perambalur",
    "Latitude": "11.2388",
    "Longitude": "78.8665",
    "RegionCode": "ARIY",
    "State": "Tamil Nadu",
    "SubRegionCode": "ARIY",
    "VenueAddress": "Perambalur Elambalur Road, Samiyappa Nagar, Near Sri Anand Jewellers and silks, Perambalur, Tamil Nadu 621212, India",
    "VenueCode": "LARC",
    "VenueName": "LA Ram Cinema 4K Dolby ATMOS: Perambalur"
  },
  "LCKR": {
    "AvailableFormats": "2D",
    "City": "Kannur",
    "Latitude": "11.8798",
    "Longitude": "75.3691",
    "RegionCode": "KANN",
    "State": "Kerala",
    "SubRegionCode": "KANN",
    "VenueAddress": "Tulichery Road, Talap, Near Oriental Bank of commerce, Kannur, Kerala 670002, India",
    "VenueCode": "LCKR",
    "VenueName": "Liberty Cinema: Kannur (Ambili Theatre)"
  },
  "LCXA": {
    "AvailableFormats": "2D",
    "City": "Amgaon",
    "Latitude": "21.3759",
    "Longitude": "80.381",
    "RegionCode": "AMGN",
    "State": "Maharashtra",
    "SubRegionCode": "AMGN",
    "VenueAddress": "Liya Cinemax, OPP Bail Bazar, Amgaon, Maharashtra 441902, India",
    "VenueCode": "LCXA",
    "VenueName": "Liya Cinemax: Amgaon"
  },
  "LISA": {
    "AvailableFormats": "2D",
    "City": "Sehore",
    "Latitude": "23.2016",
    "Longitude": "77.0796",
    "RegionCode": "SEHO",
    "State": "Madhya Pradesh",
    "SubRegionCode": "SEHO",
    "VenueAddress": "42, Sindhi Colony, Main Road, Near State bank of India, Next to City Post Office, Sehore, Madhya Pradesh 466001, India",
    "VenueCode": "LISA",
    "VenueName": "Lisa Multiplex Screen 1: Sehore"
  },
  "LKTH": {
    "AvailableFormats": "2D",
    "City": "Bengaluru",
    "Latitude": "12.9253",
    "Longitude": "77.6076",
    "RegionCode": "HOKT",
    "State": "Karnataka",
    "SubRegionCode": "HOKT",
    "VenueAddress": "Near to Bangalore Dairy BTM Layout, Balaji Nagar, Tavarekere Road, Opposite to Forum Mall, Bengaluru, Karnataka 560081, India",
    "VenueCode": "LKTH",
    "VenueName": "Lakshmi Cinema 4K Dolby Atmos RGB Laser Tavarekere"
  },
  "LMHO": {
    "AvailableFormats": "2D|3D",
    "City": "Hosur",
    "Latitude": "12.7422",
    "Longitude": "77.8288",
    "RegionCode": "HSUR",
    "State": "Tamil Nadu",
    "SubRegionCode": "HSUR",
    "VenueAddress": "Survy No- 518/1A, Plot No.205-A, NHS Hosur, Phase VII, Krishnagiri, Hosur, Tamil Nadu 635109, India",
    "VenueCode": "LMHO",
    "VenueName": "Lakshmi Cinemas RGB Laser QSC Dolby Atmos: Hosur"
  },
  "LSCB": {
    "AvailableFormats": "",
    "City": "Bhiwadi",
    "FirstTracked": "2026-07-14",
    "Latitude": "28.194407",
    "Longitude": "76.81226",
    "RegionCode": "BHWD",
    "State": "Rajasthan",
    "SubRegionCode": "BHWD",
    "VenueAddress": "3rd Floor, Legend Centra Mall, 1st Mile Stone, Alwar By Pass Road, Bhiwadi, Rajasthan 301019, India",
    "VenueCode": "LSCB",
    "VenueName": "Legend SRS Cinemas: Bhiwadi"
  },
  "LVCD": {
    "AvailableFormats": "2D",
    "City": "Durg",
    "Latitude": "21.1959",
    "Longitude": "81.2844",
    "RegionCode": "DURG",
    "State": "Chhattisgarh",
    "SubRegionCode": "DURG",
    "VenueAddress": "Guru Nanak Nagar, Station Road, Near Apsara Talkies, Durg, Chhattisgarh 491001, India",
    "VenueCode": "LVCD",
    "VenueName": "Tarun LV Cinemas: Durg"
  },
  "MAAG": {
    "AvailableFormats": "2D",
    "City": "Navsari",
    "Latitude": "20.9502",
    "Longitude": "72.9171",
    "RegionCode": "NVSR",
    "State": "Gujarat",
    "SubRegionCode": "NVSR",
    "VenueAddress": "Mukta A2 Cinemas, Giriraj, Station Road, Taskand Nagar, Vejalpore, Near Udipi Hotel, Navsari, Gujarat 396445, India",
    "VenueCode": "MAAG",
    "VenueName": "Mukta A2 Cinemas: Giriraj"
  },
  "MACT": {
    "AvailableFormats": "2D",
    "City": "Machilipatnam",
    "Latitude": "16.1836",
    "Longitude": "81.1324",
    "RegionCode": "MAPM",
    "State": "Andhra Pradesh",
    "SubRegionCode": "MAPM",
    "VenueAddress": "NH 214A, Srinivas Nagar Colony, Krishna District, Machilipatnam, Andhra Pradesh 521001, India",
    "VenueCode": "MACT",
    "VenueName": "Siri Complex: Machilipatnam"
  },
  "MAHM": {
    "AvailableFormats": "2D",
    "City": "Hyderabad",
    "Latitude": "17.4999",
    "Longitude": "78.3866",
    "RegionCode": "HYD",
    "State": "Telangana",
    "SubRegionCode": "HYD",
    "VenueAddress": "1-2-29/93, Jai Bharat Nagar, Hyder Nagar, Vasantha Nagar, Nizampet, Hyderabad, Telangana 500090, India",
    "VenueCode": "MAHM",
    "VenueName": "Mallikarjuna 70mm A/C DTS: Kukatpally"
  },
  "MAOP": {
    "AvailableFormats": "",
    "City": "Surat",
    "FirstTracked": "2026-07-16",
    "Latitude": "21.1773",
    "Longitude": "72.8853",
    "RegionCode": "SURT",
    "State": "Gujarat",
    "SubRegionCode": "SURT",
    "VenueAddress": "5th Floor, Orbit Plaza by Pramukh, Devadh-Kumbhariya Road, Godadara, Beside Sunday Lagoon, Surat, Gujarat 395010, India",
    "VenueCode": "MAOP",
    "VenueName": "Mukta A2 Cinemas: Orbit Plaza by Pramukh, Surat"
  },
  "MATN": {
    "AvailableFormats": "2D|3D",
    "City": "Ahmedabad",
    "Latitude": "23.0145",
    "Longitude": "72.5174",
    "RegionCode": "AHD",
    "State": "Gujarat",
    "SubRegionCode": "AHD",
    "VenueAddress": "Ratnanjali Infra LLP, 2nd Floor, 208 To 215, Ratnanjali Square, Near Gloriya Restaurant, Prerna Tirth Road, Prahladnagar, Ahmedabad, Gujarat 380015, India",
    "VenueCode": "MATN",
    "VenueName": "Mukta A2 Cinemas: Ratnanjali Square Satellite"
  },
  "MBBR": {
    "AvailableFormats": "2D",
    "City": "Rajakumari",
    "Latitude": "9.9686",
    "Longitude": "77.1495",
    "RegionCode": "RAAJ",
    "State": "Kerala",
    "SubRegionCode": "RAAJ",
    "VenueAddress": "X49X+CQX, Murikkumthotti - Senapathy, Vattapara Udumbanchola Road, Rajakumari, Kerala 685619, India",
    "VenueCode": "MBBR",
    "VenueName": "MAR Basil EVM Theatre: Rajakumari"
  },
  "MCAA": {
    "AvailableFormats": "2D|3D",
    "City": "Ulhasnagar",
    "Latitude": "19.2251",
    "Longitude": "73.1642",
    "RegionCode": "MUMBAI",
    "State": "Maharashtra",
    "SubRegionCode": "ULHA",
    "VenueAddress": "Ramayan Nagar, Ulhasnagar No. 3, Kalyan Ambarnath Road, Near Indian Bank, Ulhasnagar, Maharashtra 421002, India",
    "VenueCode": "MCAA",
    "VenueName": "Ashok Anil Multiplex, Miraj Cinemas: Ulhasnagar"
  },
  "MCCM": {
    "AvailableFormats": "",
    "City": "Pathankot",
    "FirstTracked": "2026-07-14",
    "Latitude": "32.272804",
    "Longitude": "75.65372",
    "RegionCode": "PATH",
    "State": "Punjab",
    "SubRegionCode": "PATH",
    "VenueAddress": "City Centre, Dalhousie Road, Pathankot, Punjab 145001, India",
    "VenueCode": "MCCM",
    "VenueName": "Miraj Cinemas: City Centre Mall, Pathankot"
  },
  "MCFD": {
    "AvailableFormats": "2D",
    "City": "Thalassery",
    "Latitude": "11.7452",
    "Longitude": "75.4955",
    "RegionCode": "THAY",
    "State": "Kerala",
    "SubRegionCode": "THAY",
    "VenueAddress": "Jubilee Road, Pilakool, Thalassery, Kerala 670101, India",
    "VenueCode": "MCFD",
    "VenueName": "Magic Frames Downtown Mall: Thalassery"
  },
  "MCGZ": {
    "AvailableFormats": "",
    "City": "Ghaziabad",
    "FirstTracked": "2026-07-14",
    "Latitude": "28.654917",
    "Longitude": "77.43575",
    "RegionCode": "MRDG",
    "State": "NCR",
    "SubRegionCode": "MRDG",
    "VenueAddress": "19, GT Road, Chaudhary Mall, Gandhi Nagar, Nehru Nagar III, Near Hotel Royal Palace, Ghaziabad, NCR 201001, India",
    "VenueCode": "MCGZ",
    "VenueName": "Miraj Chaudhary Cinemas: Ghaziabad"
  },
  "MCJR": {
    "AvailableFormats": "2D",
    "City": "Janjgir",
    "Latitude": "22.0112",
    "Longitude": "82.5834",
    "RegionCode": "JANR",
    "State": "Chhattisgarh",
    "SubRegionCode": "JANR",
    "VenueAddress": "Link Road, Old Chandaniya Para, Janjgir, Chhattisgarh 495668, India",
    "VenueCode": "MCJR",
    "VenueName": "Metro Cinema(Dolby 7.1 sound): Janjgir Naila"
  },
  "MCMJ": {
    "AvailableFormats": "2D",
    "City": "Rajkot",
    "Latitude": "22.2795",
    "Longitude": "70.7632",
    "RegionCode": "RAJK",
    "State": "Gujarat",
    "SubRegionCode": "RAJK",
    "VenueAddress": "2nd Floor, Crystal Mall, Kalawad Road, Rajkot, Gujarat 360005, India",
    "VenueCode": "MCMJ",
    "VenueName": "MOVIE TIME: Crystal Mall"
  },
  "MCPT": {
    "AvailableFormats": "",
    "City": "Sitapur",
    "FirstTracked": "2026-07-14",
    "Latitude": "27.57371",
    "Longitude": "80.660995",
    "RegionCode": "SITA",
    "State": "Uttar Pradesh",
    "SubRegionCode": "SITA",
    "VenueAddress": "Penguin Tower, 1st Floor, Chungi Choraha, Hardoi Road, Sitapur, Uttar Pradesh 261001, India",
    "VenueCode": "MCPT",
    "VenueName": "Miraj Cinemas: Penguin Tower, Sitapur"
  },
  "MCSN": {
    "AvailableFormats": "",
    "City": "Sonipat",
    "FirstTracked": "2026-07-14",
    "Latitude": "28.9969",
    "Longitude": "77.02605",
    "RegionCode": "RAIH",
    "State": "Haryana",
    "SubRegionCode": "RAIH",
    "VenueAddress": "3rd Floor, City Mall, Bawa Tarana Road, Adarsh Nagar, Sonipat, Haryana 131001, India",
    "VenueCode": "MCSN",
    "VenueName": "Miraj Cinemas: Sonipat"
  },
  "MCTY": {
    "AvailableFormats": "2D|3D",
    "City": "Indore",
    "Latitude": "22.7451",
    "Longitude": "75.9038",
    "RegionCode": "IND",
    "State": "Madhya Pradesh",
    "SubRegionCode": "IND",
    "VenueAddress": "Miraj Velocity Multiplex, Scheme 94C, Ring Road Indore, Near Radisson Hotel, Indore, Madhya Pradesh 452010, India",
    "VenueCode": "MCTY",
    "VenueName": "Velocity III: Miraj Cinemas, Indore"
  },
  "MDDC": {
    "AvailableFormats": "",
    "City": "Delhi",
    "Latitude": "28.6752",
    "Longitude": "77.288",
    "RegionCode": "NCR",
    "State": "NCR",
    "SubRegionCode": "DELHI",
    "VenueAddress": "Miraj Cinema Shahdara, Plot no.-813/1,G.T.Road, 2nd Floor, Vikash Mall, Shahdara, Delhi, NCR 110032, India",
    "VenueCode": "MDDC",
    "VenueName": "Miraj Cinemas: Vikas Cinemall, Shahdara"
  },
  "MEDM": {
    "AvailableFormats": "7D",
    "City": "Ghaziabad",
    "Latitude": "28.6412",
    "Longitude": "77.3172",
    "RegionCode": "NCR",
    "State": "NCR",
    "SubRegionCode": "GHAZ",
    "VenueAddress": "East Delhi Mall, Opposite Anand Vihar, Kaushambi, Near Big Bazaar, Ghaziabad, NCR 201001, India",
    "VenueCode": "MEDM",
    "VenueName": "7D Masti: EDM Mall, Ghaziabad"
  },
  "MENO": {
    "AvailableFormats": "2D",
    "City": "Kolkata",
    "Latitude": "22.5112",
    "Longitude": "88.3507",
    "RegionCode": "KOLK",
    "State": "West Bengal",
    "SubRegionCode": "KOLK",
    "VenueAddress": "5, Sarat Chatterjee Avenue, Sarat Bose Road, , Kalighat, Near Deshopriya Park, Kolkata, West Bengal 700029, India",
    "VenueCode": "MENO",
    "VenueName": "Menoka Cinema: Kolkata"
  },
  "MHAL": {
    "AvailableFormats": "2D",
    "City": "Tadepalligudem",
    "Latitude": "16.8126",
    "Longitude": "81.5299",
    "RegionCode": "TADP",
    "State": "Andhra Pradesh",
    "SubRegionCode": "TADP",
    "VenueAddress": "Sheshamahal Road, Karri Satyavathi Nagar, Tadepalligudem, Andhra Pradesh 534101, India",
    "VenueCode": "MHAL",
    "VenueName": "Sri Seshmahal Theatre: Tadepalligudem"
  },
  "MIDO": {
    "AvailableFormats": "2D|3D",
    "City": "Mumbai",
    "Latitude": "19.2183",
    "Longitude": "73.0953",
    "RegionCode": "MUMBAI",
    "State": "Maharashtra",
    "SubRegionCode": "MCENT",
    "VenueAddress": "Mahavir Heights NX, Next To Plasma Blood Bank, Above Reliance Smart Point, VP Road, Dombivli East, Mumbai, Maharashtra 421201, India",
    "VenueCode": "MIDO",
    "VenueName": "Miraj V Cinemas: Dombivali"
  },
  "MJCU": {
    "AvailableFormats": "2D",
    "City": "Umerkote",
    "Latitude": "19.668",
    "Longitude": "82.1916",
    "RegionCode": "UMEK",
    "State": "Odisha",
    "SubRegionCode": "UMEK",
    "VenueAddress": "Bhaskel Dam, Umerkote Road, Umerkote, Odisha 764073, India",
    "VenueCode": "MJCU",
    "VenueName": "MJ Cinema: Umerkote"
  },
  "MKLJ": {
    "AvailableFormats": "2D|3D",
    "City": "Gurugram (Gurgaon)",
    "Latitude": "28.3907",
    "Longitude": "76.975",
    "RegionCode": "NCR",
    "State": "NCR",
    "SubRegionCode": "GURG",
    "VenueAddress": "KLJ Square Mall, 3rd Floor, NH 8, Sector 83, Gurugram (Gurgaon), NCR 122004, India",
    "VenueCode": "MKLJ",
    "VenueName": "Miraj Cinemas: KLJ Square, Gurugram"
  },
  "MLCA": {
    "AvailableFormats": "2D",
    "City": "Haripad",
    "Latitude": "9.28209",
    "Longitude": "76.4529",
    "RegionCode": "HRPD",
    "State": "Kerala",
    "SubRegionCode": "HRPD",
    "VenueAddress": "National Highway 66, Haripad, Alappuzha District, Near Madhava Junction, Haripad, Kerala 690514, India",
    "VenueCode": "MLCA",
    "VenueName": "M Lal Cineplexx (Aashirvad): Haripad"
  },
  "MMAP": {
    "AvailableFormats": "2D",
    "City": "Gurugram (Gurgaon)",
    "Latitude": "28.5115",
    "Longitude": "77.042",
    "RegionCode": "NCR",
    "State": "NCR",
    "SubRegionCode": "GURG",
    "VenueAddress": "Ansal Plaza, 3rd Floor, G Block, Sector 23, Palam Vihar, Gurugram (Gurgaon), NCR 122017, India",
    "VenueCode": "MMAP",
    "VenueName": "MovieMax: Ansal Plaza, Gurgaon"
  },
  "MMET": {
    "AvailableFormats": "2D|3D",
    "City": "Thane",
    "Latitude": "19.1871",
    "Longitude": "72.9625",
    "RegionCode": "MUMBAI",
    "State": "Maharashtra",
    "SubRegionCode": "THNE",
    "VenueAddress": "MovieMax, Eternity Mall, Teen Haath Naka, Junction of Eastern Express Highway,Lal Bahadur Shastri Road, Thane West, Thane, Maharashtra 400604, India",
    "VenueCode": "MMET",
    "VenueName": "MovieMax: Eternity Mall, Thane"
  },
  "MMMX": {
    "AvailableFormats": "2D",
    "City": "Ajmer",
    "Latitude": "26.4832",
    "Longitude": "74.665",
    "RegionCode": "AJMER",
    "State": "Rajasthan",
    "SubRegionCode": "AJMER",
    "VenueAddress": "Opposite Forest Department, Jaipur Road, Near Hyundai Showroom, Ajmer, Rajasthan 305001, India",
    "VenueCode": "MMMX",
    "VenueName": "MayaMandir Multiplex (Dolby Atmos Sound): Ajmer"
  },
  "MMSZ": {
    "AvailableFormats": "2D|3D",
    "City": "Mumbai",
    "Latitude": "19.0417",
    "Longitude": "72.8643",
    "RegionCode": "MUMBAI",
    "State": "Maharashtra",
    "SubRegionCode": "MCENT",
    "VenueAddress": "MovieMax, Sion Circle, Sion (East), Opposite Peninsula Restaurant, Mumbai, Maharashtra 400022, India",
    "VenueCode": "MMSZ",
    "VenueName": "MovieMax: Sion"
  },
  "MMXS": {
    "AvailableFormats": "2D",
    "City": "Surat",
    "Latitude": "21.1396",
    "Longitude": "72.8827",
    "RegionCode": "SURT",
    "State": "Gujarat",
    "SubRegionCode": "SURT",
    "VenueAddress": "Kardava Road, New Dindoli, Vrukshmani Society, Surat, Gujarat 394210, India",
    "VenueCode": "MMXS",
    "VenueName": "Madhuram Multiplex: Surat"
  },
  "MNKH": {
    "AvailableFormats": "2D",
    "City": "Madurai",
    "Latitude": "9.82126",
    "Longitude": "77.9865",
    "RegionCode": "MADU",
    "State": "Tamil Nadu",
    "SubRegionCode": "MADU",
    "VenueAddress": "26, Virudhunagar Road, Madurai, Tamil Nadu 625706, India",
    "VenueCode": "MNKH",
    "VenueName": "Meenakshi theatre A/C 7.1 Surround: Thirumangalam"
  },
  "MPDX": {
    "AvailableFormats": "",
    "City": "Bhopal",
    "FirstTracked": "2026-07-14",
    "Latitude": "23.23263",
    "Longitude": "77.372635",
    "RegionCode": "BHOP",
    "State": "Madhya Pradesh",
    "SubRegionCode": "BHOP",
    "VenueAddress": "MPT Lake View Residency, Shymala Hills, Near Hotel Ashoka Lake View, Bhopal, Madhya Pradesh 462002, India",
    "VenueCode": "MPDX",
    "VenueName": "MPT DDX Drive in Cinema: Bhopal"
  },
  "MRGB": {
    "AvailableFormats": "2D",
    "City": "Bengaluru",
    "Latitude": "12.8906",
    "Longitude": "77.5622",
    "RegionCode": "BANG",
    "State": "Karnataka",
    "SubRegionCode": "BANG",
    "VenueAddress": "No 21/5A, Konanakunte Cross Marg, Konanakunte, Bengaluru, Karnataka 560062, India",
    "VenueCode": "MRGB",
    "VenueName": "Manasa RGB Laser ATMOS: Konanakunte"
  },
  "MRSE": {
    "AvailableFormats": "3D|2D",
    "City": "Kadapa",
    "Latitude": "14.4635",
    "Longitude": "78.8235",
    "RegionCode": "KDPA",
    "State": "Andhra Pradesh",
    "SubRegionCode": "KDPA",
    "VenueAddress": "RSR Square , D NO. 1/700, SY NO 72/1, Dwaraka Nagar, R S Road, Nagarajupalli Village, Kadapa, Andhra Pradesh 516001, India",
    "VenueCode": "MRSE",
    "VenueName": "Mukta A2 Cinemas: RSR Square Mall"
  },
  "MSCM": {
    "AvailableFormats": "2D|3D",
    "City": "Pune",
    "Latitude": "18.6504",
    "Longitude": "73.8393",
    "RegionCode": "PUNE",
    "State": "Maharashtra",
    "SubRegionCode": "PUNE",
    "VenueAddress": "Sector No. 9, Sant Nagar, Spine Road, Pune, Maharashtra 412105, India",
    "VenueCode": "MSCM",
    "VenueName": "Miraj Cinemas: Spine City Mall, Pune"
  },
  "MSRM": {
    "AvailableFormats": "",
    "City": "Punganur",
    "FirstTracked": "2026-07-14",
    "Latitude": "13.363947",
    "Longitude": "78.56852",
    "RegionCode": "PGNR",
    "State": "Andhra Pradesh",
    "SubRegionCode": "PGNR",
    "VenueAddress": "Vidya Nagar, Vet Hospital Road, Nagapyam, Punganur, Andhra Pradesh 517247, India",
    "VenueCode": "MSRM",
    "VenueName": "MSR Movie Land: Punganur"
  },
  "MTCM": {
    "AvailableFormats": "2D",
    "City": "Chidambaram",
    "Latitude": "11.3949",
    "Longitude": "79.7012",
    "RegionCode": "CHID",
    "State": "Tamil Nadu",
    "SubRegionCode": "CHID",
    "VenueAddress": "SP Kovil Street, OP Main Road, Near Gm Vandayar Thirumana Mahal, Chidambaram, Tamil Nadu 608001, India",
    "VenueCode": "MTCM",
    "VenueName": "Mariyappa Theatre: Chidambaram"
  },
  "MTJA": {
    "AvailableFormats": "2D",
    "City": "Jammu",
    "Latitude": "32.7274",
    "Longitude": "74.8458",
    "RegionCode": "JAMM",
    "State": "Jammu and Kashmir",
    "SubRegionCode": "JAMM",
    "VenueAddress": "K C Central, Indira Theater, Canal Road, Jammu Tawi, Near The Raymond Shop, Jammu, Jammu and Kashmir 180002, India",
    "VenueCode": "MTJA",
    "VenueName": "Movietime Cinemas: Jammu"
  },
  "MTND": {
    "AvailableFormats": "2D|3D",
    "City": "Noida",
    "Latitude": "28.5717",
    "Longitude": "77.3225",
    "RegionCode": "NCR",
    "State": "NCR",
    "SubRegionCode": "NOIDA",
    "VenueAddress": "Tulsi Marg, K Block, Pocket E, Dharam Palace Mall, Sector 18, Noida, NCR 201301, India",
    "VenueCode": "MTND",
    "VenueName": "Movietime Cinemas: Sector 18, Noida"
  },
  "MTYA": {
    "AvailableFormats": "",
    "City": "Nandigama",
    "FirstTracked": "2026-07-14",
    "Latitude": "16.7752",
    "Longitude": "80.2837",
    "RegionCode": "NDGM",
    "State": "Andhra Pradesh",
    "SubRegionCode": "NDGM",
    "VenueAddress": "Mayuri Theatre Road, Ramannapet Road, Nandigama, Andhra Pradesh 521185, India",
    "VenueCode": "MTYA",
    "VenueName": "Mayuri Theater A/c Dolby 7.1 Surround: Nandigama"
  },
  "MUTB": {
    "AvailableFormats": "2D",
    "City": "Bengaluru",
    "Latitude": "13.0385",
    "Longitude": "77.5529",
    "RegionCode": "BANG",
    "State": "Karnataka",
    "SubRegionCode": "BANG",
    "VenueAddress": "Muthyala Nagar, 19th Cross, 2nd Stage, Mathikere, Near Railway Gate and J.P.Park, Near Mega Mart, Bengaluru, Karnataka 560054, India",
    "VenueCode": "MUTB",
    "VenueName": "Murali Cinemas(Gokula)4K Dolby7.1 A/C 3D:Mathikere"
  },
  "MXBO": {
    "AvailableFormats": "2D",
    "City": "Mumbai",
    "Latitude": "19.232",
    "Longitude": "72.8287",
    "RegionCode": "MUMBAI",
    "State": "Maharashtra",
    "SubRegionCode": "MWEST",
    "VenueAddress": "Zoom Plaza Mall, 4th Floor,L.T. Road, Borivali (W), Opposite Gorai Depot, Mumbai, Maharashtra 400092, India",
    "VenueCode": "MXBO",
    "VenueName": "Maxus Cinemas: Borivali (W)"
  },
  "MYBG": {
    "AvailableFormats": "2D",
    "City": "Balaghat",
    "Latitude": "21.8109",
    "Longitude": "80.1954",
    "RegionCode": "BLGT",
    "State": "Madhya Pradesh",
    "SubRegionCode": "BLGT",
    "VenueAddress": "Chitragupt Nagar, Gondia Road, Near HDFC Bank, Balaghat, Madhya Pradesh 481001, India",
    "VenueCode": "MYBG",
    "VenueName": "Mayur Talkies: Balaghat"
  },
  "MYRP": {
    "AvailableFormats": "2D",
    "City": "Kollam",
    "Latitude": "8.88953",
    "Longitude": "76.5858",
    "RegionCode": "KOLM",
    "State": "Kerala",
    "SubRegionCode": "KOLM",
    "VenueAddress": "RP Mall, Level 5, Salem-Kochi Highway, Near Reliance Trends, Kollam, Kerala 691001, India",
    "VenueCode": "MYRP",
    "VenueName": "MY Cinemas, RP Mall: Kollam"
  },
  "NAGO": {
    "AvailableFormats": "2D",
    "City": "Nagaur",
    "Latitude": "27.1957",
    "Longitude": "73.7501",
    "RegionCode": "NAGR",
    "State": "Rajasthan",
    "SubRegionCode": "NAGR",
    "VenueAddress": "NH 65, Hanuman Bagh Colony,Bassi Mohalla, Nagaur, Rajasthan 341001, India",
    "VenueCode": "NAGO",
    "VenueName": "Laxmi Tara Cinema: Nagaur"
  },
  "NCCW": {
    "AvailableFormats": "2D",
    "City": "Wai",
    "Latitude": "17.9525",
    "Longitude": "73.8873",
    "RegionCode": "WAIP",
    "State": "Maharashtra",
    "SubRegionCode": "WAIP",
    "VenueAddress": "Chota Pul, Gangapuri Road, Danebazar, Ganpati Ali, Wai, Maharashtra 412803, India",
    "VenueCode": "NCCW",
    "VenueName": "New Chitra Cinema: Wai"
  },
  "NCMD": {
    "AvailableFormats": "2D",
    "City": "Doraha",
    "Latitude": "30.7867",
    "Longitude": "76.0467",
    "RegionCode": "DORH",
    "State": "Punjab",
    "SubRegionCode": "DORH",
    "VenueAddress": "West View Plaza, GT Road, Doraha, Near Mcdonalds, Doraha, Punjab 141421, India",
    "VenueCode": "NCMD",
    "VenueName": "Nova Cinemaz: Doraha"
  },
  "NECB": {
    "AvailableFormats": "2D",
    "City": "Billawar",
    "Latitude": "32.6136",
    "Longitude": "75.6041",
    "RegionCode": "BILL",
    "State": "Jammu and Kashmir",
    "SubRegionCode": "BILL",
    "VenueAddress": "Tilla Billawar, Near Bharat Stone Crusher, Billawar, Jammu and Kashmir 184203, India",
    "VenueCode": "NECB",
    "VenueName": "Neelam Cinema: Billawar"
  },
  "NHCG": {
    "AvailableFormats": "2D",
    "City": "Mumbai",
    "Latitude": "18.962",
    "Longitude": "72.824",
    "RegionCode": "MUMBAI",
    "State": "Maharashtra",
    "SubRegionCode": "MWEST",
    "VenueAddress": "Plot no: 266, Nishat Talkies, Maulana shaukatali Road, Mumbai, Maharashtra 400008, India",
    "VenueCode": "NHCG",
    "VenueName": "Nishat Cinema: Grant Road"
  },