{
  "AAAS": {
    "AvailableFormats": "2D|3D",
    "City": "Mumbai",
    "Latitude": "19.2289",
    "Longitude": "72.8542",
    "RegionCode": "MUMBAI",
    "State": "Maharashtra",
    "SubRegionCode": "MWEST",
    "VenueAddress": "4th Floor, Ajanta Square Mall, Lokmanya Tilak Road, Borivali West, Mumbai, Maharashtra 400092, India",
    "VenueCode": "AAAS",
    "VenueName": "Ajanta Cinema Cinex: Borivali (W) Newly Renovated"
  },
  "AANS": {
    "AvailableFormats": "2D",
    "City": "Sawantwadi",
    "Latitude": "15.9241",
    "Longitude": "73.8362",
    "RegionCode": "ZARA",
    "State": "Maharashtra",
    "SubRegionCode": "ZAEA",
    "VenueAddress": "Survey No.45, 1A-14/15/16, Vengurla-Belgaum Road, Nirukhe, Kolgaon, Taluka Sawantwadi, District Sindudurga, Sawantwadi, Maharashtra 416510, India",
    "VenueCode": "AANS",
    "VenueName": "Arya Nova Cinemaz: Sawantwadi"
  },
  "ABCC": {
    "AvailableFormats": "2D",
    "City": "Chandrapur",
    "Latitude": "19.9469",
    "Longitude": "79.2949",
    "RegionCode": "CHAN",
    "State": "Maharashtra",
    "SubRegionCode": "CHAN",
    "VenueAddress": "Ekori Ward, Near Gandhi Chowk, Chandrapur, Maharashtra 442402, India",
    "VenueCode": "ABCC",
    "VenueName": "Cinejoy Cinema: Chandrapur"
  },
  "ABND": {
    "AvailableFormats": "2D",
    "City": "Nandyal",
    "Latitude": "15.4858",
    "Longitude": "78.4861",
    "RegionCode": "NADY",
    "State": "Andhra Pradesh",
    "SubRegionCode": "NADY",
    "VenueAddress": "Ramnath Cine Complex, Telugu Peta, Nandyal, Andhra Pradesh 518501, India",
    "VenueCode": "ABND",
    "VenueName": "Abhiram Theater: Nandyal"
  },
  "ACBD": {
    "AvailableFormats": "",
    "City": "Basantpur",
    "Latitude": "26.1698",
    "Longitude": "84.6684",
    "RegionCode": "BABA",
    "State": "Bihar",
    "SubRegionCode": "BABA",
    "VenueAddress": "Abhishek Cineplex, Basant Pur, Siwan, Basantpur, Bihar 841406, India",
    "VenueCode": "ACBD",
    "VenueName": "Abhishek Cineplex: Basantpur"
  },
  "ACHP": {
    "AvailableFormats": "2D",
    "City": "Pasighat",
    "Latitude": "28.0594",
    "Longitude": "95.3313",
    "RegionCode": "PSHG",
    "State": "Arunachal Pradesh",
    "SubRegionCode": "PSHG",
    "VenueAddress": "Aarun Tamuk Complex, Main Market Pasighat, Near Arunachal Pradesh Rural Bank,Pasighat, Arunachal Pradesh 791102, India",
    "VenueCode": "ACHP",
    "VenueName": "Abor Cinema Hall: Pasighat"
  },
  "ACKZ": {
    "AvailableFormats": "2D",
    "City": "Kozhikode",
    "Latitude": "11.2554",
    "Longitude": "75.7847",
    "RegionCode": "KOZH",
    "State": "Kerala",
    "SubRegionCode": "KOZH",
    "VenueAddress": "No 17/256, Pavamani Road, Kozhikode, Kerala 673001, India",
    "VenueCode": "ACKZ",
    "VenueName": "ARC Coronation 4K Dolby Atmos"
  },
  "ACON": {
    "AvailableFormats": "2D",
    "City": "Chennai",
    "Latitude": "12.8505",
    "Longitude": "80.2257",
    "RegionCode": "CHEN",
    "State": "Tamil Nadu",
    "SubRegionCode": "CHEN",
    "VenueAddress": "Vivira Mall, 5th Floor, Navalur, Old Mahabalipuram Road, Near ETA Techno Park Entrance, Chennai, Tamil Nadu 603103, India",
    "VenueCode": "ACON",
    "VenueName": "AGS Cinemas OMR: Navlur"
  },
  "ACTN": {
    "AvailableFormats": "2D",
    "City": "Chennai",
    "Latitude": "13.0474",
    "Longitude": "80.2449",
    "RegionCode": "CHEN",
    "State": "Tamil Nadu",
    "SubRegionCode": "CHEN",
    "VenueAddress": "No: 24/1, GN Chetty Road, T. Nagar, Opposite Dr. M.G.R. Educational and Research Institute, Chennai, Tamil Nadu 600017, India",
    "VenueCode": "ACTN",
    "VenueName": "AGS Cinemas: T. Nagar"
  },
  "ADCM": {
    "AvailableFormats": "2D|3D",
    "City": "Mangalore",
    "Latitude": "12.887",
    "Longitude": "74.8412",
    "RegionCode": "MLR",
    "State": "Karnataka",
    "SubRegionCode": "MLR",
    "VenueAddress": "Bharath Mall, Opp K.S.R.T.C, Bejai Kavoor Road, Mangalore, Karnataka 575013, India",
    "VenueCode": "ADCM",
    "VenueName": "Bharath Cinemas: Bharath Mall, Bejai, Mangaluru"
  },
  "AETE": {
    "AvailableFormats": "2D|3D",
    "City": "Thane",
    "Latitude": "19.1848",
    "Longitude": "72.9749",
    "RegionCode": "MUMBAI",
    "State": "Maharashtra",
    "SubRegionCode": "THNE",
    "VenueAddress": "Kopri Colony, Gidwani Road, Near Railway Station, Thane, Maharashtra 400603, India",
    "VenueCode": "AETE",
    "VenueName": "Anand Cinema: Thane"
  },
  "AICP": {
    "AvailableFormats": "2D",
    "City": "Pallickathodu",
    "Latitude": "9.60499",
    "Longitude": "76.681",
    "RegionCode": "PKTU",
    "State": "Kerala",
    "SubRegionCode": "PKTU",
    "VenueAddress": "Kodungoor Road, Mutholy Pallickathodu, Near Federal Bank Pallikathodu, Pallickathodu, Kerala 686503, India",
    "VenueCode": "AICP",
    "VenueName": "Anchani Cinemas 4K Dolby Atmos: Pallickathodu"
  },
  "AKRF": {
    "AvailableFormats": "2D",
    "City": "Faridabad",
    "Latitude": "28.4553",
    "Longitude": "77.316",
    "RegionCode": "NCR",
    "State": "NCR",
    "SubRegionCode": "FARI",
    "VenueAddress": "SLF Mall St, Indraprastha Colony, Sector 32, Faridabad, NCR 121003, India",
    "VenueCode": "AKRF",
    "VenueName": "AKR Cinemas: SLF Mall, Faridabad"
  },
  "ALPC": {
    "AvailableFormats": "2D",
    "City": "Bhopal",
    "Latitude": "23.2648",
    "Longitude": "77.4101",
    "RegionCode": "BHOP",
    "State": "Madhya Pradesh",
    "SubRegionCode": "BHOP",
    "VenueAddress": "Hamidia Road, Railway Colony, Near Railway Station, Bhopal, Madhya Pradesh 460160, India",
    "VenueCode": "ALPC",
    "VenueName": "Alpana Air-Cooled Cineplex: Bhopal"
  },
  "AMCD": {
    "AvailableFormats": "2D",
    "City": "Delhi",
    "Latitude": "28.6774",
    "Longitude": "77.2012",
    "RegionCode": "NCR",
    "State": "NCR",
    "SubRegionCode": "DELHI",
    "VenueAddress": "GT Road, Ghanta Ghar, Subzi Mandi, Block 40, Shakti Nagar, Near Clock Tower, Delhi, NCR 110007, India",
    "VenueCode": "AMCD",
    "VenueName": "Amba Cinema: Delhi"
  },
  "AMLC": {
    "AvailableFormats": "2D",
    "City": "Barrackpore",
    "Latitude": "22.7672",
    "Longitude": "88.3832",
    "RegionCode": "BARR",
    "State": "West Bengal",
    "SubRegionCode": "BARR",
    "VenueAddress": "82, Barrackpore - Barasat Road, Barrackpore, Barrackpore, West Bengal 700122, India",
    "VenueCode": "AMLC",
    "VenueName": "Amala Cinema: Barrackpore"
  },
  "AMTI": {
    "AvailableFormats": "2D",
    "City": "Kosamba",
    "Latitude": "21.4683",
    "Longitude": "72.9535",
    "RegionCode": "KOSA",
    "State": "Gujarat",
    "SubRegionCode": "KOSA",
    "VenueAddress": "V S Patel Road, Shraddha, Opposite Ambedkar Statue, Tarsadi, Kosamba, Gujarat 394120, India",
    "VenueCode": "AMTI",
    "VenueName": "Amisha Miniplex: Tarsadi"
  },
  "ANCN": {
    "AvailableFormats": "2D",
    "City": "Khategaon",
    "Latitude": "22.5896",
    "Longitude": "76.9259",
    "RegionCode": "KTEG",
    "State": "Madhya Pradesh",
    "SubRegionCode": "KTEG",
    "VenueAddress": "Hotel Shri Sundaram and Marriage Garden, Anjana Cinema Parisar, Nemawar Road, In Front of Petrol Pump, Khategaon, Madhya Pradesh 455336, India",
    "VenueCode": "ANCN",
    "VenueName": "Anjana Cinema: Khategaon"
  },
  "ANST": {
    "AvailableFormats": "2D",
    "City": "Sangareddy",
    "Latitude": "17.3712",
    "Longitude": "78.0502",
    "RegionCode": "SARE",
    "State": "Telangana",
    "SubRegionCode": "SARE",
    "VenueAddress": "Sitara Theatre Road, Veerabhadra Nagar, Near Bismilla Masjid, Sangareddy, Telangana 502001, India",
    "VenueCode": "ANST",
    "VenueName": "Asian Nithin Sitara: Sangareddy"
  },
  "APAS": {
    "AvailableFormats": "",
    "City": "Agra",
    "Latitude": "27.1653",
    "Longitude": "78.0149",
    "RegionCode": "AGRA",
    "State": "Uttar Pradesh",
    "SubRegionCode": "AGRA",
    "VenueAddress": "1 Gwalior Road, Baluganj, Agra Cantt, Near Dasaprakash Hotel, Opposite St George`s School, Agra, Uttar Pradesh 282001, India",
    "VenueCode": "APAS",
    "VenueName": "Meher Theatre: Agra (Laser 4K)"
  },
  "APPX": {
    "AvailableFormats": "2D",
    "City": "Ahmedabad",
    "Latitude": "23.0025",
    "Longitude": "72.5901",
    "RegionCode": "AHD",
    "State": "Gujarat",
    "SubRegionCode": "AHD",
    "VenueAddress": "4, Jyoti Colony, Kankaria, Maninagar, Gita Mandir Road, Near Bhakta Vallabh Dhola Vidya Vihar, Ahmedabad, Gujarat 380002, India",
    "VenueCode": "APPX",
    "VenueName": "Apple Multiplex: Maninagar, Ahmedabad"
  },
  "APVE": {
    "AvailableFormats": "2D",
    "City": "Vellore",
    "Latitude": "12.911",
    "Longitude": "79.1317",
    "RegionCode": "RANI",
    "State": "Tamil Nadu",
    "SubRegionCode": "RANI",
    "VenueAddress": "Anna Salai, Vasantapuram, Kosapet, Vellore, Near Sri Vinayaga Temple, Vellore, Tamil Nadu 632001, India",
    "VenueCode": "APVE",
    "VenueName": "Apsara Cinemas 4K AC 7.1 Dolby: Vellore"
  },
  "ARED": {
    "AvailableFormats": "2D|3D",
    "City": "Ahmedabad",
    "Latitude": "23.0685",
    "Longitude": "72.576",
    "RegionCode": "AHD",
    "State": "Gujarat",
    "SubRegionCode": "AHD",
    "VenueAddress": "Arved Transcube Plaza, Bandhu Nagar, Vijay Nagar, 132 Feet Ring Road, Ranip, Ahmedabad, Gujarat 382480, India",
    "VenueCode": "ARED",
    "VenueName": "PVR: Arved Transcube, Ahmedabad"
  },
  "ARVB": {
    "AvailableFormats": "2D",
    "City": "Bhadrachalam",
    "Latitude": "17.6734",
    "Longitude": "80.8894",
    "RegionCode": "BHDR",
    "State": "Telangana",
    "SubRegionCode": "BHDR",
    "VenueAddress": "Bhadrachalam Road, Ashok Nagar Colony, Bhadrachalam, Telangana 507111, India",
    "VenueCode": "ARVB",
    "VenueName": "AMR Vijay Bhaskar: Bhadrachalam"
  },
  "ASHC": {
    "AvailableFormats": "2D",
    "City": "Pune",
    "Latitude": "18.6148",
    "Longitude": "73.8039",
    "RegionCode": "PUNE",
    "State": "Maharashtra",
    "SubRegionCode": "PUNE",
    "VenueAddress": "Shastri Nagar, Pimpri Colony, Pune, Maharashtra 411017, India",
    "VenueCode": "ASHC",
    "VenueName": "Ashok Theatre: Pimpri"
  },
  "ASMR": {
    "AvailableFormats": "2D",
    "City": "Miryalaguda",
    "Latitude": "16.8703",
    "Longitude": "79.5631",
    "RegionCode": "MRGD",
    "State": "Telangana",
    "SubRegionCode": "MRGD",
    "VenueAddress": "Islampura Road, Beside Madhusudhan Reddy Hospital, Miryalaguda, Telangana 508207, India",
    "VenueCode": "ASMR",
    "VenueName": "Asian Srinivasa Theater: Miryalaguda"
  },
  "ASSK": {
    "AvailableFormats": "2D",
    "City": "Khammam",
    "Latitude": "17.25",
    "Longitude": "80.1403",
    "RegionCode": "KHAM",
    "State": "Telangana",
    "SubRegionCode": "KHAM",
    "VenueAddress": "9-2-15/A, Station Road, Braman Bazar, Khammam, Telangana 507001, India",
    "VenueCode": "ASSK",
    "VenueName": "Asian Srinivasa: Khammam"
  },
  "ASWN": {
    "AvailableFormats": "2D",
    "City": "Piduguralla",
    "Latitude": "16.4806",
    "Longitude": "79.8909",
    "RegionCode": "PIDU",
    "State": "Andhra Pradesh",
    "SubRegionCode": "PIDU",
    "VenueAddress": "Tangeda Road, Near Bharat Petrol Bunk, Piduguralla, Andhra Pradesh 522413, India",
    "VenueCode": "ASWN",
    "VenueName": "Aswini Deluxe A/C Dolby Atmos: Piduguralla"
  },
  "ATGN": {
    "AvailableFormats": "2D",
    "City": "Bengaluru",
    "Latitude": "12.9737",
    "Longitude": "77.5776",
    "RegionCode": "HOKT",
    "State": "Karnataka",
    "SubRegionCode": "HOKT",
    "VenueAddress": "B.V.K. Ayengar Road, Gandhi Nagar, Near TNB Bank, Bengaluru, Karnataka 560009, India",
    "VenueCode": "ATGN",
    "VenueName": "Abhinay Theatre 4K A/C: Gandhinagar"
  },
  "ATTR": {
    "AvailableFormats": "2D",
    "City": "Trivandrum",
    "Latitude": "8.48544",
    "Longitude": "76.9485",
    "RegionCode": "VKAL",
    "State": "Kerala",
    "SubRegionCode": "VKAL",
    "VenueAddress": "Power House Road, East Fort, Near State Bank Of India, Trivandrum, Kerala 695036, India",
    "VenueCode": "ATTR",
    "VenueName": "Ajanta Theatre 4K-Wide: Trivandrum"
  },
  "AVCK": {
    "AvailableFormats": "2D",
    "City": "Kozhikode",
    "Latitude": "11.2596",
    "Longitude": "75.7883",
    "RegionCode": "KOZH",
    "State": "Kerala",
    "SubRegionCode": "KOZH",
    "VenueAddress": "R.P.Mall, Mavoor Road, Opposite - Moffusil Bus Stand, Arayidathupalam, Kozhikode, Kerala 673001, India",
    "VenueCode": "AVCK",
    "VenueName": "Aashirvad Cineplexx: Kozhikode"
  },
  "AXAM": {
    "AvailableFormats": "2D",
    "City": "Amroha",
    "Latitude": "28.9054",
    "Longitude": "78.4811",
    "RegionCode": "AMRO",
    "State": "Uttar Pradesh",
    "SubRegionCode": "AMRO",
    "VenueAddress": "Kailsa Road, Chevara, Amroha, Uttar Pradesh 244221, India",
    "VenueCode": "AXAM",
    "VenueName": "Anand Cineplex: Amroha"
  },
  "BACS": {
    "AvailableFormats": "2D",
    "City": "Surat",
    "Latitude": "21.214",
    "Longitude": "72.8219",
    "RegionCode": "SURT",
    "State": "Gujarat",
    "SubRegionCode": "SURT",
    "VenueAddress": "72-78, Ved Road, Opposite Ramji Nagar Society, Fatakdawadi, Pandol, Industrial Estate, Katargam, Surat, Gujarat 395004, India",
    "VenueCode": "BACS",
    "VenueName": "Bajrang Cinema: Surat"
  },
  "BATK": {
    "AvailableFormats": "2D",
    "City": "Kanchipuram",
    "Latitude": "12.8294",
    "Longitude": "79.7001",
    "RegionCode": "MMNR",
    "State": "Tamil Nadu",
    "SubRegionCode": "MMNR",
    "VenueAddress": "Madam Thottam Street Madam, Pillaiyarpalayam, Kanchipuram, Tamil Nadu 631501, India",
    "VenueCode": "BATK",
    "VenueName": "Babu Cinemas - RGB Laser: Kanchipuram"
  },
  "BCCR": {
    "AvailableFormats": "3D|2D",
    "City": "Cooch Behar",
    "Latitude": "26.3296",
    "Longitude": "89.4426",
    "RegionCode": "COBE",
    "State": "West Bengal",
    "SubRegionCode": "COBE",
    "VenueAddress": "Bhavani Cinema, Keshav Road, Cooch Behar, West Bengal 736101, India",
    "VenueCode": "BCCR",
    "VenueName": "Bhavani Cinema: Cooch Behar"
  },
  "BGGM": {
    "AvailableFormats": "2D",
    "City": "Asansol",
    "Latitude": "23.6847",
    "Longitude": "86.9416",
    "RegionCode": "ASANSOL",
    "State": "West Bengal",
    "SubRegionCode": "ASANSOL",
    "VenueAddress": "Burnpur Road, Chitra More, Mouja  Santa, P.O  Hirapur, District  West Burdwan, Asansol, West Bengal 713325, India",
    "VenueCode": "BGGM",
    "VenueName": "Bioscope: Galaxy Mall, Asansol"
  },
  "BIJH": {
    "AvailableFormats": "2D",
    "City": "Jhabua",
    "Latitude": "22.7609",
    "Longitude": "74.5879",
    "RegionCode": "JHAB",
    "State": "Madhya Pradesh",
    "SubRegionCode": "JHAB",
    "VenueAddress": "Infront of College Ground, Ranapur Road, Jhabua, Madhya Pradesh 457661, India",
    "VenueCode": "BIJH",
    "VenueName": "B4 Cinema: Jhabua"
  },
  "BJTS": {
    "AvailableFormats": "2D",
    "City": "Chikkaballapur",
    "Latitude": "13.4311",
    "Longitude": "77.7307",
    "RegionCode": "CHIK",
    "State": "Karnataka",
    "SubRegionCode": "CHIK",
    "VenueAddress": "B B Road, Near Chikkaballapur Road, Chikkaballapur, Karnataka 562101, India",
    "VenueCode": "BJTS",
    "VenueName": "Balaji Talkies: Chikkaballapura"
  },
  "BMBK": {
    "AvailableFormats": "2D",
    "City": "Bhawanipatna",
    "Latitude": "19.9065",
    "Longitude": "83.1421",
    "RegionCode": "BHAW",
    "State": "Odisha",
    "SubRegionCode": "BHAW",
    "VenueAddress": "Bhagirathi Mall, Sambhunagar Pada, Bhawanipatna, Odisha 766002, India",
    "VenueCode": "BMBK",
    "VenueName": "Bhagirathi Multiplex: Bhawanipatna"
  },
  "BRKH": {
    "AvailableFormats": "2D",
    "City": "Hyderabad",
    "Latitude": "17.5002",
    "Longitude": "78.3866",
    "RegionCode": "HYD",
    "State": "Telangana",
    "SubRegionCode": "HYD",
    "VenueAddress": "Jai Bharat Nagar, Hyder Nagar, Vasantha Nagar, Kukatpally, Near Karachi Bakery, Hyderabad, Telangana 500072, India",
    "VenueCode": "BRKH",
    "VenueName": "Bhramaramba 70MM A/C 4K Dolby: Kukatpally"
  },
  "BSPC": {
    "AvailableFormats": "2D",
    "City": "Dhampur",
    "Latitude": "29.3028",
    "Longitude": "78.5065",
    "RegionCode": "DHPR",
    "State": "Uttar Pradesh",
    "SubRegionCode": "DHPR",
    "VenueAddress": "Near Champa Devi Temple, Udaipur, Dhampur, Uttar Pradesh 246761, India",
    "VenueCode": "BSPC",
    "VenueName": "Bansal Cineplex: Dhampur"
  },
  "BTKD": {
    "AvailableFormats": "2D",
    "City": "Ongole",
    "Latitude": "15.5466",
    "Longitude": "79.9397",
    "RegionCode": "ONGL",
    "State": "Andhra Pradesh",
    "SubRegionCode": "ONGL",
    "VenueAddress": "GWWQ+JVV, Santhanuthalapadu, Ongole, Andhra Pradesh 523225, India",
    "VenueCode": "BTKD",
    "VenueName": "Sai Balaji A/c Dolby Surround: Santhanutalapadu"
  },
  "CACN": {
    "AvailableFormats": "2D",
    "City": "Mahuva",
    "Latitude": "21.1266",
    "Longitude": "71.7984",
    "RegionCode": "MAHV",
    "State": "Gujarat",
    "SubRegionCode": "MAHV",
    "VenueAddress": "City Mall Opposite Reliance Petrol Pump, Next to Vibrant Dehydration, At. Bhadrod, Mahuva, Mahuva, Gujarat 364290, India",
    "VenueCode": "CACN",
    "VenueName": "Cine Arc Multiplex: Mahuva"
  },
  "CBSM": {
    "AvailableFormats": "2D|3D",
    "City": "Chandigarh",
    "Latitude": "30.6734",
    "Longitude": "76.7398",
    "RegionCode": "CHD",
    "State": "Punjab",
    "SubRegionCode": "CHD",
    "VenueAddress": "Bestech Square Mall, Sector 66, Sahibzada Ajit Singh Nagar (Mohali), Chandigarh, Punjab 160062, India",
    "VenueCode": "CBSM",
    "VenueName": "Cinepolis: Bestech Square, Mohali"
  },
  "CCBZ": {
    "AvailableFormats": "",
    "City": "Bathinda",
    "Latitude": "30.2049",
    "Longitude": "74.95",
    "RegionCode": "BHAT",
    "State": "Punjab",
    "SubRegionCode": "BHAT",
    "VenueAddress": "3rd Floor, City Center Mall, Opposite Children Park, Civil Lines, Bathinda, Punjab 151001, India",
    "VenueCode": "CCBZ",
    "VenueName": "Cinemore Cinemas: DREAMz City Centre, Bathinda"
  },
  "CCKP": {
    "AvailableFormats": "2D",
    "City": "Kalol (Panchmahal)",
    "Latitude": "22.6112",
    "Longitude": "73.4662",
    "RegionCode": "PANH",
    "State": "Gujarat",
    "SubRegionCode": "PANH",
    "VenueAddress": "Cinema City, GJ SH 87, Near Lal Darwaja, Jantral, Kalol (Panchmahal), Gujarat 389330, India",
    "VenueCode": "CCKP",
    "VenueName": "FUN Cinemas Cinema City Multiplex: Kalol"
  },
  "CCMU": {
    "AvailableFormats": "2D|3D",
    "City": "Mysuru (Mysore)",
    "Latitude": "12.3585",
    "Longitude": "76.6361",
    "RegionCode": "MYS",
    "State": "Karnataka",
    "SubRegionCode": "MYS",
    "VenueAddress": "No 119 Metagalli Industrial Area, Metagalli, Behind GRS Fantasy Park, Opposite J K Golden Embassy, Mysuru (Mysore), Karnataka 570016, India",
    "VenueCode": "CCMU",
    "VenueName": "Mysuru VISION Cinemas, Behind GRS Fantasy Park"
  },
  "CCRN": {
    "AvailableFormats": "",
    "City": "Chandrapur",
    "Latitude": "19.7872",
    "Longitude": "79.3843",
    "RegionCode": "CHAN",
    "State": "Maharashtra",
    "SubRegionCode": "CHAN",
    "VenueAddress": "E-cube, Beside Lakshmi Godown Main Road Bamanwada, Taluka rajura, Chandrapur, Maharashtra 442905, India",
    "VenueCode": "CCRN",
    "VenueName": "Chhotu Maharaj: Rajura, Chandrapur"
  },
  "CDCA": {
    "AvailableFormats": "2D",
    "City": "Prayagraj (Allahabad)",
    "Latitude": "25.438",
    "Longitude": "81.8442",
    "RegionCode": "ALLH",
    "State": "Uttar Pradesh",
    "SubRegionCode": "ALLH",
    "VenueAddress": "26, Sammelan Marg, Prayagraj, Uttar Pradesh 211003, India",
    "VenueCode": "CDCA",
    "VenueName": "Chandralok Cineplex: Prayagraj"
  },
  "CECM": {
    "AvailableFormats": "2D",
    "City": "Mandi Dabwali",
    "Latitude": "29.9724",
    "Longitude": "74.7246",
    "RegionCode": "DABW",
    "State": "Haryana",
    "SubRegionCode": "DABW",
    "VenueAddress": "NH 54, Doomwali, Mandi Dabwali, Haryana 125104, India",
    "VenueCode": "CECM",
    "VenueName": "Century City Cinema: Mandi Dabwali"
  },
  "CGBO": {
    "AvailableFormats": "2D",
    "City": "Ahmedabad",
    "Latitude": "23.0288",
    "Longitude": "72.4785",
    "RegionCode": "AHD",
    "State": "Gujarat",
    "SubRegionCode": "AHD",
    "VenueAddress": "Behind Amrapali Shopping Complex, Bopal Junction,Sardar Patel Ring Road, Near Bharat Petroleum Petrol Pump, Ahmedabad, Gujarat 380058, India",
    "VenueCode": "CGBO",
    "VenueName": "City Gold: Bopal"
  },
  "CGMM": {
    "AvailableFormats": "2D|3D",
    "City": "Muzaffarpur",
    "Latitude": "26.1101",
    "Longitude": "85.3957",
    "RegionCode": "MUZA",
    "State": "Bihar",
    "SubRegionCode": "MUZA",
    "VenueAddress": "The Grand Mall, 5th Floor, Club Road, Near MDDM College, Muzaffarpur, Bihar 842002, India",
    "VenueCode": "CGMM",
    "VenueName": "Cinepolis: Grand Mall, Muzaffarpur"
  },
  "CHSX": {
    "AvailableFormats": "",
    "City": "Patna",
    "Latitude": "25.5698",
    "Longitude": "84.8705",
    "RegionCode": "PATN",
    "State": "Bihar",
    "SubRegionCode": "PATN",
    "VenueAddress": "NT Complex Shrirampur Naya Bazar, Opposite Bank Of Baroda, Bihta, Patna, Bihar 801103, India",
    "VenueCode": "CHSX",
    "VenueName": "Connplex Cinemas: Bihta, Patna"
  },
  "CICM": {
    "AvailableFormats": "2D",
    "City": "Math Chandipur",
    "Latitude": "22.0886",
    "Longitude": "87.8576",
    "RegionCode": "MPUR",
    "State": "West Bengal",
    "SubRegionCode": "MPUR",
    "VenueAddress": "Mayukh Gift Corner, Nandigram Road, Math Chandipur, West Bengal 721659, India",
    "VenueCode": "CICM",
    "VenueName": "Chitranjali Cinema: Math Chandipur"
  },
  "CIXH": {
    "AvailableFormats": "",
    "City": "Ahmedabad",
    "Latitude": "23.0902",
    "Longitude": "72.5297",
    "RegionCode": "AHD",
    "State": "Gujarat",
    "SubRegionCode": "AHD",
    "VenueAddress": "310/11/12 Silver Radiance 4, Near Silver Oak College SG Highway, Gota, Ahmedabad, Gujarat 382481, India",
    "VenueCode": "CIXH",
    "VenueName": "CINELUX Cinema:Sola SG Highway (Newly Premium JBL)"
  },
  "CLCU": {
    "AvailableFormats": "2D",
    "City": "Umred",
    "Latitude": "20.8595",
    "Longitude": "79.3164",
    "RegionCode": "UMRD",
    "State": "Maharashtra",
    "SubRegionCode": "UMRD",
    "VenueAddress": "Kawarapeth, Gangapur, Umred, Maharashtra 441203, India",
    "VenueCode": "CLCU",
    "VenueName": "Balaji Multiplex: Umred"
  },
  "CLMK": {
    "AvailableFormats": "2D|3D",
    "City": "Kolkata",
    "Latitude": "22.5167",
    "Longitude": "88.3489",
    "RegionCode": "KOLK",
    "State": "West Bengal",
    "SubRegionCode": "KOLK",
    "VenueAddress": "5th Floor Lake mall, Rash behari Avenue Road, 104- Rashbehari Avenue, Kolkata, West Bengal 700026, India",
    "VenueCode": "CLMK",
    "VenueName": "Cinepolis: Lake Mall, Kolkata"
  },
  "CMBW": {
    "AvailableFormats": "",
    "City": "Bankura",
    "Latitude": "23.2527",
    "Longitude": "87.0263",
    "RegionCode": "BNKU",
    "State": "West Bengal",
    "SubRegionCode": "BNKU",
    "VenueAddress": "Salboni Village, Bankura-Chhatna Road, Bankura, West Bengal 722102, India",
    "VenueCode": "CMBW",
    "VenueName": "Chhotu Maharaj: Bankura, WB"
  },
  "CMMK": {
    "AvailableFormats": "2D",
    "City": "Medak",
    "Latitude": "18.0507",
    "Longitude": "78.2634",
    "RegionCode": "NRPR",
    "State": "Telangana",
    "SubRegionCode": "NRPR",
    "VenueAddress": "Chaman Road, Fathe Nagar, Thimmaipalli, Medak, Telangana 502110, India",
    "VenueCode": "CMMK",
    "VenueName": "Cinemax Theatre: Medak"
  },
  "CMSN": {
    "AvailableFormats": "",
    "City": "Agra",
    "Latitude": "27.2032",
    "Longitude": "77.9671",
    "RegionCode": "AGRA",
    "State": "Uttar Pradesh",
    "SubRegionCode": "AGRA",
    "VenueAddress": "2nd Floor Bhawna Dwarka Street ,Prop. No. Comm 7, Anthem Pocket A Sec, 15 Avas Vikas Sikandra Agra, Agra, Uttar Pradesh 282007, India",
    "VenueCode": "CMSN",
    "VenueName": "Chhotu Maharaj: Sikandra Agra, UP"
  },
  "CMVV": {
    "AvailableFormats": "2D",
    "City": "Varanasi",
    "Latitude": "25.3012",
    "Longitude": "82.9586",
    "RegionCode": "VAR",
    "State": "Uttar Pradesh",
    "SubRegionCode": "VAR",
    "VenueAddress": "Plot No. 237/3, Madauli, Near St.Johns School, Varanasi, Uttar Pradesh 221003, India",
    "VenueCode": "CMVV",
    "VenueName": "Chhotu Maharaj Cine Cafe: Varanasi"
  },
  "CNCS": {
    "AvailableFormats": "2D",
    "City": "Sangamner",
    "Latitude": "19.5948",
    "Longitude": "74.1942",
    "RegionCode": "SMNE",
    "State": "Maharashtra",
    "SubRegionCode": "SMNE",
    "VenueAddress": "2nd Floor, Malpani Multiplex Mall, Gunjalwadi, Sangamner, Maharashtra 422605, India",
    "VenueCode": "CNCS",
    "VenueName": "Connplex Cinemas: Sangamner"
  },
  "CNLP": {
    "AvailableFormats": "3D|2D",
    "City": "Ahmedabad",
    "Latitude": "23.1461",
    "Longitude": "72.5463",
    "RegionCode": "GNAGAR",
    "State": "Gujarat",
    "SubRegionCode": "GNAGAR",
    "VenueAddress": "1st Floor, Master Avenue, Gandhinagar, Near - Vaishnodevi Circle, Ahmedabad, Gujarat 382421, India",
    "VenueCode": "CNLP",
    "VenueName": "Connplex Cinemas (Luxuriance): Vaishnodevi"
  },
  "CNRM": {
    "AvailableFormats": "2D",
    "City": "Bengaluru",
    "Latitude": "12.8759",
    "Longitude": "77.5956",
    "RegionCode": "HOKT",
    "State": "Karnataka",
    "SubRegionCode": "HOKT",
    "VenueAddress": "Royal Meenakshi Mall, Bannerghatta Road, Bengaluru, Karnataka 560076, India",
    "VenueCode": "CNRM",
    "VenueName": "Cinepolis: Royal Meenakshi Mall"
  },
  "COLV": {
    "AvailableFormats": "2D|3D",
    "City": "Vadodara",
    "Latitude": "22.3108",
    "Longitude": "73.1688",
    "RegionCode": "VAD",
    "State": "Gujarat",
    "SubRegionCode": "VAD",
    "VenueAddress": "Kanha Center, 2nd Floor, RC Dutt Road, Alkapuri, Opposite Hotel Express Ardhana Society, Vadodara, Gujarat 390020, India",
    "VenueCode": "COLV",
    "VenueName": "Connplex Cinemas (Luxuriance): Vadodara"
  },
  "CPAO": {
    "AvailableFormats": "3D|2D",
    "City": "Ahmedabad",
    "Latitude": "23.0378",
    "Longitude": "72.5283",
    "RegionCode": "AHD",
    "State": "Gujarat",
    "SubRegionCode": "AHD",
    "VenueAddress": "3rd Floor, Alpha One Mall, Opp Vastrapur Lake, Ahmedabad, Gujarat 380015, India",
    "VenueCode": "CPAO",
    "VenueName": "Cinepolis: Nexus Ahmedabad One"
  },
  "CPEC": {
    "AvailableFormats": "2D",
    "City": "Ahmedabad",
    "Latitude": "23.0464",
    "Longitude": "72.6737",
    "RegionCode": "AHD",
    "State": "Gujarat",
    "SubRegionCode": "AHD",
    "VenueAddress": "4th Floor, Hiltown Square, MG Road, Ahmedabad, Gujarat 382350, India",
    "VenueCode": "CPEC",
    "VenueName": "Cineprime Cinema: Nikol"
  },
  "CPKC": {
    "AvailableFormats": "2D|3D",
    "City": "Vapi",
    "Latitude": "20.3954",
    "Longitude": "72.8928",
    "RegionCode": "VAPI",
    "State": "Gujarat",
    "SubRegionCode": "VAPI",
    "VenueAddress": "Fortune Square-1, 4th Floor, Vapi -Daman Road, Chala, Vapi, Gujarat 396191, India",
    "VenueCode": "CPKC",
    "VenueName": "Cine Park: Chala, Vapi"
  },
  "CPMJ": {
    "AvailableFormats": "2D",
    "City": "Jagdalpur",
    "Latitude": "19.0887",
    "Longitude": "82.0118",
    "RegionCode": "JAGD",
    "State": "Chhattisgarh",
    "SubRegionCode": "JAGD",
    "VenueAddress": "Binaka Mall, Chitrakote Road, Jagdalpur, Chhattisgarh 493773, India",
    "VenueCode": "CPMJ",
    "VenueName": "Cine Plus Multiplex: Jagdalpur"
  },
  "CPRP": {
    "AvailableFormats": "2D|3D",
    "City": "Pune",
    "Latitude": "18.5933",
    "Longitude": "73.7864",
    "RegionCode": "PUNE",
    "State": "Maharashtra",
    "SubRegionCode": "PUNE",
    "VenueAddress": "Spot-18 Mall, 3rd Floor, Rahatani Rd, Pimpri Chinchwad, Pune, Maharashtra 411017, India",
    "VenueCode": "CPRP",
    "VenueName": "City Pride Royal Cinemas: Rahatani"
  },
  "CPUS": {
    "AvailableFormats": "2D",
    "City": "Surat",
    "Latitude": "21.1361",
    "Longitude": "72.7521",
    "RegionCode": "SURT",
    "State": "Gujarat",
    "SubRegionCode": "SURT",
    "VenueAddress": "Dumas Road, Opposite L and T Colony, Near Magdalla Circle, Surat, Gujarat 395007, India",
    "VenueCode": "CPUS",
    "VenueName": "City Plus Multiplex: Surat"
  },
  "CRPR": {
    "AvailableFormats": "2D",
    "City": "Puthoor",
    "Latitude": "9.040496",
    "Longitude": "76.715786",
    "RegionCode": "PUTR",
    "State": "Kerala",
    "SubRegionCode": "PUTR",
    "VenueAddress": "Cheerankavu, Maranadu, Puthoor, Kerala 691507, India",
    "VenueCode": "CRPR",
    "VenueName": "Chellam Theatre 4K Laser Dolby Atmos: Puthoor"
  },
  "CSER": {
    "AvailableFormats": "2D",
    "City": "Guntur",
    "Latitude": "16.3333",
    "Longitude": "80.438",
    "RegionCode": "GUNT",
    "State": "Andhra Pradesh",
    "SubRegionCode": "GUNT",
    "VenueAddress": "Amravati Road, Gorantla, Near Gorantla Electricity Office, Guntur, Andhra Pradesh 522034, India",
    "VenueCode": "CSER",
    "VenueName": "Cine Square Dolby Atmos A/C: Guntur"
  },
  "CSST": {
    "AvailableFormats": "2D",
    "City": "Ahmedabad",
    "Latitude": "23.0525",
    "Longitude": "72.4807",
    "RegionCode": "AHD",
    "State": "Gujarat",
    "SubRegionCode": "AHD",
    "VenueAddress": "2nd Floor, Shilp The Address,Shilaj Road, SP Ringoad, Thaltej, Ahmedabad, Gujarat 380059, India",
    "VenueCode": "CSST",
    "VenueName": "Connplex Cinemas: Shilaj"
  },
  "CTEE": {
    "AvailableFormats": "3D|2D",
    "City": "Gurugram (Gurgaon)",
    "Latitude": "28.454",
    "Longitude": "76.9927",
    "RegionCode": "NCR",
    "State": "NCR",
    "SubRegionCode": "GURG",
    "VenueAddress": "The Esplanade Mall, Sector 37 C Road, Sector 37, Gurugram (Gurgaon), NCR 122001, India",
    "VenueCode": "CTEE",
    "VenueName": "Cinepolis: The Esplanade, Gurugram"
  },
  "CTMR": {
    "AvailableFormats": "2D",
    "City": "Muzaffarnagar",
    "Latitude": "29.4762",
    "Longitude": "77.6966",
    "RegionCode": "MUZ",
    "State": "Uttar Pradesh",
    "SubRegionCode": "MUZ",
    "VenueAddress": "NH 58, Civil Lines North, Muzaffarnagar, Uttar Pradesh 251001, India",
    "VenueCode": "CTMR",
    "VenueName": "Chandra Talkies: Muzaffarnagar"
  },
  "CUDN": {
    "AvailableFormats": "",
    "City": "Nagpur",
    "Latitude": "20.8422",
    "Longitude": "79.3181",
    "RegionCode": "NAGP",
    "State": "Maharashtra",
    "SubRegionCode": "NAGP",
    "VenueAddress": "Plot No. 1, 2, and 3, Giradkar Layout, Bypass Road, Nagpur, Maharashtra 441203, India",
    "VenueCode": "CUDN",
    "VenueName": "Chhotu Maharaj: Umred, Nagpur"
  },
  "CVMU": {
    "AvailableFormats": "",
    "City": "Hyderabad",
    "Latitude": "17.402",
    "Longitude": "78.5719",
    "RegionCode": "HYD",
    "State": "Telangana",
    "SubRegionCode": "HYD",
    "VenueAddress": "Main Road, IBP Petrol Bunk, Shanthi Nagar, Medchal Malkajgiri, Hyderabad, Telangana 500039, India",
    "VenueCode": "CVMU",
    "VenueName": "Cineverse Multiplex: Uppal"
  },
  "CXKR": {
    "AvailableFormats": "2D",
    "City": "Rourkela",
    "Latitude": "22.2342",
    "Longitude": "84.8724",
    "RegionCode": "RKOR",
    "State": "Odisha",
    "SubRegionCode": "RKOR",
    "VenueAddress": "Railway Colony, Ring Road, Rourkela, Odisha 769001, India",
    "VenueCode": "CXKR",
    "VenueName": "Cineplexx: Beside Hotel Deepti, Rourkela"
  },
  "DABA": {
    "AvailableFormats": "2D",
    "City": "Cumbum",
    "Latitude": "9.73105",
    "Longitude": "77.2823",
    "RegionCode": "CMBM",
    "State": "Tamil Nadu",
    "SubRegionCode": "CMBM",
    "VenueAddress": "Angoorpalayam Road, Mani Nagaram, Cumbum, Tamil Nadu 625516, India",
    "VenueCode": "DABA",
    "VenueName": "Deva Bala Sakthi Bala A/C 2K DOLBY Atmos: Cumbum"
  },
  "DCCO": {
    "AvailableFormats": "2D|3D",
    "City": "Nashik",
    "Latitude": "19.9812",
    "Longitude": "73.756",
    "RegionCode": "NASK",
    "State": "Maharashtra",
    "SubRegionCode": "NASK",
    "VenueAddress": "Purab Paschim Plaza, Trimurti Chowk Cidco-9, Opposite Trimurti Chowk Post Office, Nashik, Maharashtra 422008, India",
    "VenueCode": "DCCO",
    "VenueName": "Divya Cinemas: Nashik"
  },
  "DCMJ": {
    "AvailableFormats": "2D",
    "City": "Manjeri",
    "Latitude": "11.1232",
    "Longitude": "76.1175",
    "RegionCode": "MAJR",
    "State": "Kerala",
    "SubRegionCode": "MAJR",
    "VenueAddress": "Rajiv Gandhi Bypass, Karuvambram, Manjeri, Kerala 676121, India",
    "VenueCode": "DCMJ",
    "VenueName": "Devaki Cinemax: Manjeri"
  },
  "DDCK": {
    "AvailableFormats": "2D|3D",
    "City": "Hajipur",
    "Latitude": "25.6943",
    "Longitude": "85.2116",
    "RegionCode": "HAJI",
    "State": "Bihar",
    "SubRegionCode": "HAJI",
    "VenueAddress": "Cine Krishna Mall ,1st Floor, Cinema Road, Hajipur, Bihar 844101, India",
    "VenueCode": "DDCK",
    "VenueName": "DD Cinemas: Cine Krishna Mall, Hajipur"
  },
  "DESB": {
    "AvailableFormats": "2D",
    "City": "Dhanbad",
    "Latitude": "23.7401",
    "Longitude": "86.4183",
    "RegionCode": "DHAN",
    "State": "Jharkhand",
    "SubRegionCode": "DHAN",
    "VenueAddress": "Nai Duniya Mohlla, Main Road, Jharia, Dhanbad, Jharkhand 828111, India",
    "VenueCode": "DESB",
    "VenueName": "Deshbandhu Cinema: Jharia, Dhanbad"
  },
  "DICI": {
    "AvailableFormats": "2D",
    "City": "Indore",
    "Latitude": "22.6273",
    "Longitude": "75.8388",
    "RegionCode": "IND",
    "State": "Madhya Pradesh",
    "SubRegionCode": "IND",
    "VenueAddress": "Windasa Theme Park, Near - State Institute of Hotel Management, Indore, Madhya Pradesh 453331, India",
    "VenueCode": "DICI",
    "VenueName": "Cine Wheels Drive in by Windasa: Indore"
  },
  "DLMT": {
    "AvailableFormats": "2D",
    "City": "Akaltara",
    "Latitude": "22.0352",
    "Longitude": "82.4273",
    "RegionCode": "AKAL",
    "State": "Chhattisgarh",
    "SubRegionCode": "AKAL",
    "VenueAddress": "Baloda Road, Beside DL Fuels, Akaltara, Chhattisgarh 495552, India",
    "VenueCode": "DLMT",
    "VenueName": "DL Multiplex: Akaltara"
  },
  "DNCS": {
    "AvailableFormats": "2D",
    "City": "Shirur",
    "Latitude": "18.818",
    "Longitude": "74.3666",
    "RegionCode": "SHRU",
    "State": "Maharashtra",
    "SubRegionCode": "SHRU",
    "VenueAddress": "2nd Floor, A Wing, Oxy Gold, Baburao Nagar, Shirur Bypass, Shirur, Maharashtra 412210, India",
    "VenueCode": "DNCS",
    "VenueName": "Digigold Nova Cinemaz: Shirur"
  },
  "DRCA": {
    "AvailableFormats": "2D",
    "City": "Durgapur",
    "Latitude": "23.5376",
    "Longitude": "87.3015",
    "RegionCode": "DURGA",
    "State": "West Bengal",
    "SubRegionCode": "DURGA",
    "VenueAddress": "Nazrul Sarani, Doctor`s Colony, City Center, Near Srijani Auditorium, Durgapur, West Bengal 713216, India",
    "VenueCode": "DRCA",
    "VenueName": "Durgapur Cinema: Durgapur"
  },
  "DTDT": {
    "AvailableFormats": "3D|2D",
    "City": "Indore",
    "Latitude": "22.7035",
    "Longitude": "75.9178",
    "RegionCode": "IND",
    "State": "Madhya Pradesh",
    "SubRegionCode": "IND",
    "VenueAddress": "5th Floor, The Zodiac Mall, Scheme No. 140, Pipliyahana, Indore, Madhya Pradesh 452016, India",
    "VenueCode": "DTDT",
    "VenueName": "Drama Factory Cinema, Zodiac Mall: Indore"
  },
  "DVCA": {
    "AvailableFormats": "2D",
    "City": "Dhamtari",
    "Latitude": "20.7086",
    "Longitude": "81.5462",
    "RegionCode": "DHMT",
    "State": "Chhattisgarh",
    "SubRegionCode": "DHMT",
    "VenueAddress": "C/O Vimal Talkies, Dhamtari H.O, Near Bhagwati Lodge and Dawat Restaurat, Dhamtari, Chhattisgarh 493773, India",
    "VenueCode": "DVCA",
    "VenueName": "Devshri Cinema: Dhamtari"
  },
  "DZCM": {
    "AvailableFormats": "2D",
    "City": "Gangtok",
    "Latitude": "27.3264",
    "Longitude": "88.6114",
    "RegionCode": "GANG",
    "State": "Sikkim",
    "SubRegionCode": "GANG",
    "VenueAddress": "Lal Bazar Road, Opposite to Taxi Stand, Near Denzong Inn Hotel, Gangtok, Sikkim 737101, India",
    "VenueCode": "DZCM",
    "VenueName": "Denzong Cinema: Gangtok"
  },
  "EDMP": {
    "AvailableFormats": "2D|3D",
    "City": "Ghaziabad",
    "Latitude": "28.6412",
    "Longitude": "77.317",
    "RegionCode": "MRDG",
    "State": "NCR",
    "SubRegionCode": "MRDG",
    "VenueAddress": "East Delhi Mall, Opp Anand Vihar, Kaushambi, Near Big Bazaar, Ghaziabad, NCR 201010, India",
    "VenueCode": "EDMP",
    "VenueName": "PVR: EDM, Ghaziabad"
  },
  "EMCC": {
    "AvailableFormats": "2D",
    "City": "Kozhikode",
    "Latitude": "11.2701",
    "Longitude": "75.8443",
    "RegionCode": "KOZH",
    "State": "Kerala",
    "SubRegionCode": "KOZH",
    "VenueAddress": "Velliparamba, Kozhikode, Near Medical collage Hospital, Kozhikode, Kerala 673008, India",
    "VenueCode": "EMCC",
    "VenueName": "E Max Cinemas Dolby Atmos RGB Laser: Calicut"
  },
  "ESBD": {
    "AvailableFormats": "2D",
    "City": "Beed",
    "Latitude": "18.9946",
    "Longitude": "75.7533",
    "RegionCode": "BEED",
    "State": "Maharashtra",
    "SubRegionCode": "BEED",
    "VenueAddress": "Shahu Nagar, Pangri Road, Near Bus Stand, Beed, Maharashtra 431122, India",
    "VenueCode": "ESBD",
    "VenueName": "Santoshimata: Beed"
  },
  "ESYM": {
    "AvailableFormats": "3D|2D",
    "City": "Yavatmal",
    "Latitude": "20.3575",
    "Longitude": "78.1019",
    "RegionCode": "YAVA",
    "State": "Maharashtra",
    "SubRegionCode": "YAVA",
    "VenueAddress": "Elements Mall, Ring Road, Tulja Nagari, SatyaNarayan Layout, Yavatmal, Maharashtra 445002, India",
    "VenueCode": "ESYM",
    "VenueName": "Elements Cinema: Yavatmal"
  },
  "EYCJ": {
    "AvailableFormats": "2D",
    "City": "Jharsuguda",
    "Latitude": "21.8505",
    "Longitude": "84.0129",
    "RegionCode": "JRSG",
    "State": "Odisha",
    "SubRegionCode": "JRSG",
    "VenueAddress": "Shanti City Center, Sarbahal Road, Jharsuguda, Odisha 768201, India",
    "VenueCode": "EYCJ",
    "VenueName": "Eylex Cinema: Jharsuguda"
  },
  "FCRT": {
    "AvailableFormats": "2D",
    "City": "Betul",
    "Latitude": "21.9002",
    "Longitude": "77.9061",
    "RegionCode": "BETU",
    "State": "Madhya Pradesh",
    "SubRegionCode": "BETU",
    "VenueAddress": "Hirani Marg, Ganj, Opposite Kapoor Furnitures, Betul, Madhya Pradesh 460001, India",
    "VenueCode": "FCRT",
    "VenueName": "Rajtilak Multiscreen: Betul"
  },
  "FMFB": {
    "AvailableFormats": "2D",
    "City": "Bengaluru",
    "Latitude": "12.9608",
    "Longitude": "77.7481",
    "RegionCode": "BANG",
    "State": "Karnataka",
    "SubRegionCode": "BANG",
    "VenueAddress": "No.62, 2nd Floor, Nexus, Whitefield Main Road, Whitefield, Near Citi Bank ATM, Bengaluru, Karnataka 560066, India",
    "VenueCode": "FMFB",
    "VenueName": "INOX: Nexus, Whitefield"
  },
  "FNAM": {
    "AvailableFormats": "2D|3D",
    "City": "Ambala",
    "Latitude": "30.3743",
    "Longitude": "76.7822",
    "RegionCode": "AMB",
    "State": "Haryana",
    "SubRegionCode": "AMB",
    "VenueAddress": "Sector-7, Opposite Police Lines, Ambala, Haryana 134003, India",
    "VenueCode": "FNAM",
    "VenueName": "Fun Cinemas: Galaxy Mall, Ambala"
  },
  "FNDB": {
    "AvailableFormats": "2D|3D",
    "City": "Dibrugarh",
    "Latitude": "27.4801",
    "Longitude": "94.9053",
    "RegionCode": "DIB",
    "State": "Assam",
    "SubRegionCode": "DIB",
    "VenueAddress": "RKB, RKB Path, Sohum Mal, Dibrugarh, Assam 786001, India",
    "VenueCode": "FNDB",
    "VenueName": "Galleria Cinema: Junction Mall, Dibrugarh"
  },
  "FPKA": {
    "AvailableFormats": "2D",
    "City": "Kotkapura",
    "Latitude": "30.592",
    "Longitude": "74.8582",
    "RegionCode": "KOTK",
    "State": "Punjab",
    "SubRegionCode": "KOTK",
    "VenueAddress": "Moga Road, Kotkapura HO, Kotkapura, Punjab 151204, India",
    "VenueCode": "FPKA",
    "VenueName": "Fun Plaza: Kotkapura"
  },
  "FSCW": {
    "AvailableFormats": "2D",
    "City": "Pune",
    "Latitude": "18.5125",
    "Longitude": "73.6747",
    "RegionCode": "PUNE",
    "State": "Maharashtra",
    "SubRegionCode": "PUNE",
    "VenueAddress": "Ghotawade Phata, Pirangut, Pune, Maharashtra 412115, India",
    "VenueCode": "FSCW",
    "VenueName": "Funsquare Cinema: Ghotawade Phata"
  },
  "GABA": {
    "AvailableFormats": "2D",
    "City": "Babra",
    "Latitude": "21.8448",
    "Longitude": "71.3052",
    "RegionCode": "BABT",
    "State": "Gujarat",
    "SubRegionCode": "BABT",
    "VenueAddress": "City Survey No. 2791, Patidar Complex, Bhavnagar Road, Kalal Chowk Babra Amreli, Babra, Gujarat 365421, India",
    "VenueCode": "GABA",
    "VenueName": "Galaxy Cinema: Babra"
  },
  "GATM": {
    "AvailableFormats": "2D",
    "City": "Mysuru (Mysore)",
    "Latitude": "12.3018",
    "Longitude": "76.651",
    "RegionCode": "MYS",
    "State": "Karnataka",
    "SubRegionCode": "MYS",
    "VenueAddress": "Chamaraja Double Road, K.R.Mohalla, Agrahara, Mysuru (Mysore), Karnataka 570024, India",
    "VenueCode": "GATM",
    "VenueName": "Gayathri Talkies: Mysuru, Christie Solaria 2K"
  },
  "GCAT": {
    "AvailableFormats": "2D",
    "City": "Golaghat",
    "Latitude": "26.5113",
    "Longitude": "93.9726",
    "RegionCode": "GHT",
    "State": "Assam",
    "SubRegionCode": "GHT",
    "VenueAddress": "Municipality Complex, Old Jail Road, Near Kutchina Modular Showroom, Golaghat, Assam 785621, India",
    "VenueCode": "GCAT",
    "VenueName": "Gold Cinema: Golaghat"
  },
  "GCDT": {
    "AvailableFormats": "2D",
    "City": "Thrissur",
    "Latitude": "10.5091",
    "Longitude": "76.2374",
    "RegionCode": "MANR",
    "State": "Kerala",
    "SubRegionCode": "MANR",
    "VenueAddress": "Valarkavu, Nehru Nagar, Kuriachira P.O, Thrissur, Kerala 680006, India",
    "VenueCode": "GCDT",
    "VenueName": "Ganam Cinemas 4K RGB Laser Dolby Atmos: Thrissur"
  },
  "GCKJ": {
    "AvailableFormats": "2D",
    "City": "Kotputli",
    "Latitude": "27.7032",
    "Longitude": "76.2297",
    "RegionCode": "KPLI",
    "State": "Rajasthan",
    "SubRegionCode": "KPLI",
    "VenueAddress": "Bansur Road ,Bhuchahira, Moh. Badabas, Kotputli, Kotputli, Rajasthan 303108, India",
    "VenueCode": "GCKJ",
    "VenueName": "Gold Cinema: Kotputli"
  },
  "GCPT": {
    "AvailableFormats": "2D",
    "City": "Pathankot",
    "Latitude": "32.2726",
    "Longitude": "75.6535",
    "RegionCode": "PATH",
    "State": "Punjab",
    "SubRegionCode": "PATH",
    "VenueAddress": "4th Floor, City Centre Mall, Dalhousie Road, Pathankot, Punjab 145001, India",
    "VenueCode": "GCPT",
    "VenueName": "Grand Cinemaz: Pathankot"
  },
  "GCTI": {
    "AvailableFormats": "2D",
    "City": "Tinsukia",
    "Latitude": "27.492",
    "Longitude": "95.3617",
    "RegionCode": "TINS",
    "State": "Assam",
    "SubRegionCode": "TINS",
    "VenueAddress": "ATC Mall, GNB Road, Tinsukia, Assam 786125, India",
    "VenueCode": "GCTI",
    "VenueName": "Galleria Cinemas: ATC Mall, Tinsukia"
  },
  "GDCN": {
    "AvailableFormats": "2D",
    "City": "Guwahati",
    "Latitude": "26.1795",
    "Longitude": "91.8302",
    "RegionCode": "GUW",
    "State": "Assam",
    "SubRegionCode": "GUW",
    "VenueAddress": "LG Tower Tiniali, Narengi, Near Tulip Resturant, Guwahati, Assam 781026, India",
    "VenueCode": "GDCN",
    "VenueName": "Gold Cinema: Narengi"
  },
  "GDPG": {
    "AvailableFormats": "2D",
    "City": "Palghar",
    "Latitude": "19.6934",
    "Longitude": "72.7739",
    "RegionCode": "PALG",
    "State": "Maharashtra",
    "SubRegionCode": "PALG",
    "VenueAddress": "Mahim Road Palghar, Old Ice factory, Near Sales Tax Office, Palghar, Maharashtra 401404, India",
    "VenueCode": "GDPG",
    "VenueName": "Gold Cinema: Palghar"
  },
  "GGCB": {
    "AvailableFormats": "2D|3D",
    "City": "Burhanpur",
    "Latitude": "21.3138",
    "Longitude": "76.2223",
    "RegionCode": "BRHP",
    "State": "Madhya Pradesh",
    "SubRegionCode": "BRHP",
    "VenueAddress": "Gursikh Mall, New Market, Sanwara, Road, Sindhi Basti, Burhanpur, Madhya Pradesh 450331, India",
    "VenueCode": "GGCB",
    "VenueName": "Gursikh Goldmark Cinemas (Dolby Atmos): Burhanpur"
  },
  "GIER": {
    "AvailableFormats": "2D",
    "City": "Berhampur",
    "Latitude": "19.3102",
    "Longitude": "84.7914",
    "RegionCode": "BERP",
    "State": "Odisha",
    "SubRegionCode": "BERP",
    "VenueAddress": "Janata City Centre, Telephone Bhawan Road, Gandhi Nagar, Berhampur, Odisha 760001, India",
    "VenueCode": "GIER",
    "VenueName": "Gayatri Cinemas: Berhampur"
  },
  "GLDC": {
    "AvailableFormats": "2D",
    "City": "Chaygaon",
    "Latitude": "26.0476",
    "Longitude": "91.3844",
    "RegionCode": "CHOG",
    "State": "Assam",
    "SubRegionCode": "CHOG",
    "VenueAddress": "Goalpara - Guwahati Road, Near Bank Of Baroda, Chaygaon, Assam 781124, India",
    "VenueCode": "GLDC",
    "VenueName": "Gold Cinema: Chaygaon"
  },
  "GNDS": {
    "AvailableFormats": "2D",
    "City": "Shikrapur",
    "Latitude": "18.703",
    "Longitude": "74.1389",
    "RegionCode": "SKHR",
    "State": "Maharashtra",
    "SubRegionCode": "SKHR",
    "VenueAddress": "Besides Nandini Villa, Hiware Road, Shikrapur, Maharashtra 412208, India",
    "VenueCode": "GNDS",
    "VenueName": "Gunjan Dijeplex: Shikrapur"
  },
  "GPGM": {
    "AvailableFormats": "2D",
    "City": "Bengaluru",
    "Latitude": "12.9935",
    "Longitude": "77.664",
    "RegionCode": "HOKT",
    "State": "Karnataka",
    "SubRegionCode": "HOKT",
    "VenueAddress": "Nagavar Palaya, Old Madras Road, Above More Supermarket, Bengaluru, Karnataka 560016, India",
    "VenueCode": "GPGM",
    "VenueName": "Gopalan Grand Mall: Old Madras Road"
  },
  "GRCR": {
    "AvailableFormats": "2D",
    "City": "Rajkot",
    "Latitude": "22.356",
    "Longitude": "70.715",
    "RegionCode": "RAJK",
    "State": "Gujarat",
    "SubRegionCode": "RAJK",
    "VenueAddress": "Rajkot Highway, Jamnagar, Near Saurashtra Cricket Stadium, Rajkot, Gujarat 360006, India",
    "VenueCode": "GRCR",
    "VenueName": "Garden Cinema: Rajkot"
  },
  "GTAD": {
    "AvailableFormats": "2D",
    "City": "Yerragondapalem",
    "Latitude": "16.04",
    "Longitude": "79.3096",
    "RegionCode": "YERA",
    "State": "Andhra Pradesh",
    "SubRegionCode": "YERA",
    "VenueAddress": "28R5+2V6, Yerragondapalem, Yerragondapalem, Andhra Pradesh 523327, India",
    "VenueCode": "GTAD",
    "VenueName": "Gayathri Theater 2K Dolby: Yerragondapalem"
  },
  "GTNA": {
    "AvailableFormats": "2D",
    "City": "Nidadavolu",
    "Latitude": "16.9054",
    "Longitude": "81.6714",
    "RegionCode": "NDVD",
    "State": "Andhra Pradesh",
    "SubRegionCode": "NDVD",
    "VenueAddress": "Nidadavole Road, West Godavari, Opposite Ratna Nursing Home, Nidadavolu, Andhra Pradesh 534301, India",
    "VenueCode": "GTNA",
    "VenueName": "Ganapathi Theatre A/C Dts: Nidadavolu"
  },
  "GUCK": {
    "AvailableFormats": "2D",
    "City": "Kanpur",
    "Latitude": "26.4607",
    "Longitude": "80.327",
    "RegionCode": "KANP",
    "State": "Uttar Pradesh",
    "SubRegionCode": "KANP",
    "VenueAddress": "87/8, Gunjan Cinema, G.T.Road, Kanpur Nagar, Near Society Motors, Kanpur, Uttar Pradesh 208003, India",
    "VenueCode": "GUCK",
    "VenueName": "Gunjan Cinema: Kanpur"
  },
  "HAMR": {
    "AvailableFormats": "2D",
    "City": "Haflong",
    "Latitude": "25.1731",
    "Longitude": "93.0149",
    "RegionCode": "HALG",
    "State": "Assam",
    "SubRegionCode": "HALG",
    "VenueAddress": "H20, Dibarai, Haflong, Assam 788819, India",
    "VenueCode": "HAMR",
    "VenueName": "Hamringdi Cinema: Haflong"
  },
  "HFSA": {
    "AvailableFormats": "2D",
    "City": "Panaji",
    "Latitude": "15.497",
    "Longitude": "73.8239",
    "RegionCode": "PANA",
    "State": "Goa",
    "SubRegionCode": "PANA",
    "VenueAddress": "Samrat Ashok Theatre Complex, 2nd Floor, 18th June Road, Hotel Ashok Plaza, Panaji, Goa 403001, India",
    "VenueCode": "HFSA",
    "VenueName": "Z Square Cine Samrat Ashok: Panaji"
  },
  "HMHD": {
    "AvailableFormats": "2D|3D",
    "City": "Hyderabad",
    "Latitude": "17.4445",
    "Longitude": "78.3882",
    "RegionCode": "HYD",
    "State": "Telangana",
    "SubRegionCode": "HYD",
    "VenueAddress": "Hitech City Road, Sri Sai Nagar, Madhapur, Near State Bank Of India, Hyderabad, Telangana 500034, India",
    "VenueCode": "HMHD",
    "VenueName": "BR Hitech 70mm: Madhapur"
  },
  "HVCA": {
    "AvailableFormats": "2D",
    "City": "Ahmedabad",
    "Latitude": "23.0115",
    "Longitude": "72.5976",
    "RegionCode": "AHD",
    "State": "Gujarat",
    "SubRegionCode": "AHD",
    "VenueAddress": "1st Floor, Eka Club by TransStadia, Kankaria Lake, Opposite Gate No.3, Ahmedabad, Gujarat 380022, India",
    "VenueCode": "HVCA",
    "VenueName": "Havelock Cineflix Cinemas: Maninagar, Ahmedabad"
  },
  "IDEN": {
    "AvailableFormats": "2D",
    "City": "Delhi",
    "Latitude": "28.5513",
    "Longitude": "77.2515",
    "RegionCode": "NCR",
    "State": "NCR",
    "SubRegionCode": "DELHI",
    "VenueAddress": "Lower Ground Floor, Epicuria, TDI South Bridge, Nehru Place Metro Station, PD Area, Delhi, NCR 110019, India",
    "VenueCode": "IDEN",
    "VenueName": "INOX: Insignia At Epicuria, Nehru Place"
  },
  "ILCM": {
    "AvailableFormats": "3D|2D",
    "City": "Lucknow",
    "Latitude": "26.8886",
    "Longitude": "81.0554",
    "RegionCode": "LUCK",
    "State": "Uttar Pradesh",
    "SubRegionCode": "LUCK",
    "VenueAddress": "INOX  Leisure LTD, 3rd Floor, Crown Mall, Faizabad Road, Atif Vihar, Opposite BBD University, Lucknow, Uttar Pradesh 226028, India",
    "VenueCode": "ILCM",
    "VenueName": "INOX: Crown Mall, Lucknow"
  },
  "IMKN": {
    "AvailableFormats": "2D|3D",
    "City": "Kolkata",
    "Latitude": "22.7032",
    "Longitude": "88.4718",
    "RegionCode": "KOLK",
    "State": "West Bengal",
    "SubRegionCode": "KOLK",
    "VenueAddress": "3rd Floor, Star Mall, 74/Mall/1 Jessore Road (North), Sisir Kunja,Madhyamgram, Kolkata, West Bengal 700129, India",
    "VenueCode": "IMKN",
    "VenueName": "INOX: Star Mall, Madhyamgram"
  },
  "INAG": {
    "AvailableFormats": "3D|2D",
    "City": "Guwahati",
    "Latitude": "26.1495",
    "Longitude": "91.7858",
    "RegionCode": "GUW",
    "State": "Assam",
    "SubRegionCode": "GUW",
    "VenueAddress": "Aurus Mall, 5th Floor, G.S. Road, Dispur, Guwahati, Assam 781006, India",
    "VenueCode": "INAG",
    "VenueName": "INOX: Aurus, Guwahati"
  },
  "INBM": {
    "AvailableFormats": "2D|3D",
    "City": "Bengaluru",
    "Latitude": "12.966",
    "Longitude": "77.7179",
    "RegionCode": "HOKT",
    "State": "Karnataka",
    "SubRegionCode": "HOKT",
    "VenueAddress": "INOX Leisure Ltd, 4th Floor, Brookefield Mall, Kundalahalli Main Road, Bengaluru, Karnataka 560037, India",
    "VenueCode": "INBM",
    "VenueName": "INOX: Brookefield Mall"
  },
  "INEL": {
    "AvailableFormats": "2D|3D",
    "City": "Lucknow",
    "Latitude": "26.788",
    "Longitude": "80.9105",
    "RegionCode": "LUCK",
    "State": "Uttar Pradesh",
    "SubRegionCode": "LUCK",
    "VenueAddress": "3rd Floor, Emerald Mall, CP 138, Sector D1, LDA Colony, Ashiyana, Lucknow, Uttar Pradesh 226012, India",
    "VenueCode": "INEL",
    "VenueName": "INOX: Megaplex Emerald, Lucknow"
  },
  "INHD": {
    "AvailableFormats": "2D",
    "City": "Kolkata",
    "Latitude": "22.5649",
    "Longitude": "88.3592",
    "RegionCode": "KOLK",
    "State": "West Bengal",
    "SubRegionCode": "KOLK",
    "VenueAddress": "76, Ganesh Chandra Avenue, Bow Bazaar, Dharmatala, Near Chandni Chowk Metro Station, Kolkata, West Bengal 700013, India",
    "VenueCode": "INHD",
    "VenueName": "Hind INOX: Kolkata"
  },
  "INMG": {
    "AvailableFormats": "2D|3D",
    "City": "Goa",
    "Latitude": "15.2848",
    "Longitude": "73.9576",
    "RegionCode": "GOA",
    "State": "Goa",
    "SubRegionCode": "GOA",
    "VenueAddress": "G Wing, Osia Commercial Arcade, SGPDA Market Complex, Goa, Goa 403601, India",
    "VenueCode": "INMG",
    "VenueName": "INOX: Osia G Wing Margao, Goa"
  },
  "INOM": {
    "AvailableFormats": "2D",
    "City": "Salem",
    "Latitude": "11.6745",
    "Longitude": "78.1326",
    "RegionCode": "SALM",
    "State": "Tamil Nadu",
    "SubRegionCode": "SALM",
    "VenueAddress": "1st Floor, Reliance Mall, Five Roads Junction, Meyyanur, Salem, Tamil Nadu 636004, India",
    "VenueCode": "INOM",
    "VenueName": "INOX: Reliance Mall, Salem"
  },
  "INQM": {
    "AvailableFormats": "2D|3D",
    "City": "Kolkata",
    "Latitude": "22.5393",
    "Longitude": "88.3657",
    "RegionCode": "BARR",
    "State": "West Bengal",
    "SubRegionCode": "BARR",
    "VenueAddress": "4th Floor,Quest Mall, Syed Amir Ali Avenue, Opposite Our Lady Queen Of The Missions School, Kolkata, West Bengal 700017, India",
    "VenueCode": "INQM",
    "VenueName": "INOX: Quest Mall"
  },
  "INSC": {
    "AvailableFormats": "2D|3D",
    "City": "Thrissur",
    "Latitude": "10.5504",
    "Longitude": "76.1838",
    "RegionCode": "MANR",
    "State": "Kerala",
    "SubRegionCode": "MANR",
    "VenueAddress": "INOX Leisure Ltd, 2nd Floor, Sobha City Mall, Puzhakkal, Thrissur, Kerala 680553, India",
    "VenueCode": "INSC",
    "VenueName": "INOX: Sobha City Mall"
  },
  "INTN": {
    "AvailableFormats": "3D|2D",
    "City": "Patna",
    "Latitude": "25.6057",
    "Longitude": "85.1337",
    "RegionCode": "PATN",
    "State": "Bihar",
    "SubRegionCode": "PATN",
    "VenueAddress": "PVR INOX Limited, KP Mall, 4th Floor, Budha Marg, Patna, Bihar 800001, India",
    "VenueCode": "INTN",
    "VenueName": "INOX: Ashok, Patna"
  },
  "INVP": {
    "AvailableFormats": "2D",
    "City": "Vijayawada",
    "Latitude": "16.5026",
    "Longitude": "80.6599",
    "RegionCode": "KADU",
    "State": "Andhra Pradesh",
    "SubRegionCode": "KADU",
    "VenueAddress": "3rd Floor, LEPL Icon, RTC Colony, Benz Circle, Patamata, Near Maris Stella College, Vijayawada, Andhra Pradesh 520010, India",
    "VenueCode": "INVP",
    "VenueName": "INOX: LEPL Icon, Patamata"
  },
  "IOMG": {
    "AvailableFormats": "2D|3D",
    "City": "Greater Noida",
    "Latitude": "28.4888",
    "Longitude": "77.5145",
    "RegionCode": "NCR",
    "State": "NCR",
    "SubRegionCode": "GRET",
    "VenueAddress": "INOX Leisure Ltd, 2nd Floor, Omaxe Connaught Place Mall, H Block, Sector Beta- 2, Greater Noida, NCR 201308, India",
    "VenueCode": "IOMG",
    "VenueName": "INOX: Omaxe Connaught Place Mall, Greater Noida"
  },
  "IPMJ": {
    "AvailableFormats": "2D|3D",
    "City": "Delhi",
    "Latitude": "28.5371",
    "Longitude": "77.2831",
    "RegionCode": "NCR",
    "State": "NCR",
    "SubRegionCode": "DELHI",
    "VenueAddress": "3rd Floor, Pacific Mall, Mathura Road, Delhi, NCR 110076, India",
    "VenueCode": "IPMJ",
    "VenueName": "INOX: Pacific Mall, Jasola"
  },
  "ISMG": {
    "AvailableFormats": "3D|2D",
    "City": "Ghaziabad",
    "Latitude": "28.6342",
    "Longitude": "77.3695",
    "RegionCode": "MRDG",
    "State": "NCR",
    "SubRegionCode": "MRDG",
    "VenueAddress": "Shipra Mall, 3rd Floor, Plot No.9, Vaibhav Khand, Indira Puram, Ghaziabad, NCR 201014, India",
    "VenueCode": "ISMG",
    "VenueName": "INOX: Shipra Mall, Ghaziabad"
  },
  "IVNM": {
    "AvailableFormats": "",
    "City": "Hyderabad",
    "Latitude": "17.4946",
    "Longitude": "78.3549",
    "RegionCode": "HYD",
    "State": "Telangana",
    "SubRegionCode": "HYD",
    "VenueAddress": "6th floor, SMR Vinay Metro Mall, Miyapur, Hyderabad, Telangana 500049, India",
    "VenueCode": "IVNM",
    "VenueName": "INOX: SMR Vinay Metro Mall, Dolby ATMOS: Miyapur"
  },
  "JAYD": {
    "AvailableFormats": "2D",
    "City": "Tirupati",
    "Latitude": "13.631",
    "Longitude": "79.4247",
    "RegionCode": "TIRU",
    "State": "Andhra Pradesh",
    "SubRegionCode": "TIRU",
    "VenueAddress": "Mallaiah Gunta Katta, Tata Nagar, Tirupati, Andhra Pradesh 517501, India",
    "VenueCode": "JAYD",
    "VenueName": "NVR Jaysyam A/C 4K Dolby Atmos: Tirupati"
  },
  "JCHB": {
    "AvailableFormats": "2D",
    "City": "Chapra",
    "Latitude": "25.7839",
    "Longitude": "84.7407",
    "RegionCode": "CHPR",
    "State": "Bihar",
    "SubRegionCode": "CHPR",
    "VenueAddress": "Sri Nandan Path Road, Dahiyawan Tola, Near Astha Nursing Home, Chapra, Bihar 841301, India",
    "VenueCode": "JCHB",
    "VenueName": "Jyoti Cinema: Chapra"
  },
  "JDDD": {
    "AvailableFormats": "2D|3D",
    "City": "Ranchi",
    "Latitude": "23.358",
    "Longitude": "85.3247",
    "RegionCode": "RANC",
    "State": "Jharkhand",
    "SubRegionCode": "RANC",
    "VenueAddress": "JD High Street Mall, 07th Floor, Mahatma Gandhi Main Road, Opposite - GEL Church Complex, Ranchi, Jharkhand 834001, India",
    "VenueCode": "JDDD",
    "VenueName": "JD Cinemas: JD HI Street Mall, Ranchi"
  },
  "JJCK": {
    "AvailableFormats": "2D",
    "City": "Siddharthnagar",
    "Latitude": "27.2892",
    "Longitude": "83.0831",
    "RegionCode": "SIDZ",
    "State": "Uttar Pradesh",
    "SubRegionCode": "SIDZ",
    "VenueAddress": "Tetri Bazar Town, Tetari Bazar, Siddharthnagar, Uttar Pradesh 272207, India",
    "VenueCode": "JJCK",
    "VenueName": "Jyoti Cineplex: Siddharthnagar"
  },
  "JMBA": {
    "AvailableFormats": "2D",
    "City": "Buchireddypalem",
    "Latitude": "14.5351",
    "Longitude": "79.8773",
    "RegionCode": "BCHR",
    "State": "Andhra Pradesh",
    "SubRegionCode": "BCHR",
    "VenueAddress": "Buchi Old, Bus stand, SH 57, Nagamambapuram, Buchireddypalem, Andhra Pradesh 524305, India",
    "VenueCode": "JMBA",
    "VenueName": "Jameela Mahal: Buchireddypalem"
  },
  "JPCC": {
    "AvailableFormats": "2D",
    "City": "Chhatarpur",
    "Latitude": "24.9439",
    "Longitude": "79.564",
    "RegionCode": "CHHT",
    "State": "Madhya Pradesh",
    "SubRegionCode": "CHHT",
    "VenueAddress": "JP Paradise, Peptech Town, Nowgong Road, National Highway 39, Chhatarpur, Madhya Pradesh 471001, India",
    "VenueCode": "JPCC",
    "VenueName": "JP Cinemas: Chhatarpur"
  },
  "JTBP": {
    "AvailableFormats": "2D",
    "City": "Warangal",
    "Latitude": "18.000055",
    "Longitude": "79.588167",
    "RegionCode": "WAR",
    "State": "Telangana",
    "SubRegionCode": "WAR",
    "VenueAddress": "Hyderabad-Warangal-Bhopalpatnam Road, Rahamatnagar, Main Road, Warangal, Telangana 506003, India",
    "VenueCode": "JTBP",
    "VenueName": "Bhavani Picture Palace: Kazipet"
  },
  "JTLT": {
    "AvailableFormats": "2D",
    "City": "Narasannapeta",
    "Latitude": "18.4161",
    "Longitude": "84.0412",
    "RegionCode": "NRPT",
    "State": "Andhra Pradesh",
    "SubRegionCode": "NRPT",
    "VenueAddress": "Maruthi Nagar, Near LIC Office, Narasannapeta, Andhra Pradesh 532421, India",
    "VenueCode": "JTLT",
    "VenueName": "Sri Lakshmi Talkies AC DTS: Narasannapeta"
  },
  "JTPT": {
    "AvailableFormats": "2D",
    "City": "Tenali",
    "Latitude": "16.2406",
    "Longitude": "80.6425",
    "RegionCode": "TENA",
    "State": "Andhra Pradesh",
    "SubRegionCode": "TENA",
    "VenueAddress": "D.No.8-10-1, TS No 20, Ward No.7, Block No.3, Giri Road, Morrispet, Balajirao Pet, Near Railway Station, Tenali, Andhra Pradesh 522202, India",
    "VenueCode": "JTPT",
    "VenueName": "Priya Sri Priya Complex: Tenali"
  },
  "JTTS": {
    "AvailableFormats": "2D",
    "City": "Sangareddy",
    "Latitude": "17.6148",
    "Longitude": "78.0788",
    "RegionCode": "SARE",
    "State": "Telangana",
    "SubRegionCode": "SARE",
    "VenueAddress": "2, Rajampet Road, Veerabhadranagar, Ahmed Nagar, Near Income Tax Office, Sangareddy, Telangana 502001, India",
    "VenueCode": "JTTS",
    "VenueName": "Rukmini Theatre: Sangareddy"
  },
  "JVTB": {
    "AvailableFormats": "2D",
    "City": "Bodinayakanur",
    "Latitude": "10.01",
    "Longitude": "77.3497",
    "RegionCode": "BODI",
    "State": "Tamil Nadu",
    "SubRegionCode": "BODI",
    "VenueAddress": "Ammankulam, Subanchetty Street, Near Pandyan Grama Bank, Bodinayakanur, Tamil Nadu 625513, India",
    "VenueCode": "JVTB",
    "VenueName": "Theatre Jivan: Bodi"
  },
  "KACR": {
    "AvailableFormats": "2D",
    "City": "Arambagh",
    "Latitude": "22.8852",
    "Longitude": "87.7866",
    "RegionCode": "AMBH",
    "State": "West Bengal",
    "SubRegionCode": "AMBH",
    "VenueAddress": "SH2, Near Karuna Market, Arambagh, West Bengal 712601, India",
    "VenueCode": "KACR",
    "VenueName": "Karuna Cinema: Arambagh"
  },
  "KAWS": {
    "AvailableFormats": "2D",
    "City": "Sonari",
    "Latitude": "27.028",
    "Longitude": "95.0312",
    "RegionCode": "SOYW",
    "State": "Assam",
    "SubRegionCode": "SOYW",
    "VenueAddress": "Kalpana Motors, Main Road, Sonari, Assam 785690, India",
    "VenueCode": "KAWS",
    "VenueName": "Kalpana Cine World: Sonari"
  },
  "KCKA": {
    "AvailableFormats": "2D",
    "City": "Korutla",
    "Latitude": "18.8262",
    "Longitude": "78.7134",
    "RegionCode": "KCKA",
    "State": "Telangana",
    "SubRegionCode": "KCKA",
    "VenueAddress": "Nizamabad - Mancherial Road, NH 63, Near LIC of India Satellite Ofc, Korutla, Telangana 505326, India",
    "VenueCode": "KCKA",
    "VenueName": "Kinnera Deluxe Theatre: Korutla"
  },
  "KCSR": {
    "AvailableFormats": "2D",
    "City": "Shrirampur",
    "Latitude": "19.6165",
    "Longitude": "74.6566",
    "RegionCode": "SHUR",
    "State": "Maharashtra",
    "SubRegionCode": "SHUR",
    "VenueAddress": "Kishor Cineplex, Shivaji Road, Shrirampur, Maharashtra 413709, India",
    "VenueCode": "KCSR",
    "VenueName": "Kishor Cineplex: Shrirampur"
  },
  "KGCM": {
    "AvailableFormats": "2D",
    "City": "Coimbatore",
    "Latitude": "11.0001",
    "Longitude": "76.9721",
    "RegionCode": "COIM",
    "State": "Tamil Nadu",
    "SubRegionCode": "COIM",
    "VenueAddress": "No.3, Bungalow Road, Race Course, Near K G Hospital, Coimbatore, Tamil Nadu 641018, India",
    "VenueCode": "KGCM",
    "VenueName": "KG Cinemas: Coimbatore"
  },
  "KKMB": {
    "AvailableFormats": "2D",
    "City": "Navi Mumbai",
    "Latitude": "19.101",
    "Longitude": "73.0102",
    "RegionCode": "MUMBAI",
    "State": "Maharashtra",
    "SubRegionCode": "THAN",
    "VenueAddress": "Bonkode Road, Near Railway Station,Sector 8, RS Regency Road, Kopar Khairane, Navi Mumbai, Maharashtra 400709, India",
    "VenueCode": "KKMB",
    "VenueName": "BMX Cinemas (Balaji Movieplex): Koparkhairane"
  },
  "KLPA": {
    "AvailableFormats": "2D",
    "City": "Udupi",
    "Latitude": "13.3362",
    "Longitude": "74.7505",
    "RegionCode": "MANI",
    "State": "Karnataka",
    "SubRegionCode": "MANI",
    "VenueAddress": "Kadekoppala, Chitpady, Udupi, Karnataka 576101, India",
    "VenueCode": "KLPA",
    "VenueName": "Kalpana Theatre: Udupi"
  },
  "KMTV": {
    "AvailableFormats": "2D",
    "City": "Vadakara",
    "Latitude": "11.5927",
    "Longitude": "75.5903",
    "RegionCode": "VDKR",
    "State": "Kerala",
    "SubRegionCode": "VDKR",
    "VenueAddress": "Edodi, Near ICICI Bank Vadakara, Vadakara, Kerala 673101, India",
    "VenueCode": "KMTV",
    "VenueName": "Kirthi Mudra 4K RGB Laser Dolby Atmos"
  },
  "KRCC": {
    "AvailableFormats": "2D",
    "City": "Coimbatore",
    "Latitude": "11.0345",
    "Longitude": "76.9274",
    "RegionCode": "COIM",
    "State": "Tamil Nadu",
    "SubRegionCode": "COIM",
    "VenueAddress": "11/52, Thadagam Road, Edayarpalayam, Koilmedu, Coimbatore, Tamil Nadu 641025, India",
    "VenueCode": "KRCC",
    "VenueName": "Krithika Cinemas A/C 4K Dolby : Coimbatore"
  },
  "KRTA": {
    "AvailableFormats": "2D",
    "City": "Kazhakkoottam",
    "Latitude": "8.5664",
    "Longitude": "76.875",
    "RegionCode": "TRIV",
    "State": "Kerala",
    "SubRegionCode": "TRIV",
    "VenueAddress": "NH 47, Bypass Road, Near Bhima Theatre, Kazhakkoottam, Kerala 695582, India",
    "VenueCode": "KRTA",
    "VenueName": "Krishna Theatre: Kazhakkoottam"
  },
  "KSNT": {
    "AvailableFormats": "2D",
    "City": "Trivandrum",
    "Latitude": "8.48888",
    "Longitude": "76.9532",
    "RegionCode": "TRIV",
    "State": "Kerala",
    "SubRegionCode": "TRIV",
    "VenueAddress": "Aristo Junction, Thampanoor, Near Hotel Galaxy Park, Trivandrum, Kerala 695014, India",
    "VenueCode": "KSNT",
    "VenueName": "Kairali Sree Nila RGB Laser 4K Dolby Atmos"
  },
  "KTBR": {
    "AvailableFormats": "2D",
    "City": "Boisar",
    "Latitude": "19.7963",
    "Longitude": "72.7523",
    "RegionCode": "DHAU",
    "State": "Maharashtra",
    "SubRegionCode": "DHAU",
    "VenueAddress": "At Saravali S. No. 108, Nawapur Road, Boisar, Maharashtra 401501, India",
    "VenueCode": "KTBR",
    "VenueName": "KT Multivision Cinema: Boisar"
  },
  "KURL": {
    "AvailableFormats": "2D",
    "City": "Mumbai",
    "Latitude": "19.0669",
    "Longitude": "72.8773",
    "RegionCode": "MUMBAI",
    "State": "Maharashtra",
    "SubRegionCode": "MCENT",
    "VenueAddress": "Station Road, Kurla West, Mumbai, Maharashtra 400070, India",
    "VenueCode": "KURL",
    "VenueName": "Bharat Cineplex: Kurla (W)"
  },
  "LARC": {
    "AvailableFormats": "2D",
    "City": "Perambalur",
    "Latitude": "11.2388",
    "Longitude": "78.8665",
    "RegionCode": "ARIY",
    "State": "Tamil Nadu",
    "SubRegionCode": "ARIY",
    "VenueAddress": "Perambalur Elambalur Road, Samiyappa Nagar, Near Sri Anand Jewellers and silks, Perambalur, Tamil Nadu 621212, India",
    "VenueCode": "LARC",
    "VenueName": "LA Ram Cinema 4K Dolby ATMOS: Perambalur"
  },
  "LCPC": {
    "AvailableFormats": "2D",
    "City": "Pune",
    "Latitude": "19.1187",
    "Longitude": "73.9729",
    "RegionCode": "PUNE",
    "State": "Maharashtra",
    "SubRegionCode": "PUNE",
    "VenueAddress": "Telephone Exchange Road, Narayan Gaon, Near Shinde Market, Pune, Maharashtra 410504, India",
    "VenueCode": "LCPC",
    "VenueName": "Laxmi Cineplex: Narayangaon"
  },
  "LGTV": {
    "AvailableFormats": "2D",
    "City": "Vizianagaram",
    "Latitude": "18.1103",
    "Longitude": "83.3976",
    "RegionCode": "VIZI",
    "State": "Andhra Pradesh",
    "SubRegionCode": "VIZI",
    "VenueAddress": "Fort City Central Mall, Railway Station Road, Gadi Khana, Pedavemali, Beside Leela Mahal theatre, Vizianagaram, Andhra Pradesh 535001, India",
    "VenueCode": "LGTV",
    "VenueName": "LGT Cinemas: Vizianagaram"
  },
  "LKMY": {
    "AvailableFormats": "2D",
    "City": "Yellandu",
    "Latitude": "17.5845",
    "Longitude": "80.3226",
    "RegionCode": "YRLL",
    "State": "Telangana",
    "SubRegionCode": "YRLL",
    "VenueAddress": "Khammam - Yellandu Road, Bhagya Nagar Thanda, Yellandu, Telangana 507123, India",
    "VenueCode": "LKMY",
    "VenueName": "Lalitha Kala Mandir: Yellandu"
  },
  "LMCI": {
    "AvailableFormats": "2D",
    "City": "Ichchapuram",
    "Latitude": "19.1297",
    "Longitude": "84.6921",
    "RegionCode": "ICPR",
    "State": "Andhra Pradesh",
    "SubRegionCode": "ICPR",
    "VenueAddress": "Amin Sahib Peta, Oppsite NECC Office, Ichchapuram, Andhra Pradesh 532312, India",
    "VenueCode": "LMCI",
    "VenueName": "L Max Cinemas AC (2K JBL Dolby Digital 7.1)"
  },
  "LPTY": {
    "AvailableFormats": "2D",
    "City": "Thalassery",
    "Latitude": "11.7463",
    "Longitude": "75.4954",
    "RegionCode": "THAY",
    "State": "Kerala",
    "SubRegionCode": "THAY",
    "VenueAddress": "AVK Nair Road, Pilakool, Thalassery, Kerala 670103, India",
    "VenueCode": "LPTY",
    "VenueName": "Liberty Paradise: Thalassery"
  },
  "LUCP": {
    "AvailableFormats": "2D",
    "City": "Petlad",
    "Latitude": "22.4641",
    "Longitude": "72.7938",
    "RegionCode": "BORM",
    "State": "Gujarat",
    "SubRegionCode": "BORM",
    "VenueAddress": "3rd Floor Yogi Icon, GJ SH 89, Shekhadi, Near Nayara Petrol Pump, Petlad, Gujarat 388450, India",
    "VenueCode": "LUCP",
    "VenueName": "The Lux Cinema: Petlad"
  },
  "MAAG": {
    "AvailableFormats": "2D",
    "City": "Navsari",
    "Latitude": "20.9502",
    "Longitude": "72.9171",
    "RegionCode": "NVSR",
    "State": "Gujarat",
    "SubRegionCode": "NVSR",
    "VenueAddress": "Mukta A2 Cinemas, Giriraj, Station Road, Taskand Nagar, Vejalpore, Near Udipi Hotel, Navsari, Gujarat 396445, India",
    "VenueCode": "MAAG",
    "VenueName": "Mukta A2 Cinemas: Giriraj"
  },
  "MACX": {
    "AvailableFormats": "2D",
    "City": "Shajapur",
    "Latitude": "23.4169",
    "Longitude": "76.2898",
    "RegionCode": "SJUR",
    "State": "Madhya Pradesh",
    "SubRegionCode": "SJUR",
    "VenueAddress": "Near Hotel Manorama Garden, Bercha Road, Shajapur, Madhya Pradesh 465001, India",
    "VenueCode": "MACX",
    "VenueName": "Manorama Cineplex: Shajapur"
  },
  "MAHT": {
    "AvailableFormats": "2D",
    "City": "Dakshin Barasat",
    "Latitude": "22.2236",
    "Longitude": "88.4478",
    "RegionCode": "DAKS",
    "State": "West Bengal",
    "SubRegionCode": "DAKS",
    "VenueAddress": "P/S Joynagar, Dist: 24 Parganas (South), Baruipur-Kulpi Road, Dakshin Barasat, West Bengal 743372, India",
    "VenueCode": "MAHT",
    "VenueName": "Mahamaya Talkies: Dakshin Barasat"
  },
  "MASA": {
    "AvailableFormats": "2D",
    "City": "Ahmedabad",
    "Latitude": "23.0317",
    "Longitude": "72.5705",
    "RegionCode": "AHD",
    "State": "Gujarat",
    "SubRegionCode": "AHD",
    "VenueAddress": "Opposite City Gold Cinema, Ashram Road, Near Kotak Mahindra Bank, Ahmedabad, Gujarat 380009, India",
    "VenueCode": "MASA",
    "VenueName": "Mukta A2 Shiv Cinema: Ahmedabad"
  },
  "MAZZ": {
    "AvailableFormats": "",
    "City": "Puthenvelikkara",
    "Latitude": "10.1898",
    "Longitude": "76.2499",
    "RegionCode": "KOCH",
    "State": "Kerala",
    "SubRegionCode": "KOCH",
    "VenueAddress": "Manacherry-Panjipalla Road, Laksham Veed Colony, Puthenvelikkara, Kerala 683594, India",
    "VenueCode": "MAZZ",
    "VenueName": "FilmyFellas Manu Movies 2K 7.1 Puthenvelikara"
  },
  "MBTK": {
    "AvailableFormats": "2D",
    "City": "Kawardha",
    "Latitude": "22.0025",
    "Longitude": "81.234",
    "RegionCode": "KAWA",
    "State": "Chhattisgarh",
    "SubRegionCode": "KAWA",
    "VenueAddress": "Naveen Bazar Chowk, Kawardha Raipur Road, Opposite Gurudwara, Kawardha, Chhattisgarh 491995, India",
    "VenueCode": "MBTK",
    "VenueName": "Maa Bhuvaneshwari Talkies: Kawardha"
  },
  "MCCR": {
    "AvailableFormats": "3D|2D",
    "City": "Chandrapur",
    "Latitude": "19.9774",
    "Longitude": "79.2829",
    "RegionCode": "CHAN",
    "State": "Maharashtra",
    "SubRegionCode": "CHAN",
    "VenueAddress": "MDR Mall and Multiplex, Survey No.-59, Wadgaon Bapat Nagar, Chandrapur, Maharashtra 442401, India",
    "VenueCode": "MCCR",
    "VenueName": "Miraj Cinema: Chandrapur"
  },
  "MCGN": {
    "AvailableFormats": "3D|2D",
    "City": "Gurugram (Gurgaon)",
    "Latitude": "28.4274",
    "Longitude": "77.0361",
    "RegionCode": "NCR",
    "State": "NCR",
    "SubRegionCode": "GURG",
    "VenueAddress": "4th Floor, Celebration Mall, Sohna Road, Sector 48, Gurugram (Gurgaon), NCR 122001, India",
    "VenueCode": "MCGN",
    "VenueName": "Movietime Cinemas: Celebration Mall, Gurgaon"
  },
  "MCKO": {
    "AvailableFormats": "2D",
    "City": "Kolkata",
    "Latitude": "22.5973",
    "Longitude": "88.3719",
    "RegionCode": "KOLK",
    "State": "West Bengal",
    "SubRegionCode": "KOLK",
    "VenueAddress": "136/2, Bidhan Sarani, Shyam Bazar, Sovabazar, Hati Bagan, Kolkata, West Bengal 700004, India",
    "VenueCode": "MCKO",
    "VenueName": "Minar Cinema: Kolkata"
  },
  "MCNA": {
    "AvailableFormats": "2D|3D",
    "City": "Ahmedabad",
    "Latitude": "23.082",
    "Longitude": "72.6727",
    "RegionCode": "AHD",
    "State": "Gujarat",
    "SubRegionCode": "AHD",
    "VenueAddress": "5th floor, Vitthal Plaza, Naroda Dahegam Road, New Naroda, Opp GEB, Ahmedabad, Gujarat 382330, India",
    "VenueCode": "MCNA",
    "VenueName": "Miraj Cinemas: Vitthal Plaza, New Naroda"
  },
  "MCSA": {
    "AvailableFormats": "2D",
    "City": "Atpadi",
    "Latitude": "17.4277",
    "Longitude": "74.9392",
    "RegionCode": "ATPA",
    "State": "Maharashtra",
    "SubRegionCode": "ATPA",
    "VenueAddress": "Theater Chowk, Pandharpur Road, Opposite Parvati Lodge, Atpadi, Maharashtra 415301, India",
    "VenueCode": "MCSA",
    "VenueName": "Shri Siddanath Chitra Mandir: Atpadi"
  },
  "MCTG": {
    "AvailableFormats": "3D|2D",
    "City": "Mumbai",
    "Latitude": "19.1655",
    "Longitude": "72.8429",
    "RegionCode": "MUMBAI",
    "State": "Maharashtra",
    "SubRegionCode": "MWEST",
    "VenueAddress": "2nd Floor, Topiwala Center, Topiwala Lane, Near Goregaon Station (West), Mumbai, Maharashtra 400062, India",
    "VenueCode": "MCTG",
    "VenueName": "Topiwala Mukta A2 Cinemas, Goregaon"
  },
  "MDCA": {
    "AvailableFormats": "",
    "City": "Anjar",
    "Latitude": "23.101",
    "Longitude": "70.0353",
    "RegionCode": "ANJR",
    "State": "Gujarat",
    "SubRegionCode": "ANJR",
    "VenueAddress": "Chitrakut Circle, Vaishali Enclave, Anjar, Gujarat 370110, India",
    "VenueCode": "MDCA",
    "VenueName": "Modern Cineplex: Anjar"
  },
  "MEEN": {
    "AvailableFormats": "2D",
    "City": "Coimbatore",
    "Latitude": "11.0831",
    "Longitude": "77.186",
    "RegionCode": "COIM",
    "State": "Tamil Nadu",
    "SubRegionCode": "COIM",
    "VenueAddress": "Somanur Rd,Bharathiyar Nagar, Somanur,Tamil Nadu, Coimbatore, Tamil Nadu 641668, India",
    "VenueCode": "MEEN",
    "VenueName": "Meenambiga Cinemas A/C 2K DOLBY ATMOS: Somanur"
  },
  "MERM": {
    "AvailableFormats": "2D",
    "City": "Noida",
    "Latitude": "28.5608",
    "Longitude": "77.3565",
    "RegionCode": "NCR",
    "State": "NCR",
    "SubRegionCode": "NOIDA",
    "VenueAddress": "4th Floor, R Cube Monad Mall, Block A, Sector 43, Noida, NCR 201303, India",
    "VenueCode": "MERM",
    "VenueName": "MovieMax Edition (Luxe): Rcube Monad Mall, Noida"
  },
  "MHCL": {
    "AvailableFormats": "2D",
    "City": "Siddhpur",
    "Latitude": "23.9244",
    "Longitude": "72.363",
    "RegionCode": "SIDD",
    "State": "Gujarat",
    "SubRegionCode": "SIDD",
    "VenueAddress": "Ground and 1st Floor, Samarth Complex, Tavadia Char Rasta, Siddhpur, Gujarat 384151, India",
    "VenueCode": "MHCL",
    "VenueName": "Movie Hub (City Light Cinema): Siddhpur"
  },
  "MIMU": {
    "AvailableFormats": "3D|2D",
    "City": "Ghaziabad",
    "Latitude": "28.6791",
    "Longitude": "77.3589",
    "RegionCode": "NCR",
    "State": "NCR",
    "SubRegionCode": "GHAZ",
    "VenueAddress": "Laxmi Plaza Block 7 Sector 5, Rajendra Nagar, Opposite To Central Bank Of India, Ghaziabad, NCR 201006, India",
    "VenueCode": "MIMU",
    "VenueName": "Miraj Cinemas: M4U, Sahibabad"
  },
  "MJMC": {
    "AvailableFormats": "2D",
    "City": "Jiaganj",
    "Latitude": "24.2375",
    "Longitude": "88.2642",
    "RegionCode": "JAGJ",
    "State": "West Bengal",
    "SubRegionCode": "JAGJ",
    "VenueAddress": "Old Laxmi Talkies, Chudipatti Road, Jiaganj, West Bengal 742123, India",
    "VenueCode": "MJMC",
    "VenueName": "Mahabir Jain Municipalty Cultural: Jiaganj"
  },
  "MKSB": {
    "AvailableFormats": "3D|2D",
    "City": "Surat",
    "Latitude": "21.1504",
    "Longitude": "72.822",
    "RegionCode": "SURT",
    "State": "Gujarat",
    "SubRegionCode": "SURT",
    "VenueAddress": "KSB Olympia Mall, Block No 171 Kailash Chowkdi, Near D-mart,  Althan-Bamroli BRTS Road, Bamroli, Surat, Gujarat 394221, India",
    "VenueCode": "MKSB",
    "VenueName": "Miraj Cinemas: KSB Olympia, Surat"
  },
  "MLPG": {
    "AvailableFormats": "3D|2D",
    "City": "Porbandar",
    "Latitude": "21.6684",
    "Longitude": "69.6175",
    "RegionCode": "PORB",
    "State": "Gujarat",
    "SubRegionCode": "PORB",
    "VenueAddress": "Ground Floor Part, Survey No 407, First floor and Mezzanine Floor, Old survey no. 141/6 paiki 9/ paiki 1, Khapat, Porbandar, Gujarat 360579, India",
    "VenueCode": "MLPG",
    "VenueName": "Meridian Multiplex: Porbandar"
  },
  "MMDJ": {
    "AvailableFormats": "7D",
    "City": "Jaipur",
    "Latitude": "26.8552",
    "Longitude": "75.808",
    "RegionCode": "JAIP",
    "State": "Rajasthan",
    "SubRegionCode": "JAIP",
    "VenueAddress": "3rd Floor, GT Central, Plot No.4, Indra Place, Malviya Nagar, Jaipur, Rajasthan 302017, India",
    "VenueCode": "MMDJ",
    "VenueName": "7D Masti: Gaurav Tower Central"
  },
  "MMMD": {
    "AvailableFormats": "2D",
    "City": "Etawah",
    "Latitude": "26.7847",
    "Longitude": "79.0212",
    "RegionCode": "ETWH",
    "State": "Uttar Pradesh",
    "SubRegionCode": "ETWH",
    "VenueAddress": "Baba The Mall, Shastri Chauraha, Chogurjee Nagar, Near Hydel Colony, Etawah, Uttar Pradesh 206001, India",
    "VenueCode": "MMMD",
    "VenueName": "Mad Moviez: Etawah"
  },
  "MMTA": {
    "AvailableFormats": "2D",
    "City": "Kochi",
    "Latitude": "10.1072",
    "Longitude": "76.3603",
    "RegionCode": "PALY",
    "State": "Kerala",
    "SubRegionCode": "PALY",
    "VenueAddress": "Periyar Nagar, T2/10, Perumbavoor Aluva Road, Near ICICI Bank, Kochi, Kerala 683101, India",
    "VenueCode": "MMTA",
    "VenueName": "Matha Madhurya RGB Laser 3D Dolby Atmos: Aluva"
  },
  "MMZP": {
    "AvailableFormats": "2D",
    "City": "Ponda",
    "Latitude": "15.4001",
    "Longitude": "74.0185",
    "RegionCode": "GOA",
    "State": "Goa",
    "SubRegionCode": "PONA",
    "VenueAddress": "Upper Bazar Road, Prabhu Nagar, Ponda, Goa 403401, India",
    "VenueCode": "MMZP",
    "VenueName": "Magic Moviez: Ponda"
  },
  "MOON": {
    "AvailableFormats": "2D",
    "City": "Kathua",
    "Latitude": "32.3675",
    "Longitude": "75.5236",
    "RegionCode": "KATH",
    "State": "Jammu and Kashmir",
    "SubRegionCode": "KATH",
    "VenueAddress": "Main Bazaar, Urliwand, ITI Road, Kathua HO, Near Adidas showroom, Kathua, Jammu and Kashmir 184101, India",
    "VenueCode": "MOON",
    "VenueName": "Moonlight Cinema: Kathua"
  },
  "MRCH": {
    "AvailableFormats": "2D",
    "City": "Haridwar",
    "Latitude": "29.9188",
    "Longitude": "78.0578",
    "RegionCode": "HRDR",
    "State": "Uttarakhand",
    "SubRegionCode": "HRDR",
    "VenueAddress": "3rd Floor, Raghunath City Mall, Bahadrabad, Haridwar, Uttarakhand 249402, India",
    "VenueCode": "MRCH",
    "VenueName": "Movietime Cinemas: Raghunath City Mall, Haridwar"
  },
  "MRSE": {
    "AvailableFormats": "3D|2D",
    "City": "Kadapa",
    "Latitude": "14.4635",
    "Longitude": "78.8235",
    "RegionCode": "KDPA",
    "State": "Andhra Pradesh",
    "SubRegionCode": "KDPA",
    "VenueAddress": "RSR Square , D NO. 1/700, SY NO 72/1, Dwaraka Nagar, R S Road, Nagarajupalli Village, Kadapa, Andhra Pradesh 516001, India",
    "VenueCode": "MRSE",
    "VenueName": "Mukta A2 Cinemas: RSR Square Mall"
  },
  "MSKT": {
    "AvailableFormats": "2D",
    "City": "Deoria",
    "Latitude": "26.5923",
    "Longitude": "83.6668",
    "RegionCode": "DEEO",
    "State": "Uttar Pradesh",
    "SubRegionCode": "DEEO",
    "VenueAddress": "Paragna-Silhat Panankunda, Tappa Indupur, Near Gauri Bazar Tehsil, Deoria, Uttar Pradesh 274202, India",
    "VenueCode": "MSKT",
    "VenueName": "Krishna Talkies: Gauri Bazar, Deoria"
  },
  "MTCA": {
    "AvailableFormats": "2D|3D",
    "City": "Amritsar",
    "Latitude": "31.6444",
    "Longitude": "74.8771",
    "RegionCode": "AMRI",
    "State": "Punjab",
    "SubRegionCode": "AMRI",
    "VenueAddress": "4th Floor, Omaxe Novelty Mall, 7, Lawrence Road, Joshi Colony, Amritsar, Punjab 143001, India",
    "VenueCode": "MTCA",
    "VenueName": "Movietime Cinemas: Omaxe Novelty Mall, Amritsar"
  },
  "MTHY": {
    "AvailableFormats": "2D",
    "City": "Hyderabad",
    "Latitude": "17.452",
    "Longitude": "78.3628",
    "RegionCode": "HYD",
    "State": "Telangana",
    "SubRegionCode": "HYD",
    "VenueAddress": "3rd Floor, SLN Terminus, Gachibowli - Miyapur Road, Jayabheri Enclave, Hyderabad, Telangana 500032, India",
    "VenueCode": "MTHY",
    "VenueName": "Platinum Movietime Cinema: Gachibowli SLN Terminus"
  },
  "MTPK": {
    "AvailableFormats": "2D",
    "City": "Palakollu",
    "Latitude": "16.514",
    "Longitude": "81.731",
    "RegionCode": "PLKL",
    "State": "Andhra Pradesh",
    "SubRegionCode": "PLKL",
    "VenueAddress": "Penumadam Road, Near Market Yard, Palakollu, Andhra Pradesh 534260, India",
    "VenueCode": "MTPK",
    "VenueName": "Maruthi Theatre: Palakollu"
  },
  "MUCH": {
    "AvailableFormats": "2D",
    "City": "Champa",
    "Latitude": "22.0317",
    "Longitude": "82.6428",
    "RegionCode": "CHAM",
    "State": "Chhattisgarh",
    "SubRegionCode": "CHAM",
    "VenueAddress": "Near Post Office, Anicut Road, Champa Basti, Champa, Chhattisgarh 495671, India",
    "VenueCode": "MUCH",
    "VenueName": "Mukund`s Multiplex: Champa"
  },
  "MVRP": {
    "AvailableFormats": "2D",
    "City": "Rudrapur",
    "Latitude": "28.9757",
    "Longitude": "79.3866",
    "RegionCode": "RUDP",
    "State": "Uttarakhand",
    "SubRegionCode": "RUDP",
    "VenueAddress": "Ground Floor, Old Chawla Cinema, Gaba Chowk, Near Essar Petrol Pump, Rudrapur, Uttarakhand 263153, India",
    "VenueCode": "MVRP",
    "VenueName": "Movietime Cinemas: Rudrapur"
  },
  "MXGN": {
    "AvailableFormats": "2D",
    "City": "Noida",
    "Latitude": "28.5085",
    "Longitude": "77.3871",
    "RegionCode": "NCR",
    "State": "NCR",
    "SubRegionCode": "NOIDA",
    "VenueAddress": "MovieMax Gulshan One 29 Mall C-3, Sector 129, Noida, NCR 201301, India",
    "VenueCode": "MXGN",
    "VenueName": "MovieMax Laserplex: Gulshan One 29 Mall, Noida"
  },
  "MYDC": {
    "AvailableFormats": "2D",
    "City": "Doimukh",
    "Latitude": "27.1454",
    "Longitude": "93.7539",
    "RegionCode": "MDHK",
    "State": "Arunachal Pradesh",
    "SubRegionCode": "MDHK",
    "VenueAddress": "M.Y. Digital Cinema Hall, Opposite - Main Market, Doimukh, Arunachal Pradesh 791112, India",
    "VenueCode": "MYDC",
    "VenueName": "MY Digital Cinema: Doimukh"
  },
  "NACS": {
    "AvailableFormats": "2D",
    "City": "Korba",
    "Latitude": "22.3606",
    "Longitude": "82.7256",
    "RegionCode": "KRBA",
    "State": "Chhattisgarh",
    "SubRegionCode": "KRBA",
    "VenueAddress": "Ghantaghar Niharika Road, Subhash Chowk, Near New Madhu Sweets, M P Nagar, Korba, Chhattisgarh 495677, India",
    "VenueCode": "NACS",
    "VenueName": "Niharika Cinema 2K Laser & Dolby 7.1 Sound: Korba"
  },
  "NCCW": {
    "AvailableFormats": "2D",
    "City": "Wai",
    "Latitude": "17.9525",
    "Longitude": "73.8873",
    "RegionCode": "WAIP",
    "State": "Maharashtra",
    "SubRegionCode": "WAIP",
    "VenueAddress": "Chota Pul, Gangapuri Road, Danebazar, Ganpati Ali, Wai, Maharashtra 412803, India",
    "VenueCode": "NCCW",
    "VenueName": "New Chitra Cinema: Wai"
  },
  "NCMD": {
    "AvailableFormats": "2D",
    "City": "Doraha",
    "Latitude": "30.7867",
    "Longitude": "76.0467",
    "RegionCode": "DORH",
    "State": "Punjab",
    "SubRegionCode": "DORH",
    "VenueAddress": "West View Plaza, GT Road, Doraha, Near Mcdonalds, Doraha, Punjab 141421, India",
    "VenueCode": "NCMD",
    "VenueName": "Nova Cinemaz: Doraha"
  },
  "NEDD": {
    "AvailableFormats": "2D",
    "City": "Dehradun",
    "Latitude": "30.3265",
    "Longitude": "78.0434",
    "RegionCode": "DEH",
    "State": "Uttarakhand",
    "SubRegionCode": "DEH",
    "VenueAddress": "Rajpur Road, Gandhi Park, Chukkuwala, Near Police Station, Dehradun, Uttarakhand 248001, India",
    "VenueCode": "NEDD",
    "VenueName": "FUN Cinemas New Empire: Dehradun"
  },
  "NKCP": {
    "AvailableFormats": "2D",
    "City": "Jodhpur",
    "Latitude": "26.2772",
    "Longitude": "72.9952",
    "RegionCode": "JODH",
    "State": "Rajasthan",
    "SubRegionCode": "JODH",
    "VenueAddress": "6th Upper Chopasni Road, Akhaliya Vikas Yojana, Choraha, Jodhpur, Rajasthan 342001, India",
    "VenueCode": "NKCP",
    "VenueName": "New Kohinoor Cinema: Jodhpur"
  },
  "NNCZ": {
    "AvailableFormats": "2D",
    "City": "Moga",
    "Latitude": "30.8191",
    "Longitude": "75.2143",
    "RegionCode": "MOGA",
    "State": "Punjab",
    "SubRegionCode": "MOGA",
    "VenueAddress": "Kartar Nagar, G.T Road, Moga - Ludhiana Road, Near Bugipura Chowk, Moga, Punjab 142001, India",
    "VenueCode": "NNCZ",
    "VenueName": "Neelam Nova Cinemaz: Moga"
  },
  "NRMS": {
    "AvailableFormats": "2D",
    "City": "Solapur",
    "Latitude": "17.6353",
    "Longitude": "75.9043",
    "RegionCode": "SOLA",
    "State": "Maharashtra",
    "SubRegionCode": "SOLA",
    "VenueAddress": "Plot No 44, Vishal Nagar, Jule, Solapur, Maharashtra 413001, India",
    "VenueCode": "NRMS",
    "VenueName": "R Miniplex (A.C): Solapur"
  },
  "NTCD": {
    "AvailableFormats": "2D",
    "City": "Dehradun",
    "Latitude": "30.3266",
    "Longitude": "78.0357",
    "RegionCode": "DEH",
    "State": "Uttarakhand",
    "SubRegionCode": "DEH",
    "VenueAddress": "Chakarata Road, Old Connaught Place, Dehradun, Uttarakhand 248001, India",
    "VenueCode": "NTCD",
    "VenueName": "Natraj Cinema: Dehradun"
  },
  "NTTR": {
    "AvailableFormats": "2D",
    "City": "Kochi",
    "Latitude": "9.93296",
    "Longitude": "76.3541",
    "RegionCode": "PALY",
    "State": "Kerala",
    "SubRegionCode": "PALY",
    "VenueAddress": "New Central Talkies, Vaikom Road, Near Kinar junction, Kochi, Kerala 682301, India",
    "VenueCode": "NTTR",
    "VenueName": "New Central Talkies Dolby Atmos 2K and 3D: Thripun"
  },
  "NWAD": {
    "AvailableFormats": "2D",
    "City": "Vikasnagar",
    "Latitude": "30.4707",
    "Longitude": "77.7744",
    "RegionCode": "VKNG",
    "State": "Uttarakhand",
    "SubRegionCode": "VKNG",
    "VenueAddress": "Near Guru Kripa Complex, Punjabi Colony, Vikasnagar, Vikasnagar, Uttarakhand 248198, India",
    "VenueCode": "NWAD",
    "VenueName": "Abhinav Cinema: Vikasnagar"
  },
  "NYBW": {
    "AvailableFormats": "2D",
    "City": "Banswara",
    "Latitude": "23.5279",
    "Longitude": "74.4269",
    "RegionCode": "BANS",
    "State": "Rajasthan",
    "SubRegionCode": "BANS",
    "VenueAddress": "The Grand KB Mall, 3rd Floor, Plot 31B, Road No 5, RIICO Industrial Area, Thikariya, Banswara, Rajasthan 327001, India",
    "VenueCode": "NYBW",
    "VenueName": "NY Cinema Grand KB Mall: Banswara"
  },
  "NYSM": {
    "AvailableFormats": "2D",
    "City": "Meerut",
    "Latitude": "28.9815",
    "Longitude": "77.7044",
    "RegionCode": "MERT",
    "State": "Uttar Pradesh",
    "SubRegionCode": "MERT",
    "VenueAddress": "Satyam Palace, Municipal House No. 28, Bhudana Gate. Mohalla Swamipada, Meerut, Uttar Pradesh 250002, India",
    "VenueCode": "NYSM",
    "VenueName": "NY Satyam Cinema: Meerut"
  },
  "OMCM": {
    "AvailableFormats": "2D",
    "City": "Gandhidham",
    "Latitude": "23.076",
    "Longitude": "70.1075",
    "RegionCode": "KTCH",
    "State": "Gujarat",
    "SubRegionCode": "KTCH",
    "VenueAddress": "Om Cineplex, M/s Naren Enterprise, Plot No - A, WARD NO. 6  (COMMERCIAL) Ram Baugh Crossways,Gandhidham, Gujarat 370201, India",
    "VenueCode": "OMCM",
    "VenueName": "Om Cineplex: Gandhidham"
  },
  "OPCN": {
    "AvailableFormats": "2D",
    "City": "Nagaon",
    "Latitude": "26.309",
    "Longitude": "92.7038",
    "RegionCode": "NAAM",
    "State": "Assam",
    "SubRegionCode": "NAAM",
    "VenueAddress": "P G Enterprise, Siwale khuwa, Borghat Bypass,Borghat, Nagaon, Assam 782003, India",
    "VenueCode": "OPCN",
    "VenueName": "Opera Cinemas: Nagaon"
  },
  "PADY": {
    "AvailableFormats": "2D",
    "City": "Muniguda",
    "Latitude": "19.6264",
    "Longitude": "83.5003",
    "RegionCode": "MUNI",
    "State": "Odisha",
    "SubRegionCode": "MUNI",
    "VenueAddress": "SH 5, Jaga Colony, Bhairabagad Road, Muniguda, Odisha 765020, India",
    "VenueCode": "PADY",
    "VenueName": "Padmalaya Theatre: Muniguda"
  },
  "PAYT": {
    "AvailableFormats": "",
    "City": "Amravati",
    "Latitude": "20.931",
    "Longitude": "77.7555",
    "RegionCode": "AMRA",
    "State": "Maharashtra",
    "SubRegionCode": "AMRA",
    "VenueAddress": "Jaistambh Chowk, Morshi Road, Near ICICI Bank, Amravati, Maharashtra 444601, India",
    "VenueCode": "PAYT",
    "VenueName": "Priya Talkies: Amravati"
  },
  "PCAN": {
    "AvailableFormats": "2D|3D",
    "City": "Chennai",
    "Latitude": "13.0826",
    "Longitude": "80.1948",
    "RegionCode": "CHEN",
    "State": "Tamil Nadu",
    "SubRegionCode": "CHEN",
    "VenueAddress": "3rd Floor, VR Mall, Metro Zone, No 44, Pillaiyar Koil Street, Jawaharlal Nehru Road, Anna Nagar, Chennai, Tamil Nadu 600040, India",
    "VenueCode": "PCAN",
    "VenueName": "PVR: VR Chennai, Anna Nagar"
  },
  "PCCK": {
    "AvailableFormats": "3D|2D",
    "City": "Kota",
    "Latitude": "25.142",
    "Longitude": "75.8544",
    "RegionCode": "KOTA",
    "State": "Rajasthan",
    "SubRegionCode": "KOTA",
    "VenueAddress": "4th Floor, Cine Mall, Indraprastha Industrial Area, Jhalawar Road, Kota, Rajasthan 324005, India",
    "VenueCode": "PCCK",
    "VenueName": "PVR: Cinemall, Kota"
  },
  "PCKR": {
    "AvailableFormats": "2D",
    "City": "Kolhapur",
    "Latitude": "16.6988",
    "Longitude": "74.2279",
    "RegionCode": "KOLH",
    "State": "Maharashtra",
    "SubRegionCode": "KOLH",
    "VenueAddress": "Prabhat Cinema, 1526 C, Laxmipuri, Near Laxmipuri Police Station, Kolhapur, Maharashtra 416002, India",
    "VenueCode": "PCKR",
    "VenueName": "Prabhat Royal Cineplex: Kolhapur"
  },
  "PCPH": {
    "AvailableFormats": "2D",
    "City": "Phagwara",
    "Latitude": "31.2221",
    "Longitude": "75.7606",
    "RegionCode": "PHAG",
    "State": "Punjab",
    "SubRegionCode": "PHAG",
    "VenueAddress": "Jandiala - Phagwara Road, Satnam Pura, Phagwara, Punjab 144402, India",
    "VenueCode": "PCPH",
    "VenueName": "Prime Cinema: Phagwara"
  },
  "PCVB": {
    "AvailableFormats": "2D",
    "City": "Kochi",
    "Latitude": "10.0143",
    "Longitude": "76.3123",
    "RegionCode": "PALY",
    "State": "Kerala",
    "SubRegionCode": "PALY",
    "VenueAddress": "Survey no. 154/8.1, 8.3, 9A1, 9A2, 9B, NH Bypass, Edapally Junction, Ernakulam, Near Wildcraft, Kochi, Kerala 682024, India",
    "VenueCode": "PCVB",
    "VenueName": "PVR: Oberon Mall, Kochi"
  },
  "PDDK": {
    "AvailableFormats": "3D|2D",
    "City": "Kanpur",
    "Latitude": "26.4407",
    "Longitude": "80.3104",
    "RegionCode": "KANP",
    "State": "Uttar Pradesh",
    "SubRegionCode": "KANP",
    "VenueAddress": "Deep Cinema Road, 127/1/2 W-1, Saket Nagar, Kanpur, Uttar Pradesh 208014, India",
    "VenueCode": "PDDK",
    "VenueName": "PVR: Deep, Kanpur"
  },
  "PDWR": {
    "AvailableFormats": "2D|3D",
    "City": "Bengaluru",
    "Latitude": "12.9726",
    "Longitude": "77.6068",
    "RegionCode": "BANG",
    "State": "Karnataka",
    "SubRegionCode": "BANG",
    "VenueAddress": "3rd Floor Forum Rex Walk Brigade Road, Shanthala Nagar, Ashok Nagar, Bengaluru, Karnataka 560001, India",
    "VenueCode": "PDWR",
    "VenueName": "PVR: Directors Cut, Forum Rex Walk Bengaluru"
  },
  "PFCJ": {
    "AvailableFormats": "2D",
    "City": "Vadakara",
    "Latitude": "11.5978",
    "Longitude": "75.5867",
    "RegionCode": "VDKR",
    "State": "Kerala",
    "SubRegionCode": "VDKR",
    "VenueAddress": "Railway Station Road, Behind Old Bus Stand, Puthiyappu, Near Babus Hotel and Coolbar, Vadakara, Kerala 673101, India",
    "VenueCode": "PFCJ",
    "VenueName": "One2One Plus Film City 4K 3D Dolby Atmos: Vadakara"
  },
  "PGHM": {
    "AvailableFormats": "2D|3D",
    "City": "Pune",
    "Latitude": "18.5943",
    "Longitude": "73.7253",
    "RegionCode": "PUNE",
    "State": "Maharashtra",
    "SubRegionCode": "PUNE",
    "VenueAddress": "Grand Highstreet Mall, 2nd Floor, Taluka Mulshi , Village Hinjewadi, Pune, Maharashtra 411057, India",
    "VenueCode": "PGHM",
    "VenueName": "PVR: Grand Highstreet Mall, Hinjawadi"
  },
  "PHUP": {
    "AvailableFormats": "2D",
    "City": "Patiala",
    "Latitude": "30.3312",
    "Longitude": "76.3901",
    "RegionCode": "PATI",
    "State": "Punjab",
    "SubRegionCode": "PATI",
    "VenueAddress": "40-D, Fountain Chowk, Chotti Baradari Road, Baradari, Patiala, Punjab 147001, India",
    "VenueCode": "PHUP",
    "VenueName": "Phul Cinema: Patiala"
  },
  "PIPP": {
    "AvailableFormats": "2D|IMAX 2D|3D",
    "City": "Mumbai",
    "Latitude": "18.9952",
    "Longitude": "72.8241",
    "RegionCode": "MUMBAI",
    "State": "Maharashtra",
    "SubRegionCode": "MCENT",
    "VenueAddress": "High Street Phoenix, Extension of Entry Road to Phoenix, Senapati Bapat Marg, Lower Parel (W), Mumbai, Maharashtra 400013, India",
    "VenueCode": "PIPP",
    "VenueName": "PVR ICON: Phoenix Palladium, Lower Parel Mumbai"
  },
  "PJRM": {
    "AvailableFormats": "2D",
    "City": "Armoor",
    "Latitude": "18.7879",
    "Longitude": "78.292",
    "RegionCode": "ARMO",
    "State": "Telangana",
    "SubRegionCode": "ARMO",
    "VenueAddress": "4th Floor, Jeevan Reddy Mall and Multiplex, Vidya Nagar Colony, Beside - New Bus Stand, Armoor, Telangana 503224, India",
    "VenueCode": "PJRM",
    "VenueName": "PVR: Jeevan Reddy Mall, Armoor"
  },
  "PKTA": {
    "AvailableFormats": "2D",
    "City": "Alappuzha",
    "Latitude": "9.50382",
    "Longitude": "76.3282",
    "RegionCode": "CRTL",
    "State": "Kerala",
    "SubRegionCode": "CRTL",
    "VenueAddress": "NH 66, Kanjiramchira, Near Arattuvazhy Petrol Pump, Alappuzha, Kerala 688007, India",
    "VenueCode": "PKTA",
    "VenueName": "Pankaj Theatre: Alappuzha"
  },
  "PMAC": {
    "AvailableFormats": "2D",
    "City": "Kolkata",
    "Latitude": "22.6953",
    "Longitude": "88.3976",
    "RegionCode": "KOLK",
    "State": "West Bengal",
    "SubRegionCode": "KOLK",
    "VenueAddress": "Barasat Road, Sodepur, Anandalok, North 24 Paraganas, Kolkata, West Bengal 700110, India",
    "VenueCode": "PMAC",
    "VenueName": "Padma Cinema: Kolkata"
  },
  "PMDR": {
    "AvailableFormats": "2D",
    "City": "Dungarpur",
    "Latitude": "23.8267",
    "Longitude": "73.6995",
    "RegionCode": "DUNG",
    "State": "Rajasthan",
    "SubRegionCode": "DUNG",
    "VenueAddress": "Vasundra vihar, Ganesh temple road, Near sintex mill, Dungarpur, Rajasthan 314001, India",
    "VenueCode": "PMDR",
    "VenueName": "PM Cinemas: Dungarpur"
  },
  "PMPK": {
    "AvailableFormats": "2D",
    "City": "Mumbai",
    "Latitude": "19.1961",
    "Longitude": "72.8471",
    "RegionCode": "MUMBAI",
    "State": "Maharashtra",
    "SubRegionCode": "MWEST",
    "VenueAddress": "PVR Cinemas, 2nd flr, Old Milap Cinemas, S V Road, Kandivali (W), Near Reliance Digital Xpress, Mumbai, Maharashtra 400067, India",
    "VenueCode": "PMPK",
    "VenueName": "PVR: Milap, Kandivali (W)"
  },
  "PMTT": {
    "AvailableFormats": "2D",
    "City": "Budhana",
    "Latitude": "29.2771",
    "Longitude": "77.471",
    "RegionCode": "MUZ",
    "State": "Uttar Pradesh",
    "SubRegionCode": "MUZ",
    "VenueAddress": "Charan Singh Tihara, Budhana Barut Road, Budhana, Uttar Pradesh 251309, India",
    "VenueCode": "PMTT",
    "VenueName": "Tyagi Theme Park Multiplex: Budhana"
  },
  "POLM": {
    "AvailableFormats": "2D|3D",
    "City": "Mumbai",
    "Latitude": "19.0795",
    "Longitude": "72.9108",
    "RegionCode": "MUMBAI",
    "State": "Maharashtra",
    "SubRegionCode": "MCENT",
    "VenueAddress": "Plot No 194, Vallabh Baug Lane, Garodia Nagar, Near 90 Feet Road, Ghatkopar (East), Mumbai, Maharashtra 400077, India",
    "VenueCode": "POLM",
    "VenueName": "PVR: Odeon Mall, Ghatkopar"
  },
  "PPCC": {
    "AvailableFormats": "2D",
    "City": "Theni",
    "Latitude": "10.1135",
    "Longitude": "77.5464",
    "RegionCode": "THEN",
    "State": "Tamil Nadu",
    "SubRegionCode": "THEN",
    "VenueAddress": "Pavalam Theatre, Theni Highway, Periyakulam, Theni, Tamil Nadu 625601, India",
    "VenueCode": "PPCC",
    "VenueName": "Pavalam Theatre A/C 4K 7.1 Dolby 3D: Periyakulam"
  },
  "PPNT": {
    "AvailableFormats": "2D",
    "City": "Nawalgarh",
    "Latitude": "27.8504",
    "Longitude": "75.2675",
    "RegionCode": "NANA",
    "State": "Rajasthan",
    "SubRegionCode": "NANA",
    "VenueAddress": "Bank of Baroda, Near Police Station, Nawalgarh, Rajasthan 333042, India",
    "VenueCode": "PPNT",
    "VenueName": "Prem Prakash Talkies: Nawalgarh"
  },
  "PRCC": {
    "AvailableFormats": "2D",
    "City": "Alappuzha",
    "Latitude": "9.6853",
    "Longitude": "76.3357",
    "RegionCode": "CRTL",
    "State": "Kerala",
    "SubRegionCode": "CRTL",
    "VenueAddress": "Nedumbrakkad, Muttathu Church Road, Near M.A Bake Mart, Alappuzha, Kerala 688524, India",
    "VenueCode": "PRCC",
    "VenueName": "Paradise Cinema: Cherthala"
  },
  "PRFI": {
    "AvailableFormats": "2D",
    "City": "Indore",
    "Latitude": "22.7143",
    "Longitude": "75.8324",
    "RegionCode": "IND",
    "State": "Madhya Pradesh",
    "SubRegionCode": "IND",
    "VenueAddress": "265, 266, Indra Nagar, Opposite Gyan Acadmy, Indore, Madhya Pradesh 452002, India",
    "VenueCode": "PRFI",
    "VenueName": "Prafull RK Deluxe Cinema: Indore"
  },
  "PRTB": {
    "AvailableFormats": "2D",
    "City": "Lucknow",
    "Latitude": "26.8417",
    "Longitude": "80.9434",
    "RegionCode": "LUCK",
    "State": "Uttar Pradesh",
    "SubRegionCode": "LUCK",
    "VenueAddress": "38, Darbari Lal Sharma Marg, Major Banks Road, Near Secretariat Bapu Bhawan, Lucknow, Uttar Pradesh 226001, India",
    "VenueCode": "PRTB",
    "VenueName": "Pratibha Cinema: Lucknow"
  },
  "PSDD": {
    "AvailableFormats": "2D|3D",
    "City": "Delhi",
    "Latitude": "28.5724",
    "Longitude": "77.1734",
    "RegionCode": "NCR",
    "State": "NCR",
    "SubRegionCode": "DELHI",
    "VenueAddress": "PVR Sangam Theatre Complex, R K Puram Major Somnath Marg, Near Post Office, Delhi, NCR 110022, India",
    "VenueCode": "PSDD",
    "VenueName": "PVR: Sangam, Delhi"
  },
  "PSML": {
    "AvailableFormats": "2D|3D",
    "City": "Lucknow",
    "Latitude": "26.855",
    "Longitude": "80.9469",
    "RegionCode": "LUCK",
    "State": "Uttar Pradesh",
    "SubRegionCode": "LUCK",
    "VenueAddress": "4th floor, Saharaganj Mall, Shahnajaf Road, Hazratganj, Lucknow, Uttar Pradesh 226001, India",
    "VenueCode": "PSML",
    "VenueName": "PVR: Saharaganj Mall, Lucknow"
  },
  "PTAI": {
    "AvailableFormats": "2D",
    "City": "Ichalkaranji",
    "Latitude": "16.6898",
    "Longitude": "74.4536",
    "RegionCode": "ICHL",
    "State": "Maharashtra",
    "SubRegionCode": "ICHL",
    "VenueAddress": "Tambe Mala, Panchvati Talkies Road, Near Dr. Bankar Hospital, Ichalkaranji, Maharashtra 416115, India",
    "VenueCode": "PTAI",
    "VenueName": "Panchvati Cinema: Ichalkaranji"
  },
  "PTDT": {
    "AvailableFormats": "2D",
    "City": "Tirupati",
    "Latitude": "13.6302",
    "Longitude": "79.4239",
    "RegionCode": "TIRU",
    "State": "Andhra Pradesh",
    "SubRegionCode": "TIRU",
    "VenueAddress": "Jayasam Road, Tata Nagar, Tirupati, Andhra Pradesh 517501, India",
    "VenueCode": "PTDT",
    "VenueName": "Pratap Theater A/c 4K Dolby Atmos: Tirupati"
  },
  "PTPU": {
    "AvailableFormats": "2D",
    "City": "Madurai",
    "Latitude": "10.1074",
    "Longitude": "78.1116",
    "RegionCode": "MADU",
    "State": "Tamil Nadu",
    "SubRegionCode": "MADU",
    "VenueAddress": "8-29/1, Palamedu, Madurai, Tamil Nadu 625503, India",
    "VenueCode": "PTPU",
    "VenueName": "Pathrakaliamman Theatre: Palamedu"
  },