{
  "AACK": {
    "AvailableFormats": "",
    "City": "Kasdol",
    "FirstTracked": "2026-07-14",
    "Latitude": "21.621115",
    "Longitude": "82.424225",
    "RegionCode": "KASD",
    "State": "Chhattisgarh",
    "SubRegionCode": "KASD",
    "VenueAddress": "89/3,State Highway 14, Opposite Metro Studio, Kasdol, Chhattisgarh 493335, India",
    "VenueCode": "AACK",
    "VenueName": "Shri Balaji Cinema (Airconditioned): Kasdol"
  },
  "AAME": {
    "AvailableFormats": "2D",
    "City": "Deesa",
    "Latitude": "24.2421",
    "Longitude": "72.1826",
    "RegionCode": "DEES",
    "State": "Gujarat",
    "SubRegionCode": "DEES",
    "VenueAddress": "Multiplex Entertainment Complex, Patan Cross Road, Deesa, Gujarat 385535, India",
    "VenueCode": "AAME",
    "VenueName": "Shree Ram Multiplex: Deesa"
  },
  "AAVB": {
    "AvailableFormats": "2D",
    "City": "Vijayapura (Bijapur)",
    "Latitude": "16.8338",
    "Longitude": "75.7151",
    "RegionCode": "VJPR",
    "State": "Karnataka",
    "SubRegionCode": "VJPR",
    "VenueAddress": "Ram Mandir Road, Behind Sideshwara Gudi, Sholapur, Vijayapura (Bijapur), Karnataka 586101, India",
    "VenueCode": "AAVB",
    "VenueName": "Amir Talkies: Vijayapura (Bijapur)"
  },
  "ABMP": {
    "AvailableFormats": "2D",
    "City": "Ahmedabad",
    "Latitude": "23.025",
    "Longitude": "72.5295",
    "RegionCode": "AHD",
    "State": "Gujarat",
    "SubRegionCode": "AHD",
    "VenueAddress": "Sheetal Varsha 5, 512 A, Suryapooja Block B, Satellite Road, Ahmedabad, Gujarat 380013, India",
    "VenueCode": "ABMP",
    "VenueName": "AB Miniplex: Shivranjini Cross Road, Satellite"
  },
  "ACAT": {
    "AvailableFormats": "2D",
    "City": "Ashta",
    "Latitude": "23.021",
    "Longitude": "76.726",
    "RegionCode": "ASTA",
    "State": "Madhya Pradesh",
    "SubRegionCode": "ASTA",
    "VenueAddress": "Sai Colony, Ashta, Ashta, Madhya Pradesh 466116, India",
    "VenueCode": "ACAT",
    "VenueName": "Anshay Chitralay: Ashta"
  },
  "ACHI": {
    "AvailableFormats": "2D",
    "City": "Hyderabad",
    "Latitude": "17.4923",
    "Longitude": "78.452",
    "RegionCode": "HYD",
    "State": "Telangana",
    "SubRegionCode": "HYD",
    "VenueAddress": "Jeedimetla Main Road, Ganesh Nagar, Jeedimetla, Dee Nagar, Balanagar, Hyderabad, Telangana 500037, India",
    "VenueCode": "ACHI",
    "VenueName": "Asian Sha & Shahensha: Chintal"
  },
  "ACKB": {
    "AvailableFormats": "2D",
    "City": "Bengaluru",
    "Latitude": "12.977726",
    "Longitude": "77.575961",
    "RegionCode": "BANG",
    "State": "Karnataka",
    "SubRegionCode": "BANG",
    "VenueAddress": "No-300/1, S.C.Road, Gandhinagar, Next To Movieland Theatre, Bengaluru, Karnataka 560009, India",
    "VenueCode": "ACKB",
    "VenueName": "AMB Cinemas Kapali: Bengaluru"
  },
  "ACMR": {
    "AvailableFormats": "2D",
    "City": "Mattannur",
    "Latitude": "11.9289",
    "Longitude": "75.5724",
    "RegionCode": "MATT",
    "State": "Kerala",
    "SubRegionCode": "MATT",
    "VenueAddress": "Indira Nagar, Mattannur,Kerala, Near Links Mall, Mattannur, Kerala 670702, India",
    "VenueCode": "ACMR",
    "VenueName": "Aura Cinemas: Mattannur"
  },
  "ACPV": {
    "AvailableFormats": "",
    "City": "Piravom",
    "Latitude": "9.8722",
    "Longitude": "76.4866",
    "RegionCode": "KOCH",
    "State": "Kerala",
    "SubRegionCode": "KOCH",
    "VenueAddress": "Kaduthuruthy Road, Kochi, Piravom, Kerala 686664, India",
    "VenueCode": "ACPV",
    "VenueName": "Aashirvad Cineplexx: Piravom"
  },
  "ACVM": {
    "AvailableFormats": "2D",
    "City": "Chennai",
    "Latitude": "13.1047",
    "Longitude": "80.209",
    "RegionCode": "PONE",
    "State": "Tamil Nadu",
    "SubRegionCode": "PONE",
    "VenueAddress": "No. 1/1, Mettu Street Villivakkam, Behind, Villivakkam Bus Depot, Chennai, Tamil Nadu 600049, India",
    "VenueCode": "ACVM",
    "VenueName": "AGS Cinemas: Villivakkam"
  },
  "ADCR": {
    "AvailableFormats": "",
    "City": "Bengaluru",
    "FirstTracked": "2026-07-23",
    "Latitude": "13.014494",
    "Longitude": "77.51602",
    "RegionCode": "BANG",
    "State": "Karnataka",
    "SubRegionCode": "BANG",
    "VenueAddress": "Bldg No 135/3, Rajeshwari Theatre Road, Laggere, Near Friends Circle, Bengaluru, Karnataka 560058, India",
    "VenueCode": "ADCR",
    "VenueName": "Akash Cinemas: Laggere"
  },
  "AECE": {
    "AvailableFormats": "",
    "City": "Alappuzha",
    "FirstTracked": "2026-07-14",
    "Latitude": "9.498583",
    "Longitude": "76.3431",
    "RegionCode": "ALPZ",
    "State": "Kerala",
    "SubRegionCode": "ALPZ",
    "VenueAddress": "AVJ Junction, Erezha, Mullakkal, Alappuzha, Kerala 688011, India",
    "VenueCode": "AECE",
    "VenueName": "AEC Cinemas: Alappuzha"
  },
  "AHMH": {
    "AvailableFormats": "",
    "City": "Hyderabad",
    "FirstTracked": "2026-07-14",
    "Latitude": "17.402218",
    "Longitude": "78.57199",
    "RegionCode": "AUSH",
    "State": "Telangana",
    "SubRegionCode": "AUSH",
    "VenueAddress": "Survey No. 99, Asian Cine Square Mall, Shanthi Nagar, Warangal Road, Besides Indian Oil Petrol Pump, Uppal, Hyderabad, Telangana 500039, India",
    "VenueCode": "AHMH",
    "VenueName": "Asian CineSquare Multiplex: Uppal"
  },
  "AKFC": {
    "AvailableFormats": "2D",
    "City": "Alakode",
    "Latitude": "12.1785",
    "Longitude": "75.4649",
    "RegionCode": "ALAK",
    "State": "Kerala",
    "SubRegionCode": "ALAK",
    "VenueAddress": "Kottayadu Kavala, Malabar Hill Highway, Near St.Marys Forane Church, Alakode, Kerala 670571, India",
    "VenueCode": "AKFC",
    "VenueName": "Alakode Film City 4K Dolby Atmos"
  },
  "AKYJ": {
    "AvailableFormats": "",
    "City": "Hyderabad",
    "Latitude": "17.4796",
    "Longitude": "78.4175",
    "RegionCode": "HYD",
    "State": "Telangana",
    "SubRegionCode": "HYD",
    "VenueAddress": "INOX Leisure Ltd,3rd Floor, Ashoka One Mall, Kukatpally Y-Junction, Hyderabad, Telangana 500072, India",
    "VenueCode": "AKYJ",
    "VenueName": "INOX: Ashoka One, 4K LASER Dolby ATMOS: Kukatpally"
  },
  "ALSN": {
    "AvailableFormats": "2D|3D",
    "City": "Kantabanji",
    "Latitude": "20.5061",
    "Longitude": "82.9221",
    "RegionCode": "KTBJ",
    "State": "Odisha",
    "SubRegionCode": "KTBJ",
    "VenueAddress": "Lathkend, PO - Salandi, PS - Belpada, Kantabanji, Odisha 767026, India",
    "VenueCode": "ALSN",
    "VenueName": "Alishan Central: Kantabanji"
  },
  "AMCD": {
    "AvailableFormats": "2D",
    "City": "Delhi",
    "Latitude": "28.6774",
    "Longitude": "77.2012",
    "RegionCode": "NCR",
    "State": "NCR",
    "SubRegionCode": "DELHI",
    "VenueAddress": "GT Road, Ghanta Ghar, Subzi Mandi, Block 40, Shakti Nagar, Near Clock Tower, Delhi, NCR 110007, India",
    "VenueCode": "AMCD",
    "VenueName": "Amba Cinema: Delhi"
  },
  "AMKN": {
    "AvailableFormats": "3D|2D",
    "City": "Nagpur",
    "Latitude": "21.2663",
    "Longitude": "79.0873",
    "RegionCode": "NAGP",
    "State": "Maharashtra",
    "SubRegionCode": "NAGP",
    "VenueAddress": "A M Cinema, Near Naivedhyam Cele, New Nanda, Koradi, Nagpur, Maharashtra 441111, India",
    "VenueCode": "AMKN",
    "VenueName": "AM Cinema: Koradi, Nagpur"
  },
  "AMSN": {
    "AvailableFormats": "2D",
    "City": "Karimnagar",
    "Latitude": "18.442650",
    "Longitude": "79.138599",
    "RegionCode": "KARIM",
    "State": "Telangana",
    "SubRegionCode": "KARIM",
    "VenueAddress": "SN Pride Mall, 2nd Floor, Gandhi Road, Kisan Nagar, Karimnagar, Telangana 505451, India",
    "VenueCode": "AMSN",
    "VenueName": "1 Cinemas by Asian Mukta A2 Cinemas, SN Pride Mall"
  },
  "ANCB": {
    "AvailableFormats": "2D",
    "City": "Barmer",
    "Latitude": "25.7618",
    "Longitude": "71.4177",
    "RegionCode": "BARM",
    "State": "Rajasthan",
    "SubRegionCode": "BARM",
    "VenueAddress": "NH25, Baldev Nagar, Uttarlai Road, Barmer, Rajasthan 344001, India",
    "VenueCode": "ANCB",
    "VenueName": "Aanchal Cinema: Barmer"
  },
  "ANLS": {
    "AvailableFormats": "2D|3D",
    "City": "Shillong",
    "Latitude": "25.5738",
    "Longitude": "91.877",
    "RegionCode": "SHLG",
    "State": "Meghalaya",
    "SubRegionCode": "SHLG",
    "VenueAddress": "Anjalee Complex, 25 Cantonment, Shillong, Meghalaya 793001, India",
    "VenueCode": "ANLS",
    "VenueName": "Anjalee Cinema: Shillong"
  },
  "ANTM": {
    "AvailableFormats": "2D",
    "City": "Mangalagiri",
    "Latitude": "16.4263",
    "Longitude": "80.5671",
    "RegionCode": "MGLR",
    "State": "Andhra Pradesh",
    "SubRegionCode": "MGLR",
    "VenueAddress": "Trunk Road, Near - St.Francis English Medium School., Mangalagiri, Andhra Pradesh 522503, India",
    "VenueCode": "ANTM",
    "VenueName": "Annapurna Theater A/C Dts 2K: Mangalagiri"
  },
  "APCL": {
    "AvailableFormats": "2D",
    "City": "Ahmedabad",
    "Latitude": "23.0388",
    "Longitude": "72.6286",
    "RegionCode": "AHD",
    "State": "Gujarat",
    "SubRegionCode": "AHD",
    "VenueAddress": "3rd Floor, White House, India Colony Char Rasta, Bapunagar, Opposite Shyam Shikhar Complex, Ahmedabad, Gujarat 380024, India",
    "VenueCode": "APCL",
    "VenueName": "Apple Cinema: Bapunagar"
  },
  "APPX": {
    "AvailableFormats": "2D",
    "City": "Ahmedabad",
    "Latitude": "23.0025",
    "Longitude": "72.5901",
    "RegionCode": "AHD",
    "State": "Gujarat",
    "SubRegionCode": "AHD",
    "VenueAddress": "4, Jyoti Colony, Kankaria, Maninagar, Gita Mandir Road, Near Bhakta Vallabh Dhola Vidya Vihar, Ahmedabad, Gujarat 380002, India",
    "VenueCode": "APPX",
    "VenueName": "Apple Multiplex: Maninagar, Ahmedabad"
  },
  "APTS": {
    "AvailableFormats": "2D",
    "City": "Samastipur",
    "Latitude": "25.8609",
    "Longitude": "85.7938",
    "RegionCode": "SMST",
    "State": "Bihar",
    "SubRegionCode": "SMST",
    "VenueAddress": "Bahadurpur, Samastipur, Samastipur, Bihar 848101, India",
    "VenueCode": "APTS",
    "VenueName": "Anuroop Talkies: Samastipur"
  },
  "ARDC": {
    "AvailableFormats": "2D|3D",
    "City": "Chhatrapati Sambhajinagar (Aurangabad)",
    "Latitude": "19.8847",
    "Longitude": "75.3231",
    "RegionCode": "AURA",
    "State": "Maharashtra",
    "SubRegionCode": "AURA",
    "VenueAddress": "1, Naralibag Road, Opposite Sai Abhyasika, Chhatrapati Sambhajinagar (Aurangabad), Maharashtra 431001, India",
    "VenueCode": "ARDC",
    "VenueName": "Anjali Ratnadeep Cinema:Chhatrapati SambhajiNagar"
  },
  "ARTH": {
    "AvailableFormats": "2D",
    "City": "Hyderabad",
    "Latitude": "17.4249",
    "Longitude": "78.5335",
    "RegionCode": "HYD",
    "State": "Telangana",
    "SubRegionCode": "HYD",
    "VenueAddress": "Professors Quarters, Inner Ring Road, Opposite Big Bazaar, Hyderabad, Telangana 500017, India",
    "VenueCode": "ARTH",
    "VenueName": "Aradhana Theatre: Hyderabad"
  },
  "ASCT": {
    "AvailableFormats": "2D",
    "City": "Thodupuzha",
    "Latitude": "9.89105",
    "Longitude": "76.7075",
    "RegionCode": "THOD",
    "State": "Kerala",
    "SubRegionCode": "THOD",
    "VenueAddress": "Near Pvt. Bus Stand, Pala Road, Thodupuzha, Kerala 685584, India",
    "VenueCode": "ASCT",
    "VenueName": "Aashirvad Cineplexx: Thodupuzha"
  },
  "ASJA": {
    "AvailableFormats": "",
    "City": "Velangi",
    "FirstTracked": "2026-07-22",
    "Latitude": "16.8742",
    "Longitude": "82.1132",
    "RegionCode": "KAKI",
    "State": "Andhra Pradesh",
    "SubRegionCode": "KAKI",
    "VenueAddress": "Velangi-Karuda-Kandregula Road, Near Panchamukeswara Swami Temple, Velangi, Andhra Pradesh 533260, India",
    "VenueCode": "ASJA",
    "VenueName": "Srinivasa Theatre: Velangi"
  },
  "ASMW": {
    "AvailableFormats": "2D",
    "City": "Warangal",
    "Latitude": "18.0046",
    "Longitude": "79.5629",
    "RegionCode": "WAR",
    "State": "Telangana",
    "SubRegionCode": "WAR",
    "VenueAddress": "Asian Sridevi Mall, Bus Stand Road, Sai Nagar, Hanmakonda, Warangal, Telangana 506001, India",
    "VenueCode": "ASMW",
    "VenueName": "Asian Sridevi Multiplex: Hanumakonda"
  },
  "ASSL": {
    "AvailableFormats": "2D",
    "City": "Vikarabad",
    "Latitude": "17.3394",
    "Longitude": "77.909",
    "RegionCode": "VKBD",
    "State": "Telangana",
    "SubRegionCode": "VKBD",
    "VenueAddress": "Vikarabad Railway Station Road, Near Post Office Vikarabad, Vikarabad, Telangana 501102, India",
    "VenueCode": "ASSL",
    "VenueName": "Asian Sailaja: Vikarabad"
  },
  "ASWN": {
    "AvailableFormats": "2D",
    "City": "Piduguralla",
    "Latitude": "16.4806",
    "Longitude": "79.8909",
    "RegionCode": "PIDU",
    "State": "Andhra Pradesh",
    "SubRegionCode": "PIDU",
    "VenueAddress": "Tangeda Road, Near Bharat Petrol Bunk, Piduguralla, Andhra Pradesh 522413, India",
    "VenueCode": "ASWN",
    "VenueName": "Aswini Deluxe A/C Dolby Atmos: Piduguralla"
  },
  "ATEV": {
    "AvailableFormats": "",
    "City": "Salem",
    "FirstTracked": "2026-07-14",
    "Latitude": "11.701",
    "Longitude": "78.2565",
    "RegionCode": "SALM",
    "State": "Tamil Nadu",
    "SubRegionCode": "SALM",
    "VenueAddress": "Vaniyambadi Road, Valasaiyur, Salem, Tamil Nadu 636122, India",
    "VenueCode": "ATEV",
    "VenueName": "Anandha Theatre A/C DTS: Valasaiyur"
  },
  "ATNS": {
    "AvailableFormats": "",
    "City": "Narsapur",
    "FirstTracked": "2026-07-14",
    "Latitude": "16.441156",
    "Longitude": "81.70324",
    "RegionCode": "NARP",
    "State": "Andhra Pradesh",
    "SubRegionCode": "NARP",
    "VenueAddress": "NH216, Near Narsapur Bus Depot, Narsapur, Andhra Pradesh 534275, India",
    "VenueCode": "ATNS",
    "VenueName": "Annapurna Theatre: Narsapur"
  },
  "ATVJ": {
    "AvailableFormats": "2D",
    "City": "Vijayawada",
    "Latitude": "16.516",
    "Longitude": "80.6268",
    "RegionCode": "KADU",
    "State": "Andhra Pradesh",
    "SubRegionCode": "KADU",
    "VenueAddress": "Samba Murthy Road, Gandhi Nagar, Near Ramakrishna Mission Ashrama, Vijayawada, Andhra Pradesh 520003, India",
    "VenueCode": "ATVJ",
    "VenueName": "Alankar A/C 4K Dolby Surround: Vijayawada"
  },
  "AVCS": {
    "AvailableFormats": "2D",
    "City": "Pollachi",
    "Latitude": "10.5644",
    "Longitude": "76.9216",
    "RegionCode": "POLL",
    "State": "Tamil Nadu",
    "SubRegionCode": "POLL",
    "VenueAddress": "Sethumadai Road, Vettaikaranpudur, Pollachi, Tamil Nadu 642129, India",
    "VenueCode": "AVCS",
    "VenueName": "Abirami Vishal Cinemas 4K Laser: Vettaikaranpudur"
  },
  "AXAM": {
    "AvailableFormats": "2D",
    "City": "Amroha",
    "Latitude": "28.9054",
    "Longitude": "78.4811",
    "RegionCode": "AMRO",
    "State": "Uttar Pradesh",
    "SubRegionCode": "AMRO",
    "VenueAddress": "Kailsa Road, Chevara, Amroha, Uttar Pradesh 244221, India",
    "VenueCode": "AXAM",
    "VenueName": "Anand Cineplex: Amroha"
  },
  "AZDH": {
    "AvailableFormats": "",
    "City": "Bhandara",
    "FirstTracked": "2026-07-14",
    "Latitude": "21.17095",
    "Longitude": "79.65703",
    "RegionCode": "BHAA",
    "State": "Maharashtra",
    "SubRegionCode": "BHAA",
    "VenueAddress": "Gandhi Chawk, Behind - Urban Bank, Bhandara, Maharashtra 441904, India",
    "VenueCode": "AZDH",
    "VenueName": "AZ Miniplex: Bhandara"
  },
  "BASU": {
    "AvailableFormats": "2D",
    "City": "Kolkata",
    "Latitude": "22.5226",
    "Longitude": "88.346",
    "RegionCode": "BARR",
    "State": "West Bengal",
    "SubRegionCode": "BARR",
    "VenueAddress": "102, S. P. Mukherjee Road, Near Jatin Das Metro Station, Kolkata, West Bengal 700026, India",
    "VenueCode": "BASU",
    "VenueName": "Basusree Cinema: Kolkata"
  },
  "BBYK": {
    "AvailableFormats": "2D",
    "City": "Kuthuparamba",
    "Latitude": "11.8299",
    "Longitude": "75.5639",
    "RegionCode": "KUTH",
    "State": "Kerala",
    "SubRegionCode": "KUTH",
    "VenueAddress": "Chovva Bypass Road, Kuthuparamba, Kuthuparamba, Kerala 670643, India",
    "VenueCode": "BBYK",
    "VenueName": "Baby Cinemas: Kuthuparamba"
  },
  "BDMA": {
    "AvailableFormats": "2D",
    "City": "Vijayawada",
    "Latitude": "16.5891",
    "Longitude": "80.5189",
    "RegionCode": "KADU",
    "State": "Andhra Pradesh",
    "SubRegionCode": "KADU",
    "VenueAddress": "NH 65, Ibrahimpatnam, Vijayawada, Andhra Pradesh 521456, India",
    "VenueCode": "BDMA",
    "VenueName": "Balaji Iconia A/c 2K Dolby Surround: Ibrahimpatnam"
  },
  "BHCU": {
    "AvailableFormats": "2D",
    "City": "Udupi",
    "Latitude": "13.3426",
    "Longitude": "74.7488",
    "RegionCode": "MANI",
    "State": "Karnataka",
    "SubRegionCode": "MANI",
    "VenueAddress": "3Rd floor, Thenkpete, Maruthi Veethika, Udupi, Karnataka 576101, India",
    "VenueCode": "BHCU",
    "VenueName": "Bharath Cinemas: City Centre Mall, Udupi"
  },
  "BIKB": {
    "AvailableFormats": "2D|3D",
    "City": "Belagavi (Belgaum)",
    "Latitude": "15.8588",
    "Longitude": "74.5083",
    "RegionCode": "BELG",
    "State": "Karnataka",
    "SubRegionCode": "BELG",
    "VenueAddress": "Nucleus Mall, Old Kapeel Theatre, Ramling Khind Galli, Belagavi (Belgaum), Karnataka 590002, India",
    "VenueCode": "BIKB",
    "VenueName": "Kapeel Cinema Nucleus Mall"
  },
  "BKDV": {
    "AvailableFormats": "2D",
    "City": "Bengaluru",
    "Latitude": "12.8957",
    "Longitude": "77.621",
    "RegionCode": "HOKT",
    "State": "Karnataka",
    "SubRegionCode": "HOKT",
    "VenueAddress": "Beside D Mart and Jockey Factory, Kodichikkanahalli Main Road, SR Naidu Layout, Hongasandra, Bengaluru, Karnataka 560068, India",
    "VenueCode": "BKDV",
    "VenueName": "Brundha RGB Laser 4K Projection: Hongasandra DMart"
  },
  "BLMT": {
    "AvailableFormats": "2D",
    "City": "Pulpally",
    "Latitude": "11.7962",
    "Longitude": "76.1647",
    "RegionCode": "PULP",
    "State": "Kerala",
    "SubRegionCode": "PULP",
    "VenueAddress": "Pulpally Mullenkolly, kerala, Near Town Church (Sacred Heart Church), Pulpally, Kerala 673579, India",
    "VenueCode": "BLMT",
    "VenueName": "Blue Moon Theatre: Pulpally"
  },
  "BMXC": {
    "AvailableFormats": "2D",
    "City": "Navi Mumbai",
    "Latitude": "19.0308",
    "Longitude": "73.0666",
    "RegionCode": "KHAG",
    "State": "Maharashtra",
    "SubRegionCode": "KHAG",
    "VenueAddress": "Plot No 21, Pravesh Marg, Sector 2, Navi Mumbai, Maharashtra 410210, India",
    "VenueCode": "BMXC",
    "VenueName": "BMX Cinemas(BalajiMovieplex): Littleworld Kharghar"
  },
  "BRKT": {
    "AvailableFormats": "2D",
    "City": "Thrissur",
    "Latitude": "10.4775",
    "Longitude": "76.1166",
    "RegionCode": "MANR",
    "State": "Kerala",
    "SubRegionCode": "MANR",
    "VenueAddress": "Thrissur, Vatanappally Road Kanjany, Near Simla Mall, Thrissur, Kerala 680612, India",
    "VenueCode": "BRKT",
    "VenueName": "Brahmakulam Theatre, 4K Dolby Atmos: Kanjany"
  },
  "BSRM": {
    "AvailableFormats": "2D",
    "City": "Palanpur",
    "Latitude": "24.1896",
    "Longitude": "72.4287",
    "RegionCode": "PALN",
    "State": "Gujarat",
    "SubRegionCode": "PALN",
    "VenueAddress": "Abu Highway, Behind Diti Honda Palanpur, Palanpur, Gujarat 385001, India",
    "VenueCode": "BSRM",
    "VenueName": "Byte Suramandir Cinema: Palanpur"
  },
  "BTFD": {
    "AvailableFormats": "3D|2D",
    "City": "Delhi",
    "Latitude": "28.5615",
    "Longitude": "77.2686",
    "RegionCode": "NCR",
    "State": "NCR",
    "SubRegionCode": "DELHI",
    "VenueAddress": "Grand Mall Community Centre,1, Maulana Mohammad Ali Jauhar Marg, Friends Colony West, New Friends Colony, Delhi, NCR 110025, India",
    "VenueCode": "BTFD",
    "VenueName": "Batra Reels Cinemas: New Friends Colony"
  },
  "BXDR": {
    "AvailableFormats": "2D",
    "City": "Dharampur",
    "Latitude": "20.5308",
    "Longitude": "73.187",
    "RegionCode": "BILI",
    "State": "Gujarat",
    "SubRegionCode": "BILI",
    "VenueAddress": "2nd Floor, Tanishq complex, Dharampur Barumal Road, Bilpudi, Dharampur, Gujarat 396050, India",
    "VenueCode": "BXDR",
    "VenueName": "Balaji Cinemax: Dharampur"
  },
  "CBMC": {
    "AvailableFormats": "3D|2D",
    "City": "Chennai",
    "Latitude": "12.9496",
    "Longitude": "80.2403",
    "RegionCode": "CHEN",
    "State": "Tamil Nadu",
    "SubRegionCode": "CHEN",
    "VenueAddress": "BSR Mall, Thoraipakkam, Seevaram, Oggiyamduraipakkam, Chennai, Tamil Nadu 600097, India",
    "VenueCode": "CBMC",
    "VenueName": "Cinepolis: BSR Mall, OMR, Thoraipakkam"
  },
  "CCAZ": {
    "AvailableFormats": "",
    "City": "Kakinada",
    "FirstTracked": "2026-07-14",
    "Latitude": "16.9573",
    "Longitude": "82.2365",
    "RegionCode": "KAKI",
    "State": "Andhra Pradesh",
    "SubRegionCode": "KAKI",
    "VenueAddress": "Cinema Hall Road, Surya Rao Peta, Opposite Municipal office, Kakinada, Andhra Pradesh 533001, India",
    "VenueCode": "CCAZ",
    "VenueName": "Chanakya Complex Screen 1: Kakinada"
  },
  "CCGW": {
    "AvailableFormats": "2D",
    "City": "Guwahati",
    "Latitude": "26.1573",
    "Longitude": "91.7781",
    "RegionCode": "GUW",
    "State": "Assam",
    "SubRegionCode": "GUW",
    "VenueAddress": "Christian Basti, G.S. Road, Guwahati, Assam 781005, India",
    "VenueCode": "CCGW",
    "VenueName": "PVR: City Centre, Guwahati"
  },
  "CCKW": {
    "AvailableFormats": "2D",
    "City": "Singrauli",
    "Latitude": "24.0772",
    "Longitude": "82.5888",
    "RegionCode": "SNGR",
    "State": "Madhya Pradesh",
    "SubRegionCode": "SNGR",
    "VenueAddress": "Carnival Jalsa Talkies, Village Kachni, Ward No. 28, Waidhan, Near Chauhan Sheetgrih, Singrauli, Madhya Pradesh 486886, India",
    "VenueCode": "CCKW",
    "VenueName": "My Cinemas: Singrauli"
  },
  "CCMX": {
    "AvailableFormats": "2D",
    "City": "Madhubani",
    "Latitude": "26.3545",
    "Longitude": "86.0693",
    "RegionCode": "MADZ",
    "State": "Bihar",
    "SubRegionCode": "MADZ",
    "VenueAddress": "Mahaseth Complex, Opposite Suri High School, Bara Bazar, Madhubani, Bihar 847211, India",
    "VenueCode": "CCMX",
    "VenueName": "Connplex Cinemas: Madhubani"
  },
  "CCPZ": {
    "AvailableFormats": "2D|3D",
    "City": "Gurugram (Gurgaon)",
    "Latitude": "28.479",
    "Longitude": "77.0801",
    "RegionCode": "NCR",
    "State": "NCR",
    "SubRegionCode": "GURG",
    "VenueAddress": "DLF City Centre Mall. 3rd Floor, DLF Phase 2, Mehrauli Gurgaon Road, Opposite Beverly Park, Gurugram (Gurgaon), NCR 122002, India",
    "VenueCode": "CCPZ",
    "VenueName": "PVR: City Centre, Gurgaon"
  },
  "CCVZ": {
    "AvailableFormats": "2D",
    "City": "Naharlagun",
    "Latitude": "27.0996",
    "Longitude": "93.6858",
    "RegionCode": "NAHA",
    "State": "Arunachal Pradesh",
    "SubRegionCode": "NAHA",
    "VenueAddress": "Carnival Chakang Cinemas, Barapani, Naharlagun, Arunachal Pradesh 791110, India",
    "VenueCode": "CCVZ",
    "VenueName": "C3: Naharlagun"
  },
  "CDTK": {
    "AvailableFormats": "2D",
    "City": "Komarapalayam",
    "Latitude": "11.4349",
    "Longitude": "77.6952",
    "RegionCode": "KOMA",
    "State": "Tamil Nadu",
    "SubRegionCode": "KOMA",
    "VenueAddress": "State Highway 39, KON Theatre Road, Komarapalayam, Tamil Nadu 638183, India",
    "VenueCode": "CDTK",
    "VenueName": "CSM DNC Theatres: Komarapalayam"
  },
  "CETA": {
    "AvailableFormats": "2D",
    "City": "Kochi",
    "Latitude": "9.94854",
    "Longitude": "76.3478",
    "RegionCode": "PALY",
    "State": "Kerala",
    "SubRegionCode": "PALY",
    "VenueAddress": "Central Talkies, Near Old Bus Stand, Tripunithura, Kochi, Kerala 682301, India",
    "VenueCode": "CETA",
    "VenueName": "Central Talkies RGB Laser 4K  3D Dolby Atmos"
  },
  "CGGC": {
    "AvailableFormats": "2D",
    "City": "Gondal",
    "Latitude": "21.9236",
    "Longitude": "70.7546",
    "RegionCode": "GONA",
    "State": "Gujarat",
    "SubRegionCode": "GONA",
    "VenueAddress": "Survey No 744 Paikee 1, Corner of Dreamvelly, Jetpur Highway, Gangotri International School, Gondal, Gujarat 360311, India",
    "VenueCode": "CGGC",
    "VenueName": "Climax Cinema: Gondal"
  },
  "CGSM": {
    "AvailableFormats": "2D",
    "City": "Mangaluru (Mangalore)",
    "Latitude": "12.9917",
    "Longitude": "74.7989",
    "RegionCode": "MLR",
    "State": "Karnataka",
    "SubRegionCode": "MLR",
    "VenueAddress": "3rd Floor, Abish Business Centre, Maarigudi Road, Near - Chawadi Banquet Hall, Mangaluru (Mangalore), Karnataka 575014, India",
    "VenueCode": "CGSM",
    "VenueName": "Cine Galaxy: Surathkal, Mangalore"
  },
  "CHSX": {
    "AvailableFormats": "",
    "City": "Patna",
    "FirstTracked": "2026-07-14",
    "Latitude": "25.5698",
    "Longitude": "84.8705",
    "RegionCode": "PATN",
    "State": "Bihar",
    "SubRegionCode": "PATN",
    "VenueAddress": "NT Complex Shrirampur Naya Bazar, Opposite Bank Of Baroda, Bihta, Patna, Bihar 801103, India",
    "VenueCode": "CHSX",
    "VenueName": "Connplex Cinemas: Bihta, Patna"
  },
  "CICI": {
    "AvailableFormats": "2D",
    "City": "Halol",
    "Latitude": "22.5042",
    "Longitude": "73.5104",
    "RegionCode": "HALO",
    "State": "Gujarat",
    "SubRegionCode": "HALO",
    "VenueAddress": "Halol Pavagadh Bypass Road, Near Dhaba Dungari, Halol, Gujarat 389350, India",
    "VenueCode": "CICI",
    "VenueName": "Cine India Cinema: Halol"
  },
  "CIPC": {
    "AvailableFormats": "2D",
    "City": "Mahudha",
    "Latitude": "22.8185",
    "Longitude": "72.9388",
    "RegionCode": "MAHU",
    "State": "Gujarat",
    "SubRegionCode": "MAHU",
    "VenueAddress": "A-1, Kheda Road, Near Mahudha Town Bus Stand, Mahudha, Gujarat 387335, India",
    "VenueCode": "CIPC",
    "VenueName": "City Pulse Cinema: Mahudha"
  },
  "CKSA": {
    "AvailableFormats": "2D",
    "City": "Ahilyanagar (Ahmednagar)",
    "Latitude": "19.0913",
    "Longitude": "74.7454",
    "RegionCode": "AHMED",
    "State": "Maharashtra",
    "SubRegionCode": "AHMED",
    "VenueAddress": "302, 3rd Floor, Biz Bay One, Nagar-Sambhajinagar Road, Near Nagar College Gate, Above Zudio Store, Ahilyanagar (Ahmednagar), Maharashtra 414001, India",
    "VenueCode": "CKSA",
    "VenueName": "Cinelife K Sera Sera: Ahilyanagar"
  },
  "CLKN": {
    "AvailableFormats": "2D",
    "City": "Gandhinagar",
    "Latitude": "23.1845",
    "Longitude": "72.6303",
    "RegionCode": "GNAGAR",
    "State": "Gujarat",
    "SubRegionCode": "GNAGAR",
    "VenueAddress": "6th Floor, F- Block, Pramukh Anand Mall, Gandhinagar, Gujarat 382421, India",
    "VenueCode": "CLKN",
    "VenueName": "Classic Cinema, Kudasan: Gandhinagar"
  },
  "CMAR": {
    "AvailableFormats": "2D",
    "City": "Vadodara",
    "Latitude": "22.3008",
    "Longitude": "73.169",
    "RegionCode": "VAD",
    "State": "Gujarat",
    "SubRegionCode": "VAD",
    "VenueAddress": "3rd Floor, Galleria Mall, Ajit Nagar Society, Opposite D Mart,Sayajirao Nagar Gruh, Vadodara, Gujarat 390020, India",
    "VenueCode": "CMAR",
    "VenueName": "Cinemarc: Akota, Vadodara"
  },
  "CMGJ": {
    "AvailableFormats": "2D",
    "City": "Godda",
    "Latitude": "24.8314",
    "Longitude": "87.21",
    "RegionCode": "GDDA",
    "State": "Jharkhand",
    "SubRegionCode": "GDDA",
    "VenueAddress": "Rooftop Of Reliance Smart Bazaar, Near Petrol Pump Bhagalpur Road, Godda, Jharkhand 814133, India",
    "VenueCode": "CMGJ",
    "VenueName": "Chhotu Maharaj Cine Cafe: Godda, Jharkhand"
  },
  "CMMM": {
    "AvailableFormats": "2D",
    "City": "Madhepura",
    "Latitude": "25.927",
    "Longitude": "86.7968",
    "RegionCode": "MHEA",
    "State": "Bihar",
    "SubRegionCode": "MHEA",
    "VenueAddress": "Near Parwati Science College, Birpur-Madhepura Road, Madhepura, Bihar 852113, India",
    "VenueCode": "CMMM",
    "VenueName": "Chhotu Maharaj Cine Cafe: Madhepura, Bihar"
  },
  "CMSM": {
    "AvailableFormats": "",
    "City": "Sihora",
    "FirstTracked": "2026-07-14",
    "Latitude": "23.471254",
    "Longitude": "80.107704",
    "RegionCode": "SIHO",
    "State": "Madhya Pradesh",
    "SubRegionCode": "SIHO",
    "VenueAddress": "Ward No 12, Khitola Bazar Sihora, Sihora, Madhya Pradesh 483225, India",
    "VenueCode": "CMSM",
    "VenueName": "Chhotu Maharaj Cine Cafe: Sihora"
  },
  "CMVS": {
    "AvailableFormats": "2D",
    "City": "Varachha",
    "Latitude": "21.2427",
    "Longitude": "72.8721",
    "RegionCode": "SURT",
    "State": "Gujarat",
    "SubRegionCode": "VACH",
    "VenueAddress": "Golden City Road, Mota Varachha, Near DMART, Varachha, Gujarat 394101, India",
    "VenueCode": "CMVS",
    "VenueName": "Cinezza Multiplex: Maharaja Farm, Mota Varachha"
  },
  "CNCP": {
    "AvailableFormats": "2D",
    "City": "Petlad",
    "Latitude": "22.4684",
    "Longitude": "72.8013",
    "RegionCode": "BORM",
    "State": "Gujarat",
    "SubRegionCode": "BORM",
    "VenueAddress": "Tanmay Plaza, Gorel-Petlad Road, Shekhadi, Petlad, Gujarat 388450, India",
    "VenueCode": "CNCP",
    "VenueName": "Cinesquare Cinema: Petlad"
  },
  "CNIS": {
    "AvailableFormats": "2D|3D",
    "City": "Surat",
    "Latitude": "21.1867",
    "Longitude": "72.7934",
    "RegionCode": "SURT",
    "State": "Gujarat",
    "SubRegionCode": "SURT",
    "VenueAddress": "3rd Floor Imperial Square Mall, Upper Star Bazaar, Pal Hazira Road, Adajan, Surat, Gujarat 395009, India",
    "VenueCode": "CNIS",
    "VenueName": "Cinepolis: Imperial Square Mall, Surat"
  },
  "CNRA": {
    "AvailableFormats": "2D",
    "City": "Abu Road",
    "Latitude": "24.4982",
    "Longitude": "72.766",
    "RegionCode": "ABRD",
    "State": "Rajasthan",
    "SubRegionCode": "ABRD",
    "VenueAddress": "New Town Housing, Revdar Road, Manpur Rural, Abu Road, Rajasthan 307026, India",
    "VenueCode": "CNRA",
    "VenueName": "Cineplus Multiplex: Abu Road"
  },
  "CNWE": {
    "AvailableFormats": "2D|IMAX 2D|3D",
    "City": "Pune",
    "Latitude": "18.5625",
    "Longitude": "73.8072",
    "RegionCode": "PUNE",
    "State": "Maharashtra",
    "SubRegionCode": "PUNE",
    "VenueAddress": "5, Gurukul Park Road, Ward No. 8, Wireless Colony, Aundh, Pune, Maharashtra 411007, India",
    "VenueCode": "CNWE",
    "VenueName": "Cinepolis: Nexus WESTEND Mall Aundh, Pune"
  },
  "COPC": {
    "AvailableFormats": "2D",
    "City": "Raisinghnagar",
    "Latitude": "29.5374",
    "Longitude": "73.4503",
    "RegionCode": "RSNG",
    "State": "Rajasthan",
    "SubRegionCode": "RSNG",
    "VenueAddress": "22 PS Road, Near - Raisingnagar railway station, Raisinghnagar, Rajasthan 335051, India",
    "VenueCode": "COPC",
    "VenueName": "Cosmo Palace Cinema: Raisinghnagar"
  },
  "CPCM": {
    "AvailableFormats": "2D|3D",
    "City": "Mangalore",
    "Latitude": "12.8717",
    "Longitude": "74.8425",
    "RegionCode": "MLR",
    "State": "Karnataka",
    "SubRegionCode": "MLR",
    "VenueAddress": "K S Rao Road, Hampankatta, Mangalore, Karnataka 122002, India",
    "VenueCode": "CPCM",
    "VenueName": "Cinepolis: City Centre Mall, Mangaluru"
  },
  "CPIV": {
    "AvailableFormats": "2D|3D",
    "City": "Vadodara",
    "Latitude": "22.3227",
    "Longitude": "73.1662",
    "RegionCode": "VAD",
    "State": "Gujarat",
    "SubRegionCode": "VAD",
    "VenueAddress": "2nd Floor, Inorbit Mall,Nr. Gunjan Tower, Gorwa Road, Gorwa, Opp. Alembic School, Vadodara, Gujarat 390023, India",
    "VenueCode": "CPIV",
    "VenueName": "Cinepolis: Inorbit Vadodara Mall"
  },
  "CPLK": {
    "AvailableFormats": "2D",
    "City": "Hyderabad",
    "Latitude": "17.4251",
    "Longitude": "78.4482",
    "RegionCode": "HYD",
    "State": "Telangana",
    "SubRegionCode": "HYD",
    "VenueAddress": "4th Floor, MPM Timesquare Mall, Nagarjuna Circle, Road No.1 and 3, Banjara Hills, Hyderabad, Telangana 5000345, India",
    "VenueCode": "CPLK",
    "VenueName": "Connplex Cinemas: MPM Mall, Banjara Hills"
  },
  "CPNM": {
    "AvailableFormats": "3D|2D",
    "City": "Mumbai",
    "Latitude": "19.141",
    "Longitude": "72.931",
    "RegionCode": "MUMBAI",
    "State": "Maharashtra",
    "SubRegionCode": "MCENT",
    "VenueAddress": "Neptune Magnet Mall, LBS Road, Bhandup(W), Mumbai, Maharashtra 400078, India",
    "VenueCode": "CPNM",
    "VenueName": "Cinepolis: Magnet Mall, Bhandup (W)"
  },
  "CPSA": {
    "AvailableFormats": "2D",
    "City": "Solan",
    "Latitude": "30.92",
    "Longitude": "77.0961",
    "RegionCode": "SCO",
    "State": "Himachal Pradesh",
    "SubRegionCode": "SCO",
    "VenueAddress": "2nd floor, Center Prime Mall, Kalka - Shimla Road, Solan, Himachal Pradesh 173213, India",
    "VenueCode": "CPSA",
    "VenueName": "CP Cinemas (Haveli), Centre Prime Mall: Solan"
  },
  "CPVM": {
    "AvailableFormats": "3D|IMAX 2D|4DX|2D",
    "City": "Thane",
    "Latitude": "19.2088",
    "Longitude": "72.9709",
    "RegionCode": "MUMBAI",
    "State": "Maharashtra",
    "SubRegionCode": "THNE",
    "VenueAddress": "Viviana Mall, Eastern Express Highway, Laxmi Nagar, Thane (West), Thane, Maharashtra 400606, India",
    "VenueCode": "CPVM",
    "VenueName": "Cinepolis: Viviana Mall, Thane"
  },
  "CRPX": {
    "AvailableFormats": "2D",
    "City": "Panipat",
    "Latitude": "29.3814",
    "Longitude": "76.9802",
    "RegionCode": "PAN",
    "State": "Haryana",
    "SubRegionCode": "PAN",
    "VenueAddress": "2nd Floor, Angel Prime Mall, 12, Huda Sector 11, Panipat, Haryana 132103, India",
    "VenueCode": "CRPX",
    "VenueName": "Cinecare Multiplex: Panipat"
  },
  "CSER": {
    "AvailableFormats": "2D",
    "City": "Guntur",
    "Latitude": "16.3333",
    "Longitude": "80.438",
    "RegionCode": "GUNT",
    "State": "Andhra Pradesh",
    "SubRegionCode": "GUNT",
    "VenueAddress": "Amravati Road, Gorantla, Near Gorantla Electricity Office, Guntur, Andhra Pradesh 522034, India",
    "VenueCode": "CSER",
    "VenueName": "Cine Square Dolby Atmos A/C: Guntur"
  },
  "CSSM": {
    "AvailableFormats": "2D",
    "City": "Gangoh",
    "Latitude": "29.7851",
    "Longitude": "77.2604",
    "RegionCode": "GANZ",
    "State": "Uttar Pradesh",
    "SubRegionCode": "GANZ",
    "VenueAddress": "Kasimsiddqui, MDR 147W, Opposite Umar Unani Ayurvedic Agency, Gangoh, Uttar Pradesh 247341, India",
    "VenueCode": "CSSM",
    "VenueName": "Chaudhary SS Multiplex: Gangoh"
  },
  "CSWO": {
    "AvailableFormats": "3D|IMAX 2D|2D|4DX|4DX 3D",
    "City": "Navi Mumbai",
    "Latitude": "19.0214",
    "Longitude": "73.0184",
    "RegionCode": "MUMBAI",
    "State": "Maharashtra",
    "SubRegionCode": "THAN",
    "VenueAddress": "Unit Multiplex Seawoods Railway, Sector No 40, Plot R1, Nerul, Navi Mumbai, Maharashtra 400706, India",
    "VenueCode": "CSWO",
    "VenueName": "Cinepolis: Nexus Seawoods, Nerul, Navi Mumbai"
  },
  "CTMJ": {
    "AvailableFormats": "2D|3D",
    "City": "Chandigarh",
    "Latitude": "30.7429",
    "Longitude": "76.7851",
    "RegionCode": "CHD",
    "State": "Punjab",
    "SubRegionCode": "CHD",
    "VenueAddress": "Plot No 32, TDI Mall, Sector 17 A, Chandigarh, Punjab 160017, India",
    "VenueCode": "CTMJ",
    "VenueName": "Cinepolis: Jagat Mall, Chandigarh"
  },
  "CTPX": {
    "AvailableFormats": "2D",
    "City": "Bhatapara",
    "Latitude": "21.7403",
    "Longitude": "81.9349",
    "RegionCode": "BTAP",
    "State": "Chhattisgarh",
    "SubRegionCode": "BTAP",
    "VenueAddress": "2nd floor, City Centre Mall, Bhatapara, Chhattisgarh 493118, India",
    "VenueCode": "CTPX",
    "VenueName": "Cityplex Cinema: Bhatapara"
  },
  "CVCG": {
    "AvailableFormats": "2D",
    "City": "Gudur",
    "Latitude": "14.1492",
    "Longitude": "79.8469",
    "RegionCode": "GUDR",
    "State": "Andhra Pradesh",
    "SubRegionCode": "GUDR",
    "VenueAddress": "Sri Venkateshwara Cine Complex, Gamallapalem Street, Vivekananda Road, Swarna Bharathi Nagar, Gudur, Andhra Pradesh 524101, India",
    "VenueCode": "CVCG",
    "VenueName": "V Cinemas, Screen 1: Gudur"
  },
  "CWCK": {
    "AvailableFormats": "2D",
    "City": "Katni",
    "Latitude": "23.8007",
    "Longitude": "80.3674",
    "RegionCode": "KATN",
    "State": "Madhya Pradesh",
    "SubRegionCode": "KATN",
    "VenueAddress": "2nd floor, Mittal Mall, Beside Mittal Enclave, Collectorate Road, Katni, Madhya Pradesh 483501, India",
    "VenueCode": "CWCK",
    "VenueName": "Cine Worldz Cinema: Katni"
  },
  "CXMH": {
    "AvailableFormats": "2D",
    "City": "Himmatnagar",
    "Latitude": "23.5823",
    "Longitude": "72.9728",
    "RegionCode": "HIMM",
    "State": "Gujarat",
    "SubRegionCode": "HIMM",
    "VenueAddress": "Devdhan Complex, Sahakari Jin Road, Near Jyoti Supermarket, Himmatnagar, Gujarat 383001, India",
    "VenueCode": "CXMH",
    "VenueName": "Cinemunch Mplex MCR: Himmatnagar"
  },
  "DABA": {
    "AvailableFormats": "2D",
    "City": "Cumbum",
    "Latitude": "9.73105",
    "Longitude": "77.2823",
    "RegionCode": "CMBM",
    "State": "Tamil Nadu",
    "SubRegionCode": "CMBM",
    "VenueAddress": "Angoorpalayam Road, Mani Nagaram, Cumbum, Tamil Nadu 625516, India",
    "VenueCode": "DABA",
    "VenueName": "Deva Bala Sakthi Bala A/C 2K DOLBY Atmos: Cumbum"
  },
  "DCCO": {
    "AvailableFormats": "2D|3D",
    "City": "Nashik",
    "Latitude": "19.9812",
    "Longitude": "73.756",
    "RegionCode": "NASK",
    "State": "Maharashtra",
    "SubRegionCode": "NASK",
    "VenueAddress": "Purab Paschim Plaza, Trimurti Chowk Cidco-9, Opposite Trimurti Chowk Post Office, Nashik, Maharashtra 422008, India",
    "VenueCode": "DCCO",
    "VenueName": "Divya Cinemas: Nashik"
  },
  "DCKC": {
    "AvailableFormats": "2D",
    "City": "Kanichar",
    "Latitude": "11.9054",
    "Longitude": "75.7844",
    "RegionCode": "KANC",
    "State": "Kerala",
    "SubRegionCode": "KANC",
    "VenueAddress": "Dev Associates, Kottiyar Road, Kanichar, Near Kanichar Sree Subrahmanya Temple, Kanichar, Kerala 670674, India",
    "VenueCode": "DCKC",
    "VenueName": "Dev Cinemas: Kanichar"
  },
  "DCTW": {
    "AvailableFormats": "2D",
    "City": "Thane",
    "Latitude": "19.254465",
    "Longitude": "72.985121",
    "RegionCode": "THNE",
    "State": "Maharashtra",
    "SubRegionCode": "THNE",
    "VenueAddress": "Hiranandani Estate, Villa Grand Road, Thane, Maharashtra 400607, India",
    "VenueCode": "DCTW",
    "VenueName": "Devgn CineX: The Walk, Thane"
  },
  "DEES": {
    "AvailableFormats": "2D",
    "City": "Markapur",
    "Latitude": "15.7435",
    "Longitude": "79.2716",
    "RegionCode": "MARK",
    "State": "Andhra Pradesh",
    "SubRegionCode": "MARK",
    "VenueAddress": "Bharathi Vidya Nikethan Road, Near Viswa Shanthi School Hostel, Markapur, Andhra Pradesh 523316, India",
    "VenueCode": "DEES",
    "VenueName": "Jagadeeswari Theatre A/C 4K Dolby Atmos: Markapur"
  },
  "DGCA": {
    "AvailableFormats": "2D",
    "City": "Rangia",
    "Latitude": "26.4422",
    "Longitude": "91.6094",
    "RegionCode": "RAAA",
    "State": "Assam",
    "SubRegionCode": "RAAA",
    "VenueAddress": "Ward No. 2, Station Road, Kamrup, Rangia, Assam 781365, India",
    "VenueCode": "DGCA",
    "VenueName": "Delight Gold Cinema Hall: Rangia"
  },
  "DJYA": {
    "AvailableFormats": "2D",
    "City": "Angul",
    "Latitude": "20.8326",
    "Longitude": "85.0889",
    "RegionCode": "ANGL",
    "State": "Odisha",
    "SubRegionCode": "ANGL",
    "VenueAddress": "Hatisalapada, National Highway 42, Angul, Odisha 759106, India",
    "VenueCode": "DJYA",
    "VenueName": "Divyajyoti Multiplex 2 (Dolby Atmos): Angul"
  },
  "DMAN": {
    "AvailableFormats": "",
    "City": "Anand",
    "FirstTracked": "2026-07-23",
    "Latitude": "22.563179",
    "Longitude": "72.95271",
    "RegionCode": "AND",
    "State": "Gujarat",
    "SubRegionCode": "AND",
    "VenueAddress": "100 Feet Road, Beside Vegetable Market, Ganesh Colony, Anand, Gujarat 388001, India",
    "VenueCode": "DMAN",
    "VenueName": "Diya Cinema: Anand"
  },
  "DNKM": {
    "AvailableFormats": "2D",
    "City": "Kollam",
    "Latitude": "8.89143",
    "Longitude": "76.6034",
    "RegionCode": "KOLM",
    "State": "Kerala",
    "SubRegionCode": "KOLM",
    "VenueAddress": "Kadapakkada, Kappalandimukku - Kadappakkada Road, Near The Hindu News Paper, Kollam, Kerala 691008, India",
    "VenueCode": "DNKM",
    "VenueName": "Dhanya Remya: Kollam"
  },
  "DRCR": {
    "AvailableFormats": "",
    "City": "Mansa",
    "FirstTracked": "2026-07-14",
    "Latitude": "30.020473",
    "Longitude": "75.39797",
    "RegionCode": "MNSA",
    "State": "Punjab",
    "SubRegionCode": "MNSA",
    "VenueAddress": "Grand Mall, Barnala - Mansa Sisra Road, Near Nehru Collage, Mansa, Punjab 151505, India",
    "VenueCode": "DRCR",
    "VenueName": "Dream Reality Cinema: Mansa"
  },
  "DTCK": {
    "AvailableFormats": "2D",
    "City": "Kalimpong",
    "Latitude": "27.0648",
    "Longitude": "88.4667",
    "RegionCode": "KALI",
    "State": "West Bengal",
    "SubRegionCode": "KALI",
    "VenueAddress": "9th Mile, Trimoti Shopping complex, Mongbol Busty, Alipurduar Road, Rishi Road, Near Hotel Jiwan Jyoti, Kalimpong, West Bengal 734301, India",
    "VenueCode": "DTCK",
    "VenueName": "Dream Theatre Cineplex: Kalimpong"
  },
  "DURG": {
    "AvailableFormats": "2D",
    "City": "Banki",
    "Latitude": "20.3791",
    "Longitude": "85.531",
    "RegionCode": "BANK",
    "State": "Odisha",
    "SubRegionCode": "BANK",
    "VenueAddress": "Near SBI Bank, Cuttack - Banki Road, Banki, Odisha 754008, India",
    "VenueCode": "DURG",
    "VenueName": "Durga Talkies: Banki"
  },
  "DXEC": {
    "AvailableFormats": "",
    "City": "Ottapalam",
    "FirstTracked": "2026-07-14",
    "Latitude": "10.7413",
    "Longitude": "76.3901",
    "RegionCode": "THSR",
    "State": "Kerala",
    "SubRegionCode": "THSR",
    "VenueAddress": "Chelakkara, Kondazhi Mayannur Road, Ottapalam, Kerala 679105, India",
    "VenueCode": "DXEC",
    "VenueName": "Dreamax E Cinemas: Mayannur"
  },
  "ECPP": {
    "AvailableFormats": "2D|3D",
    "City": "Pune",
    "Latitude": "18.6285",
    "Longitude": "73.7841",
    "RegionCode": "PUNE",
    "State": "Maharashtra",
    "SubRegionCode": "PUNE",
    "VenueAddress": "2nd Floor, Elpro City Square Mall, Pimpri Chinchwad Link Road, Pune, Maharashtra 411033, India",
    "VenueCode": "ECPP",
    "VenueName": "INOX: Elpro City Square, Chinchwad"
  },
  "EKCM": {
    "AvailableFormats": "2D",
    "City": "Kusumgram",
    "Latitude": "23.3893",
    "Longitude": "88.1318",
    "RegionCode": "KKKL",
    "State": "West Bengal",
    "SubRegionCode": "KKKL",
    "VenueAddress": "SH 8, Kusumgram, Belgram Bolgona Kalna Road, Opposite Bandhan Bank, Kusumgram, West Bengal 713422, India",
    "VenueCode": "EKCM",
    "VenueName": "Ekta Manch: Kusumgram"
  },
  "EMPN": {
    "AvailableFormats": "",
    "City": "Pulgaon",
    "FirstTracked": "2026-07-14",
    "Latitude": "20.725908",
    "Longitude": "78.31447",
    "RegionCode": "PUON",
    "State": "Maharashtra",
    "SubRegionCode": "PUON",
    "VenueAddress": "Empress Mall, Gandhi Nagar, Pulgaon Road, Near Pulgaon Railway Station, Pulgaon, Maharashtra 442303, India",
    "VenueCode": "EMPN",
    "VenueName": "Empress Cinema: Pulgaon"
  },
  "ESBD": {
    "AvailableFormats": "2D",
    "City": "Beed",
    "Latitude": "18.9946",
    "Longitude": "75.7533",
    "RegionCode": "BEED",
    "State": "Maharashtra",
    "SubRegionCode": "BEED",
    "VenueAddress": "Shahu Nagar, Pangri Road, Near Bus Stand, Beed, Maharashtra 431122, India",
    "VenueCode": "ESBD",
    "VenueName": "Santoshimata: Beed"
  },
  "ESVP": {
    "AvailableFormats": "2D",
    "City": "Pune",
    "Latitude": "18.511",
    "Longitude": "73.8801",
    "RegionCode": "PUNE",
    "State": "Maharashtra",
    "SubRegionCode": "PUNE",
    "VenueAddress": "2429, Gen Thimayya Road, Camp, opposite Kayani Bakery, Pune, Maharashtra 411001, India",
    "VenueCode": "ESVP",
    "VenueName": "Victory Theatre: Camp, Pune"
  },
  "EVMP": {
    "AvailableFormats": "2D",
    "City": "Kochi",
    "Latitude": "10.1113",
    "Longitude": "76.4742",
    "RegionCode": "KOCH",
    "State": "Kerala",
    "SubRegionCode": "KOCH",
    "VenueAddress": "old kaala vayal, Perumbavoor, Kochi, Kerala 683542, India",
    "VenueCode": "EVMP",
    "VenueName": "EVM Cinema A/C 4K RGB Laser 3D: Perumbavoor"
  },
  "FCHP": {
    "AvailableFormats": "",
    "City": "Kolkata",
    "FirstTracked": "2026-07-14",
    "Latitude": "22.483189",
    "Longitude": "88.39094",
    "RegionCode": "KOLK",
    "State": "West Bengal",
    "SubRegionCode": "KOLK",
    "VenueAddress": "Metropolis Mall Hiland Park, Eastern Metropolitan Bypass Chakgaria, Opp Peerless Hospital, Kolkata, West Bengal 700020, India",
    "VenueCode": "FCHP",
    "VenueName": "INOX: Hiland Park"
  },
  "FCTB": {
    "AvailableFormats": "",
    "City": "Talwandi Bhai",
    "FirstTracked": "2026-07-14",
    "Latitude": "30.859259",
    "Longitude": "74.92114",
    "RegionCode": "TALW",
    "State": "Punjab",
    "SubRegionCode": "TALW",
    "VenueAddress": "Karmitti Road, Dist. Ferozepur, Talwandi Bhai, Punjab 142050, India",
    "VenueCode": "FCTB",
    "VenueName": "Fun Cineplex: Talwandi Bhai"
  },
  "FMFB": {
    "AvailableFormats": "2D",
    "City": "Bengaluru",
    "Latitude": "12.9608",
    "Longitude": "77.7481",
    "RegionCode": "BANG",
    "State": "Karnataka",
    "SubRegionCode": "BANG",
    "VenueAddress": "No.62, 2nd Floor, Nexus, Whitefield Main Road, Whitefield, Near Citi Bank ATM, Bengaluru, Karnataka 560066, India",
    "VenueCode": "FMFB",
    "VenueName": "INOX: Nexus, Whitefield"
  },
  "FMVS": {
    "AvailableFormats": "",
    "City": "Navi Mumbai",
    "FirstTracked": "2026-07-14",
    "Latitude": "19.06411",
    "Longitude": "72.99694",
    "RegionCode": "MUMBAI",
    "State": "Maharashtra",
    "SubRegionCode": "THAN",
    "VenueAddress": "3rd Floor, Raghuleela Mall, Sector 30, Vashi, Opposite Vashi Railway Station, Navi Mumbai, Maharashtra 400703, India",
    "VenueCode": "FMVS",
    "VenueName": "INOX: Raghuleela Mall, Vashi"
  },
  "FNCO": {
    "AvailableFormats": "2D",
    "City": "Coimbatore",
    "Latitude": "11.0247",
    "Longitude": "77.0104",
    "RegionCode": "COIM",
    "State": "Tamil Nadu",
    "SubRegionCode": "COIM",
    "VenueAddress": "Peelamedu, Avinashi Road, Peelamedu, Near PSGR Krishnammal College, Coimbatore, Tamil Nadu 641004, India",
    "VenueCode": "FNCO",
    "VenueName": "Cinepolis: Fun Republic Mall, Coimbatore"
  },
  "FNSD": {
    "AvailableFormats": "2D|3D",
    "City": "Delhi",
    "Latitude": "28.6574",
    "Longitude": "77.3023",
    "RegionCode": "NCR",
    "State": "NCR",
    "SubRegionCode": "DELHI",
    "VenueAddress": "Cross River Mall, Central Business,Shahdara, Near Karkardooma Court, Delhi, NCR 110032, India",
    "VenueCode": "FNSD",
    "VenueName": "Cinepolis: Cross River Mall, Shahdara"
  },
  "FSCK": {
    "AvailableFormats": "2D|IMAX 2D|3D",
    "City": "Kolkata",
    "Latitude": "22.5014",
    "Longitude": "88.3616",
    "RegionCode": "KOLK",
    "State": "West Bengal",
    "SubRegionCode": "KOLK",
    "VenueAddress": "375, South City Mall, Prince Anwar Shah Road, Opposite Central Bank of India, Kolkata, West Bengal 700068, India",
    "VenueCode": "FSCK",
    "VenueName": "INOX: South City, Kolkata"
  },
  "G3SR": {
    "AvailableFormats": "2D|3D",
    "City": "Delhi",
    "Latitude": "28.7351",
    "Longitude": "77.1135",
    "RegionCode": "NCR",
    "State": "NCR",
    "SubRegionCode": "DELHI",
    "VenueAddress": "Level 2, Sector-11, Rohini, Inside Garg Trade, Delhi, NCR 110085, India",
    "VenueCode": "G3SR",
    "VenueName": "G3S Cinema: Rohini (Newly Renovated)"
  },
  "GAPR": {
    "AvailableFormats": "",
    "City": "Ongole",
    "FirstTracked": "2026-07-14",
    "Latitude": "15.51993",
    "Longitude": "80.04735",
    "RegionCode": "ADKI",
    "State": "Andhra Pradesh",
    "SubRegionCode": "ADKI",
    "VenueAddress": "Guntur Road, Gopal Nagar, Ongole, Andhra Pradesh 523001, India",
    "VenueCode": "GAPR",
    "VenueName": "G2V Theaters, Ravi Priya Mall: Ongole"
  },
  "GBTG": {
    "AvailableFormats": "2D",
    "City": "Gudivada",
    "Latitude": "16.4305",
    "Longitude": "80.9914",
    "RegionCode": "GUDI",
    "State": "Andhra Pradesh",
    "SubRegionCode": "GUDI",
    "VenueAddress": "Satyanarayana Puram, Pillalamari Street, Gudivada, Andhra Pradesh 521301, India",
    "VenueCode": "GBTG",
    "VenueName": "G3 Bhaskar Talkies: Gudivada"
  },
  "GCDC": {
    "AvailableFormats": "",
    "City": "Dabra",
    "FirstTracked": "2026-07-14",
    "Latitude": "25.886345",
    "Longitude": "78.33501",
    "RegionCode": "DABR",
    "State": "Madhya Pradesh",
    "SubRegionCode": "DABR",
    "VenueAddress": "Geeta Talkies Road, Near Shree Krishna Dairy, Subhash Ganj, Darshan Colony, Dabra, Madhya Pradesh 475110, India",
    "VenueCode": "GCDC",
    "VenueName": "Geeta Cineplex: Dabra"
  },
  "GCGD": {
    "AvailableFormats": "",
    "City": "Gwalior",
    "FirstTracked": "2026-07-14",
    "Latitude": "26.205128",
    "Longitude": "78.18938",
    "RegionCode": "GWAL",
    "State": "Madhya Pradesh",
    "SubRegionCode": "GWAL",
    "VenueAddress": "Plot no. 1, City Centre, Madhavrao Scindia Marg, Near HDFC Bank and Cafe Coffee Day City Center, Tulsi Vihar Colony, Gwalior, Madhya Pradesh 474011, India",
    "VenueCode": "GCGD",
    "VenueName": "Gold Cinema: Gwalior"
  },
  "GCMG": {
    "AvailableFormats": "2D",
    "City": "Mumbai",
    "Latitude": "19.1917",
    "Longitude": "72.8204",
    "RegionCode": "MUMBAI",
    "State": "Maharashtra",
    "SubRegionCode": "MWEST",
    "VenueAddress": "Savera Heights, Gate No.5, Bank of India Building, Abdul Hamid Marg, Malvani Road, Opposite Malvani Police Station, Mumbai, Maharashtra 400095, India",
    "VenueCode": "GCMG",
    "VenueName": "Gold Cinema: Malad Malvani"
  },
  "GCSD": {
    "AvailableFormats": "2D",
    "City": "Sardulgarh",
    "Latitude": "29.721",
    "Longitude": "75.2455",
    "RegionCode": "SARD",
    "State": "Punjab",
    "SubRegionCode": "SARD",
    "VenueAddress": "Rori Road, Near Bus Stand, Sardulewala, Sardulgarh, Punjab 125201, India",
    "VenueCode": "GCSD",
    "VenueName": "Golden Cinemas: Sardulgarh"
  },
  "GDAN": {
    "AvailableFormats": "2D|3D",
    "City": "Anand",
    "Latitude": "22.5523",
    "Longitude": "72.9399",
    "RegionCode": "PETL",
    "State": "Gujarat",
    "SubRegionCode": "PETL",
    "VenueAddress": "Block A, 3rd Floor, Opp. Dena Parivar, Anand Vidya Nagar Road, Near Giny and Jony, Anand, Gujarat 388001, India",
    "VenueCode": "GDAN",
    "VenueName": "Gold Cinema: Anand"
  },
  "GDCU": {
    "AvailableFormats": "",
    "City": "Una",
    "FirstTracked": "2026-07-14",
    "Latitude": "31.433987",
    "Longitude": "76.32296",
    "RegionCode": "BEEL",
    "State": "Himachal Pradesh",
    "SubRegionCode": "BEEL",
    "VenueAddress": "8 Miles Stone, Behdala, Una, Himachal Pradesh 174306, India",
    "VenueCode": "GDCU",
    "VenueName": "Grand Cinemaz: Una @ The Gulmohar"
  },
  "GDTH": {
    "AvailableFormats": "3D|2D",
    "City": "Thane",
    "Latitude": "19.1905",
    "Longitude": "72.9766",
    "RegionCode": "MUMBAI",
    "State": "Maharashtra",
    "SubRegionCode": "THNE",
    "VenueAddress": "Prabhat Plaza, 3rd Floor, Station Road, Shivaji Road, Near Talao Pali, Thane, Maharashtra 400601, India",
    "VenueCode": "GDTH",
    "VenueName": "Gold  Cinema: Shivaji Road, Thane (W)"
  },
  "GGCS": {
    "AvailableFormats": "2D",
    "City": "Seethathodu",
    "Latitude": "9.325442",
    "Longitude": "76.969631",
    "RegionCode": "SXCF",
    "State": "Kerala",
    "SubRegionCode": "SXCF",
    "VenueAddress": "Gavi Shopping Complex, Chittar, Angamoozhy Road, Seethathodu, Kerala 689667, India",
    "VenueCode": "GGCS",
    "VenueName": "Gavi Galaxi Cinemas: Seethathodu"
  },
  "GHZB": {
    "AvailableFormats": "",
    "City": "Ghaziabad",
    "FirstTracked": "2026-07-14",
    "Latitude": "28.708088",
    "Longitude": "77.291626",
    "RegionCode": "NCR",
    "State": "NCR",
    "SubRegionCode": "GHAZ",
    "VenueAddress": "Loni Road, Harijan Basti, Raj Nagar, Gokalpur, Ghaziabad, NCR 110094, India",
    "VenueCode": "GHZB",
    "VenueName": "Meenakshi Cherish Cinema: Ghaziabad"
  },
  "GKKC": {
    "AvailableFormats": "",
    "City": "Chennai",
    "FirstTracked": "2026-07-14",
    "Latitude": "13.049656",
    "Longitude": "80.19342",
    "RegionCode": "CHEN",
    "State": "Tamil Nadu",
    "SubRegionCode": "CHEN",
    "VenueAddress": "No.71/2, Yadaval Street,Virugambakkam, Chennai, Tamil Nadu 600092, India",
    "VenueCode": "GKKC",
    "VenueName": "Sri Devi Karumari Cinemas RGB LASER DOLBY ATMOS"
  },
  "GMGX": {
    "AvailableFormats": "2D",
    "City": "Ghaziabad",
    "Latitude": "28.6549",
    "Longitude": "77.3452",
    "RegionCode": "MRDG",
    "State": "NCR",
    "SubRegionCode": "MRDG",
    "VenueAddress": "Galaxie Mall, Local Road for JILIT Ltd, Sahibabad, Madan Mohan Malviya Marg, Sahibabad Industrial Area Site 4, Opposite Gulmohar Grand, Ghaziabad, NCR 201010, India",
    "VenueCode": "GMGX",
    "VenueName": "Galaxie Multiplex: Ghaziabad"
  },
  "GOKU": {
    "AvailableFormats": "2D",
    "City": "Hyderabad",
    "Latitude": "17.4536",
    "Longitude": "78.4344",
    "RegionCode": "HYD",
    "State": "Telangana",
    "SubRegionCode": "HYD",
    "VenueAddress": "Main Road, Vikaspuri, Erragadda, Beside Nexa Maruthi Showroom, Hyderabad, Telangana 500018, India",
    "VenueCode": "GOKU",
    "VenueName": "Gokul 70MM 4K DTS: Erragadda"
  },
  "GPKA": {
    "AvailableFormats": "2D",
    "City": "Seoni",
    "Latitude": "22.0777",
    "Longitude": "79.5459",
    "RegionCode": "SEON",
    "State": "Madhya Pradesh",
    "SubRegionCode": "SEON",
    "VenueAddress": "Gopika Cinema and Shopping Mall, Nagpur Road, Seoni, Madhya Pradesh 480661, India",
    "VenueCode": "GPKA",
    "VenueName": "Gopika Cinema: Seoni"
  },
  "GRDC": {
    "AvailableFormats": "",
    "City": "Jalandhar",
    "FirstTracked": "2026-07-14",
    "Latitude": "31.287695",
    "Longitude": "75.66471",
    "RegionCode": "JALA",
    "State": "Punjab",
    "SubRegionCode": "JALA",
    "VenueAddress": "3rd Floor Viva Collage Mall, GT Road, Jalandhar, Punjab 144001, India",
    "VenueCode": "GRDC",
    "VenueName": "GRD Cinemas: Jalandhar, Punjab"
  },
  "GSVA": {
    "AvailableFormats": "2D",
    "City": "Akividu",
    "Latitude": "16.5838",
    "Longitude": "81.3862",
    "RegionCode": "AKVD",
    "State": "Andhra Pradesh",
    "SubRegionCode": "AKVD",
    "VenueAddress": "Near HP Petrol Pump, PP Road, Beside Ambica Rice Merchants, Akividu, Andhra Pradesh 534235, India",
    "VenueCode": "GSVA",
    "VenueName": "G6 Sri Venkata Gangaratnam Theatre: Akividu"
  },
  "GTEE": {
    "AvailableFormats": "2D",
    "City": "Nagpur",
    "Latitude": "21.2155",
    "Longitude": "79.1947",
    "RegionCode": "NAGP",
    "State": "Maharashtra",
    "SubRegionCode": "NAGP",
    "VenueAddress": "Near Swank Agarbatti, Husainabad, Shiv Panchayat Nagar, Nagpur, Maharashtra 441001, India",
    "VenueCode": "GTEE",
    "VenueName": "Goyal Talkies: Kamptee"
  },
  "GTTS": {
    "AvailableFormats": "",
    "City": "Salem",
    "FirstTracked": "2026-07-14",
    "Latitude": "11.649974",
    "Longitude": "78.16141",
    "RegionCode": "SALM",
    "State": "Tamil Nadu",
    "SubRegionCode": "SALM",
    "VenueAddress": "24, Kitchipalayam Main Road, Sendarapatti, Gugai, Salem, Tamil Nadu 636015, India",
    "VenueCode": "GTTS",
    "VenueName": "ARRS Geethalaya Theatre: (SALEM OLD BUS STAND)"
  },
  "GXCK": {
    "AvailableFormats": "2D",
    "City": "Kollam",
    "Latitude": "8.88672",
    "Longitude": "76.5888",
    "RegionCode": "KOLM",
    "State": "Kerala",
    "SubRegionCode": "KOLM",
    "VenueAddress": "Bishop Jerome Nagar, 6th Avenue, 4th Floor, Chinnakkada, Kollam, Near State Bank of India, Kollam, Kerala 691001, India",
    "VenueCode": "GXCK",
    "VenueName": "Gmax Cinemas Jerome 3D 7.1 JBL: Kollam"
  },
  "HASV": {
    "AvailableFormats": "2D",
    "City": "Bengaluru",
    "Latitude": "12.6827",
    "Longitude": "77.4757",
    "RegionCode": "BANG",
    "State": "Karnataka",
    "SubRegionCode": "BANG",
    "VenueAddress": "Marasandra Main Road, Ranganath Badavane, Harohalli, Ramanagara, Bengaluru, Karnataka 562112, India",
    "VenueCode": "HASV",
    "VenueName": "Sri Vinayaka Theatre: Harohalli"
  },
  "HFSQ": {
    "AvailableFormats": "2D",
    "City": "Bicholim",
    "Latitude": "15.5878",
    "Longitude": "73.9441",
    "RegionCode": "GOA",
    "State": "Goa",
    "SubRegionCode": "BICG",
    "VenueAddress": "Bicholim Road, Bicholim, Near Dreams Bakery, Bicholim, Goa 403504, India",
    "VenueCode": "HFSQ",
    "VenueName": "Z Square Hira Talkies: Bicholim"
  },
  "HLWD": {
    "AvailableFormats": "",
    "City": "Guntur",
    "Latitude": "16.3083",
    "Longitude": "80.4344",
    "RegionCode": "GUNT",
    "State": "Andhra Pradesh",
    "SubRegionCode": "GUNT",
    "VenueAddress": "Lakshmipuram Main Road, Brodipet, Guntur, Andhra Pradesh 522002, India",
    "VenueCode": "HLWD",
    "VenueName": "Hollywood Bollywood Theaters: Guntur"
  },
  "HTAG": {
    "AvailableFormats": "2D",
    "City": "Agra",
    "Latitude": "27.2097",
    "Longitude": "78.0068",
    "RegionCode": "AGRA",
    "State": "Uttar Pradesh",
    "SubRegionCode": "AGRA",
    "VenueAddress": "Nehru Nagar, Civil Lines, Agra, Uttar Pradesh 282003, India",
    "VenueCode": "HTAG",
    "VenueName": "Heera Talkies: Agra"
  },
  "ICMG": {
    "AvailableFormats": "2D",
    "City": "Vizag (Visakhapatnam)",
    "Latitude": "17.683",
    "Longitude": "83.201",
    "RegionCode": "VIZA",
    "State": "Andhra Pradesh",
    "SubRegionCode": "VIZA",
    "VenueAddress": "INOX Leisure Limited, 3rd Floor, CMR Central, Chaitanya Nagar, NH 5, Gajuwaka, Vizag (Visakhapatnam), Andhra Pradesh 530026, India",
    "VenueCode": "ICMG",
    "VenueName": "INOX: CMR Central, Gajuwaka"
  },
  "IGCM": {
    "AvailableFormats": "2D|3D",
    "City": "Gorakhpur",
    "Latitude": "26.7536",
    "Longitude": "83.3753",
    "RegionCode": "GRKP",
    "State": "Uttar Pradesh",
    "SubRegionCode": "GRKP",
    "VenueAddress": "City Mall, 2nd Floor, 6 Civil Lines, Park Road, Golghar, Gorakhpur, Uttar Pradesh 273001, India",
    "VenueCode": "IGCM",
    "VenueName": "INOX: City Mall, Gorakhpur"
  },
  "IMCM": {
    "AvailableFormats": "2D|3D",
    "City": "Mumbai",
    "Latitude": "18.943",
    "Longitude": "72.8289",
    "RegionCode": "MUMBAI",
    "State": "Maharashtra",
    "SubRegionCode": "MCENT",
    "VenueAddress": "M.G.Road, Dhobitalao Junction, Mumbai, Maharashtra 400020, India",
    "VenueCode": "IMCM",
    "VenueName": "Metro INOX Cinemas: Marine Lines"
  },
  "IMXS": {
    "AvailableFormats": "2D",
    "City": "Surajpur",
    "Latitude": "23.3911",
    "Longitude": "82.8491",
    "RegionCode": "BSRM",
    "State": "Chhattisgarh",
    "SubRegionCode": "BSRM",
    "VenueAddress": "Bhaiyathan Road, In front of Sarnapara Chowk, Gram Parri, Surajpur, Chhattisgarh 497229, India",
    "VenueCode": "IMXS",
    "VenueName": "IMAXX Multiplex: Surajpur"
  },
  "INBG": {
    "AvailableFormats": "2D|3D",
    "City": "Bengaluru",
    "Latitude": "12.9705",
    "Longitude": "77.61",
    "RegionCode": "HOKT",
    "State": "Karnataka",
    "SubRegionCode": "HOKT",
    "VenueAddress": "4th Floor, Garuda Mall, Magrath Road, Bengaluru, Karnataka 560025, India",
    "VenueCode": "INBG",
    "VenueName": "INOX: Garuda Mall, Magrath Road"
  },
  "INCM": {
    "AvailableFormats": "2D",
    "City": "Vizag (Visakhapatnam)",
    "Latitude": "17.7341",
    "Longitude": "83.3182",
    "RegionCode": "SABB",
    "State": "Andhra Pradesh",
    "SubRegionCode": "SABB",
    "VenueAddress": "Survey No. 67, 3rd Floor, CMR Central, Maddilapalem, Dwaraka Nagar, Vizag, Andhra Pradesh 530013, India",
    "VenueCode": "INCM",
    "VenueName": "INOX: CMR Central, Maddilapalem"
  },
  "INGM": {
    "AvailableFormats": "2D|3D",
    "City": "Bhiwadi",
    "Latitude": "28.1915",
    "Longitude": "76.8137",
    "RegionCode": "REWA",
    "State": "Rajasthan",
    "SubRegionCode": "REWA",
    "VenueAddress": "3rd Floor, Genesis Mall, Alwar Bhiwadi Highway, Bhiwadi, Rajasthan 301019, India",
    "VenueCode": "INGM",
    "VenueName": "INOX: Bhiwadi Genesis Mall"
  },
  "INKM": {
    "AvailableFormats": "2D",
    "City": "Hyderabad",
    "Latitude": "17.3453",
    "Longitude": "78.5316",
    "RegionCode": "HYD",
    "State": "Telangana",
    "SubRegionCode": "HYD",
    "VenueAddress": "10-1-99/7A, Karmanghat Road, Thapovan Colony, Lingojiguda, Saroor Nagar East, Hyderabad, Telangana 500035, India",
    "VenueCode": "INKM",
    "VenueName": "Cine Town Indra Nagendra: Karmanghat"
  },
  "INNP": {
    "AvailableFormats": "3D|2D",
    "City": "Mumbai",
    "Latitude": "18.9266",
    "Longitude": "72.8229",
    "RegionCode": "MUMBAI",
    "State": "Maharashtra",
    "SubRegionCode": "MCENT",
    "VenueAddress": "CR 2 Mall, 2nd Floor, Barrister Rajni Patel Marg, Nariman Point, Opposite Bajaj Bhavan, Mumbai, Maharashtra 400021, India",
    "VenueCode": "INNP",
    "VenueName": "INOX Laserplex: CR2, Nariman Point"
  },
  "INPO": {
    "AvailableFormats": "2D|3D",
    "City": "Goa",
    "Latitude": "15.5259",
    "Longitude": "73.8269",
    "RegionCode": "GOA",
    "State": "Goa",
    "SubRegionCode": "GOA",
    "VenueAddress": "Mall De Goa,Edapally, Nova Cidade Commercial Complex, Alto Porvorim, Bardez, Goa, Goa 403521, India",
    "VenueCode": "INPO",
    "VenueName": "INOX: Porvorim, Goa"
  },
  "INRK": {
    "AvailableFormats": "2D|3D",
    "City": "Kolkata",
    "Latitude": "22.623",
    "Longitude": "88.4505",
    "RegionCode": "KOLK",
    "State": "West Bengal",
    "SubRegionCode": "KOLK",
    "VenueAddress": "3rd Floor,City Center 2 Mall, New Town, Rajarhat, Hatiara, Near Chinar Park, Kolkata, West Bengal 700157, India",
    "VenueCode": "INRK",
    "VenueName": "INOX: City Centre II, Rajarhat"
  },
  "INSO": {
    "AvailableFormats": "2D|3D",
    "City": "Siliguri",
    "Latitude": "26.7523",
    "Longitude": "88.4388",
    "RegionCode": "SILI",
    "State": "West Bengal",
    "SubRegionCode": "SILI",
    "VenueAddress": "Near Jai Service Petrol Pump, Near Bhakti Nagar Thana, Salugara, Sevoke Road, Orbit Mall, Siliguri, West Bengal 734001, India",
    "VenueCode": "INSO",
    "VenueName": "INOX: Vega Circle Mall, Siliguri"
  },
  "INVC": {
    "AvailableFormats": "2D",
    "City": "Vizag (Visakhapatnam)",
    "Latitude": "17.7125",
    "Longitude": "83.3013",
    "RegionCode": "VIZA",
    "State": "Andhra Pradesh",
    "SubRegionCode": "VIZA",
    "VenueAddress": "4th Floor, Chitralayaa, Suryabagh, Chitralaya Road, Vizag, Andhra Pradesh 530020, India",
    "VenueCode": "INVC",
    "VenueName": "INOX: Vizag Chitralaya Mall"
  },
  "INWM": {
    "AvailableFormats": "2D|3D",
    "City": "Gurugram (Gurgaon)",
    "Latitude": "28.3976",
    "Longitude": "77.0721",
    "RegionCode": "NCR",
    "State": "NCR",
    "SubRegionCode": "GURG",
    "VenueAddress": "INOX Leisure Ltd, Ground Floor, Tower 5, WorldMark, Maidawas Road, Sec-65, Gurugram (Gurgaon), NCR 122001, India",
    "VenueCode": "INWM",
    "VenueName": "INOX: World Mark, Gurugram"
  },
  "IOSE": {
    "AvailableFormats": "2D",
    "City": "Vellore",
    "Latitude": "12.9679",
    "Longitude": "79.1496",
    "RegionCode": "RANI",
    "State": "Tamil Nadu",
    "SubRegionCode": "RANI",
    "VenueAddress": "2nd Floor, Selvam Square, Selvam Nagar, Thiruvalam Road, Katpadi, Vellore, Tamil Nadu 632007, India",
    "VenueCode": "IOSE",
    "VenueName": "INOX: Selvam Square, Vellore"
  },
  "IPRS": {
    "AvailableFormats": "2D",
    "City": "Hyderabad",
    "Latitude": "17.4423",
    "Longitude": "78.3625",
    "RegionCode": "HYD",
    "State": "Telangana",
    "SubRegionCode": "HYD",
    "VenueAddress": "PVR INOX Limited, 3rd Floor, Prism Mall, Near Gachibowli Cross Roads, Hyderabad, Telangana 500032, India",
    "VenueCode": "IPRS",
    "VenueName": "INOX: Prism Mall, Hyderabad"
  },
  "ISMT": {
    "AvailableFormats": "2D|3D",
    "City": "Tumakuru (Tumkur)",
    "Latitude": "13.3582",
    "Longitude": "77.1031",
    "RegionCode": "TUMK",
    "State": "Karnataka",
    "SubRegionCode": "TUMK",
    "VenueAddress": "INOX Leisure Ltd, 2nd Floor, S Mall, Sira Road, Tumakuru (Tumkur), Karnataka 572106, India",
    "VenueCode": "ISMT",
    "VenueName": "INOX: S Mall, Tumakuru"
  },
  "IZOP": {
    "AvailableFormats": "IMAX 2D",
    "City": "Delhi",
    "Latitude": "28.5472",
    "Longitude": "77.2519",
    "RegionCode": "NCR",
    "State": "NCR",
    "SubRegionCode": "DELHI",
    "VenueAddress": "1st Floor, Paras Cinema Building, Nehru Place, Delhi, NCR 110019, India",
    "VenueCode": "IZOP",
    "VenueName": "INOX: COCA-COLA IMAX Paras, Nehru Place, Delhi"
  },
  "JBCS": {
    "AvailableFormats": "2D",
    "City": "Kollam",
    "Latitude": "8.92847",
    "Longitude": "76.7067",
    "RegionCode": "KOLM",
    "State": "Kerala",
    "SubRegionCode": "KOLM",
    "VenueAddress": "Almavu Mukku Road, Nallila, Puliyila, Near Nallila Post Office, Kollam, Kerala 691515, India",
    "VenueCode": "JBCS",
    "VenueName": "JB Cinemas 4K 3D: Nallila"
  },
  "JCMN": {
    "AvailableFormats": "2D",
    "City": "Bhopal",
    "Latitude": "23.2335",
    "Longitude": "77.434",
    "RegionCode": "BHOP",
    "State": "Madhya Pradesh",
    "SubRegionCode": "BHOP",
    "VenueAddress": "Service Rd, Zone-I, MP Nagar, Near MP Education Board Office, Bhopal, Madhya Pradesh 462023, India",
    "VenueCode": "JCMN",
    "VenueName": "Jyoti Cineplex (New Seats): Bhopal"
  },
  "JEMC": {
    "AvailableFormats": "2D",
    "City": "Chotila",
    "Latitude": "22.4669",
    "Longitude": "71.2678",
    "RegionCode": "CHOT",
    "State": "Gujarat",
    "SubRegionCode": "CHOT",
    "VenueAddress": "NH. 8, A Magharikhada, Near Bitter Beans Cafe and Food Zone, Chotila, Gujarat 363520, India",
    "VenueCode": "JEMC",
    "VenueName": "Jolly Enjoy Multiplex: Chotila"
  },
  "JJCK": {
    "AvailableFormats": "2D",
    "City": "Siddharthnagar",
    "Latitude": "27.2892",
    "Longitude": "83.0831",
    "RegionCode": "SIDZ",
    "State": "Uttar Pradesh",
    "SubRegionCode": "SIDZ",
    "VenueAddress": "Tetri Bazar Town, Tetari Bazar, Siddharthnagar, Uttar Pradesh 272207, India",
    "VenueCode": "JJCK",
    "VenueName": "Jyoti Cineplex: Siddharthnagar"
  },
  "JMAX": {
    "AvailableFormats": "2D",
    "City": "Kochi",
    "Latitude": "10.0231",
    "Longitude": "76.4502",
    "RegionCode": "KOCH",
    "State": "Kerala",
    "SubRegionCode": "KOCH",
    "VenueAddress": "Pattimattom PO,Pattimattom,Kerala, Near South Indian Bank, Kochi, Kerala 683562, India",
    "VenueCode": "JMAX",
    "VenueName": "J MAX  2K 3D Dolby 7.1: PATTIMATTOM"
  },
  "JOTG": {
    "AvailableFormats": "2D",
    "City": "Chennai",
    "Latitude": "13.0061",
    "Longitude": "80.2014",
    "RegionCode": "CHEN",
    "State": "Tamil Nadu",
    "SubRegionCode": "CHEN",
    "VenueAddress": "Alandur - Parangimalai, Parade Road, Near Kathipara Junction, Chennai, Tamil Nadu 600016, India",
    "VenueCode": "JOTG",
    "VenueName": "Jothi Theatre 4K A/c DTS: ST Thomas Mount"
  },
  "JSRS": {
    "AvailableFormats": "2D",
    "City": "Thrissur",
    "Latitude": "10.5224",
    "Longitude": "76.2155",
    "RegionCode": "THSR",
    "State": "Kerala",
    "SubRegionCode": "THSR",
    "VenueAddress": "Kuruppam, Round South, Near Municipal Stand, Thrissur, Kerala 680001, India",
    "VenueCode": "JSRS",
    "VenueName": "Jos Theatre 4K RGB Laser Atmos: Thrissur"
  },
  "JTGN": {
    "AvailableFormats": "2D",
    "City": "Amalapuram",
    "Latitude": "16.5786",
    "Longitude": "81.9984",
    "RegionCode": "AMAP",
    "State": "Andhra Pradesh",
    "SubRegionCode": "AMAP",
    "VenueAddress": "Amalapuram - Gannavaram Road, Next To Zeta Hotels, Near APSRTC Bus Stand, Amalapuram, Andhra Pradesh 533201, India",
    "VenueCode": "JTGN",
    "VenueName": "Sri Ganapathi Picture Palace: Amalapuram"
  },
  "JTMN": {
    "AvailableFormats": "2D",
    "City": "Jaipur",
    "Latitude": "26.8372",
    "Longitude": "75.8339",
    "RegionCode": "JAIP",
    "State": "Rajasthan",
    "SubRegionCode": "JAIP",
    "VenueAddress": "INOX Leisure Ltd, 4th Floor, JTM Mall, Model Town, Malviya Nagar, Jaipur, Rajasthan 302017, India",
    "VenueCode": "JTMN",
    "VenueName": "INOX: JTM Mall, Malviya Nagar"
  },
  "JTPP": {
    "AvailableFormats": "",
    "City": "Anakapalle",
    "FirstTracked": "2026-07-14",
    "Latitude": "17.68772",
    "Longitude": "83.01431",
    "RegionCode": "ANKP",
    "State": "Andhra Pradesh",
    "SubRegionCode": "ANKP",
    "VenueAddress": "No. 10-16-30, Niddanam Doddi, Anakapalle, Andhra Pradesh 531001, India",
    "VenueCode": "JTPP",
    "VenueName": "Sri Satyanarayana Picture Palace AC DTS: Anakapall"
  },
  "JTSN": {
    "AvailableFormats": "2D",
    "City": "Medarametla",
    "Latitude": "15.7221",
    "Longitude": "80.0159",
    "RegionCode": "MDRM",
    "State": "Andhra Pradesh",
    "SubRegionCode": "MDRM",
    "VenueAddress": "Main Road, Near Indian Bank, Medarametla, Andhra Pradesh 523212, India",
    "VenueCode": "JTSN",
    "VenueName": "Sri Narayana Chitralaya: Medarametla"
  },
  "JUGA": {
    "AvailableFormats": "2D",
    "City": "Kanpur",
    "Latitude": "26.4218",
    "Longitude": "80.3734",
    "RegionCode": "KANP",
    "State": "Uttar Pradesh",
    "SubRegionCode": "KANP",
    "VenueAddress": "GT Road, Krishna Nagar, Near State Bank, Kanpur, Uttar Pradesh 208010, India",
    "VenueCode": "JUGA",
    "VenueName": "Jugul Palace Cinema: Kanpur"
  },
  "JYOE": {
    "AvailableFormats": "2D",
    "City": "Dhule",
    "Latitude": "20.9061",
    "Longitude": "74.7762",
    "RegionCode": "DHLE",
    "State": "Maharashtra",
    "SubRegionCode": "DHLE",
    "VenueAddress": "City Survey No. 3488/3A, Kajwe Road, Dhule, Maharashtra 424001, India",
    "VenueCode": "JYOE",
    "VenueName": "Jyoti Chitra Mandir: Dhule"
  },
  "KALW": {
    "AvailableFormats": "",
    "City": "Jaunpur",
    "FirstTracked": "2026-07-14",
    "Latitude": "25.751034",
    "Longitude": "82.68727",
    "RegionCode": "JANP",
    "State": "Uttar Pradesh",
    "SubRegionCode": "JANP",
    "VenueAddress": "Rizwikhan, Near Bhaichara Bhojnalay, Jaunpur, Uttar Pradesh 222001, India",
    "VenueCode": "KALW",
    "VenueName": "Kewal DD Plex: Jaunpur"
  },
  "KAWS": {
    "AvailableFormats": "2D",
    "City": "Sonari",
    "Latitude": "27.028",
    "Longitude": "95.0312",
    "RegionCode": "SOYW",
    "State": "Assam",
    "SubRegionCode": "SOYW",
    "VenueAddress": "Kalpana Motors, Main Road, Sonari, Assam 785690, India",
    "VenueCode": "KAWS",
    "VenueName": "Kalpana Cine World: Sonari"
  },
  "KCJS": {
    "AvailableFormats": "2D",
    "City": "Jhansi",
    "Latitude": "25.4482",
    "Longitude": "78.5675",
    "RegionCode": "JNSI",
    "State": "Uttar Pradesh",
    "SubRegionCode": "JNSI",
    "VenueAddress": "Civil Lines-5, 165, Prathvipur, Jhansi Elite - Shivpuri Road, Behind HDFC Bank, Jhansi, Uttar Pradesh 284001, India",
    "VenueCode": "KCJS",
    "VenueName": "Khilona Cinema: Jhansi"
  },
  "KCPD": {
    "AvailableFormats": "",
    "City": "Kuchipudi",
    "FirstTracked": "2026-07-14",
    "Latitude": "16.255392",
    "Longitude": "80.9153",
    "RegionCode": "KCPD",
    "State": "Andhra Pradesh",
    "SubRegionCode": "KCPD",
    "VenueAddress": "Kopuri Street, Padapudi, Kuchipudi, Andhra Pradesh 521136, India",
    "VenueCode": "KCPD",
    "VenueName": "Satya Sai Theater: Kuchipudi"
  },
  "KDCG": {
    "AvailableFormats": "",
    "City": "Guwahati",
    "FirstTracked": "2026-07-14",
    "Latitude": "26.1789",
    "Longitude": "91.7423",
    "RegionCode": "GUW",
    "State": "Assam",
    "SubRegionCode": "GUW",
    "VenueAddress": "Shradhanjali Complex, A T Road, Fancy Bazaar, Near Railway Gate No. 3, Guwahati, Assam 781001, India",
    "VenueCode": "KDCG",
    "VenueName": "Kelvin Gold Cinema: Guwahati (Newly Opened)"
  },
  "KFVU": {
    "AvailableFormats": "",
    "City": "Vrindavan",
    "Latitude": "27.56726",
    "Longitude": "77.63679",
    "RegionCode": "VRIN",
    "State": "Uttar Pradesh",
    "SubRegionCode": "VRIN",
    "VenueAddress": "Fun Land Vrindavan, Allhepur, Vrindavan, Uttar Pradesh 281121, India",
    "VenueCode": "KFVU",
    "VenueName": "Krishna Funland Cinema: Vrindavan"
  },
  "KINO": {
    "AvailableFormats": "2D",
    "City": "Bengaluru",
    "Latitude": "13.0131",
    "Longitude": "77.7614",
    "RegionCode": "BANG",
    "State": "Karnataka",
    "SubRegionCode": "BANG",
    "VenueAddress": "Survey No. 84, Greenfield Hub, Block C, Seegehalli Road, Kadugodi, Bengaluru, Karnataka 560067, India",
    "VenueCode": "KINO",
    "VenueName": "Kino Cinemas: Seegehalli Kadugodi, Bengaluru"
  },
  "KKUI": {
    "AvailableFormats": "2D",
    "City": "Mumbai",
    "Latitude": "19.3785",
    "Longitude": "72.8287",
    "RegionCode": "MUMBAI",
    "State": "Maharashtra",
    "SubRegionCode": "MWEST",
    "VenueAddress": "Navghar Road, Anand Nagar, Opposite - West Panchal Nagar Walkway, Vasai West, Mumbai, Maharashtra 401202, India",
    "VenueCode": "KKUI",
    "VenueName": "KT Vision Cinema: Vasai(Screen 1)"
  },
  "KMLG": {
    "AvailableFormats": "",
    "City": "Ghaziabad",
    "FirstTracked": "2026-07-14",
    "Latitude": "28.71101",
    "Longitude": "77.29203",
    "RegionCode": "NCR",
    "State": "NCR",
    "SubRegionCode": "GHAZ",
    "VenueAddress": "Loni Border, Behta Hajipur, 201102, Ghaziabad, NCR 201102, India",
    "VenueCode": "KMLG",
    "VenueName": "Kavita Multiplex Loni: Ghaziabad"
  },
  "KOCI": {
    "AvailableFormats": "2D",
    "City": "Jaipur",
    "Latitude": "26.8127",
    "Longitude": "75.7783",
    "RegionCode": "JAIP",
    "State": "Rajasthan",
    "SubRegionCode": "JAIP",
    "VenueAddress": "Station Road, Sanganer, Bharave Colony, Dada Gurudev Nagar, Near Sri Laxmi, Mobile and Repairing, Jaipur, Rajasthan 302029, India",
    "VenueCode": "KOCI",
    "VenueName": "Kohinoor Cinema (Laser Dolby Atmos): Sanganer"
  },
  "KRCC": {
    "AvailableFormats": "2D",
    "City": "Coimbatore",
    "Latitude": "11.0345",
    "Longitude": "76.9274",
    "RegionCode": "COIM",
    "State": "Tamil Nadu",
    "SubRegionCode": "COIM",
    "VenueAddress": "11/52, Thadagam Road, Edayarpalayam, Koilmedu, Coimbatore, Tamil Nadu 641025, India",
    "VenueCode": "KRCC",
    "VenueName": "Krithika Cinemas A/C 4K Dolby : Coimbatore"
  },
  "KRRC": {
    "AvailableFormats": "2D",
    "City": "Palakonda",
    "Latitude": "18.603",
    "Longitude": "83.7585",
    "RegionCode": "PALK",
    "State": "Andhra Pradesh",
    "SubRegionCode": "PALK",
    "VenueAddress": "Government Hospital Road, Near Ramakalamandir Sachivalayam, Palakonda, Andhra Pradesh 532440, India",
    "VenueCode": "KRRC",
    "VenueName": "Sri Rama and Sai Kalamandir A/c DTS: Palakonda"
  },
  "KSES": {
    "AvailableFormats": "2D",
    "City": "Vasco Da Gama",
    "Latitude": "15.3971",
    "Longitude": "73.813",
    "RegionCode": "PANA",
    "State": "Goa",
    "SubRegionCode": "PANA",
    "VenueAddress": "1930 Vasco, Opposite The  HQ, Swatantra Path, Vasco Da Gama, Goa 403802, India",
    "VenueCode": "KSES",
    "VenueName": "1930 Vasco"
  },
  "KSTK": {
    "AvailableFormats": "2D",
    "City": "Chennai",
    "Latitude": "13.0316",
    "Longitude": "80.2065",
    "RegionCode": "CHEN",
    "State": "Tamil Nadu",
    "SubRegionCode": "CHEN",
    "VenueAddress": "No-4, Pillaiyar Koil St, Jafferkhanpet, Chennai, Tamil Nadu 600083, India",
    "VenueCode": "KSTK",
    "VenueName": "Kasi Talkies Dolby Atmos: Ashok Nagar"
  },
  "KTHV": {
    "AvailableFormats": "",
    "City": "Vizag (Visakhapatnam)",
    "Latitude": "17.8998",
    "Longitude": "83.1891",
    "RegionCode": "VIZA",
    "State": "Andhra Pradesh",
    "SubRegionCode": "VIZA",
    "VenueAddress": "Vizianagaram Road, Kothavalasa, Vizag (Visakhapatnam), Andhra Pradesh 535183, India",
    "VenueCode": "KTHV",
    "VenueName": "SLNT Theatre DTS: Kothavalasa"
  },
  "KUMM": {
    "AvailableFormats": "",
    "City": "Rajahmundry",
    "FirstTracked": "2026-07-14",
    "Latitude": "16.996145",
    "Longitude": "81.771095",
    "RegionCode": "RJMU",
    "State": "Andhra Pradesh",
    "SubRegionCode": "RJMU",
    "VenueAddress": "Tyagaraja Nagar, Nyapathi Vari Street, Rajahmundry, Andhra Pradesh 533101, India",
    "VenueCode": "KUMM",
    "VenueName": "Kumari Theatre A/C Dolby: Rajahmundry"
  },
  "LACM": {
    "AvailableFormats": "",
    "City": "Mayiladuthurai",
    "FirstTracked": "2026-07-14",
    "Latitude": "11.095507",
    "Longitude": "79.64919",
    "RegionCode": "MAYI",
    "State": "Tamil Nadu",
    "SubRegionCode": "MAYI",
    "VenueAddress": "Kamarajar Salai, Pasupathi Street, Koranad, Pattamangalam, Mayiladuthurai, Tamil Nadu 609001, India",
    "VenueCode": "LACM",
    "VenueName": "LA Cinemas Gomathi: Mayiladuthurai"
  },
  "LASM": {
    "AvailableFormats": "",
    "City": "Mannargudi",
    "FirstTracked": "2026-07-14",
    "Latitude": "10.66487",
    "Longitude": "79.44533",
    "RegionCode": "MANB",
    "State": "Tamil Nadu",
    "SubRegionCode": "MANB",
    "VenueAddress": "South Street, Mannargudi, Near Apple shopping mall, Mannargudi, Tamil Nadu 614001, India",
    "VenueCode": "LASM",
    "VenueName": "LA CINEMAS SHANTHI A/C DOLBY ATMOS"
  },
  "LCNK": {
    "AvailableFormats": "2D",
    "City": "Kalluru",
    "Latitude": "17.2008",
    "Longitude": "80.55",
    "RegionCode": "KALR",
    "State": "Telangana",
    "SubRegionCode": "KALR",
    "VenueAddress": "Khammam - Sathupally Road, Near Church of Christ, Kalluru, Telangana 507209, India",
    "VenueCode": "LCNK",
    "VenueName": "Lakshmi Cinesquare: Kallur"
  },
  "LEPV": {
    "AvailableFormats": "2D",
    "City": "Mumbai",
    "Latitude": "19.0562",
    "Longitude": "72.8339",
    "RegionCode": "MUMBAI",
    "State": "Maharashtra",
    "SubRegionCode": "MWEST",
    "VenueAddress": "Corner of Hill Road and Water Field Road, Bandra West, Mumbai, Maharashtra 400050, India",
    "VenueCode": "LEPV",
    "VenueName": "PVR: Le Reve-Globus Mall, Bandra West, Mumbai"
  },
  "LJWT": {
    "AvailableFormats": "2D",
    "City": "Ramgarhwa",
    "Latitude": "26.8775",
    "Longitude": "84.7875",
    "RegionCode": "RGHA",
    "State": "Bihar",
    "SubRegionCode": "RGHA",
    "VenueAddress": "Ground Floor, East Champaran, Ramgarhwa, Bihar 845433, India",
    "VenueCode": "LJWT",
    "VenueName": "Arjun Cineplex: Ramgarhwa"
  },
  "LKTO": {
    "AvailableFormats": "2D",
    "City": "Kosgi",
    "Latitude": "16.9886",
    "Longitude": "77.7157",
    "RegionCode": "KOSG",
    "State": "Telangana",
    "SubRegionCode": "KOSG",
    "VenueAddress": "Near Vegetable Market, Mahabubnagar Road, Kosgi, Telangana 509339, India",
    "VenueCode": "LKTO",
    "VenueName": "Lakshmi Theatre: Kosgi"
  },
  "LMTP": {
    "AvailableFormats": "2D",
    "City": "Metpally",
    "Latitude": "18.8512",
    "Longitude": "78.6311",
    "RegionCode": "METT",
    "State": "Telangana",
    "SubRegionCode": "METT",
    "VenueAddress": "Ambedkar Stadium Road, Chaitanya Nagar, Metpally, Telangana 505325, India",
    "VenueCode": "LMTP",
    "VenueName": "Laxmi AC Deluxe Theatre: Metpally"
  },
  "LSRS": {
    "AvailableFormats": "",
    "City": "Faridabad",
    "FirstTracked": "2026-07-14",
    "Latitude": "28.38653",
    "Longitude": "77.3167",
    "RegionCode": "NCR",
    "State": "NCR",
    "SubRegionCode": "FARI",
    "VenueAddress": "2nd Floor City Centre, Sector 12, Faridabad, NCR 121007, India",
    "VenueCode": "LSRS",
    "VenueName": "Legend SRS Cinemas: Faridabad"
  },
  "LXCY": {
    "AvailableFormats": "2D",
    "City": "Yeola",
    "Latitude": "20.0442",
    "Longitude": "74.4859",
    "RegionCode": "YEOL",
    "State": "Maharashtra",
    "SubRegionCode": "YEOL",
    "VenueAddress": "Pardeshi Complex, Shani Patangan, Near Bus Stand, Yeola, Maharashtra 423401, India",
    "VenueCode": "LXCY",
    "VenueName": "Laxmi Cineplex: Yeola"
  },
  "MABC": {
    "AvailableFormats": "2D|3D",
    "City": "Ahmedabad",
    "Latitude": "23.1202",
    "Longitude": "72.5704",
    "RegionCode": "AHD",
    "State": "Gujarat",
    "SubRegionCode": "AHD",
    "VenueAddress": "Near KB Royal Pheonix, Opposite AMC Garden Chandkheda, Ahmedabad, Gujarat 382424, India",
    "VenueCode": "MABC",
    "VenueName": "Mukta A2 Cinemas: Chandkheda"
  },
  "MACZ": {
    "AvailableFormats": "2D|3D",
    "City": "Ahmedabad",
    "Latitude": "22.9929",
    "Longitude": "72.5438",
    "RegionCode": "AHD",
    "State": "Gujarat",
    "SubRegionCode": "AHD",
    "VenueAddress": "Mukta A2 Cinema 7th Floor, Rajyash Rise, Behind Vishala Hotel, Rajyesh City, South Vasana Narol Round, Ahmedabad, Gujarat 380007, India",
    "VenueCode": "MACZ",
    "VenueName": "Mukta A2 Cinemas: Rajyash, South Vasna, Ahmedabad"
  },
  "MAJB": {
    "AvailableFormats": "3D|2D",
    "City": "Mumbai",
    "Latitude": "18.986",
    "Longitude": "72.8359",
    "RegionCode": "MUMBAI",
    "State": "Maharashtra",
    "SubRegionCode": "MCENT",
    "VenueAddress": "Lal Baug, Dr.B.R.Ambedkar Road, Near Voltas Building, Mumbai, Maharashtra 400033, India",
    "VenueCode": "MAJB",
    "VenueName": "Mukta A2 Cinemas: Jai Hind, Lalbaugh"
  },
  "MAPJ": {
    "AvailableFormats": "",
    "City": "Jhajha",
    "FirstTracked": "2026-07-14",
    "Latitude": "24.773512",
    "Longitude": "86.375114",
    "RegionCode": "JHAA",
    "State": "Bihar",
    "SubRegionCode": "JHAA",
    "VenueAddress": "No 827, Bus stand Road, Jhajha, Bihar 811308, India",
    "VenueCode": "MAPJ",
    "VenueName": "Maa Lakhi Cineplex (70mm, Dolby 5.1): Jhajha"
  },
  "MAVO": {
    "AvailableFormats": "2D|3D",
    "City": "Samastipur",
    "Latitude": "25.8496",
    "Longitude": "85.7733",
    "RegionCode": "SMST",
    "State": "Bihar",
    "SubRegionCode": "SMST",
    "VenueAddress": "Fourth Floor, Vinuss One Building, NH 322, Near Pantaloon, Mohanpur, Samastipur, Bihar 848101, India",
    "VenueCode": "MAVO",
    "VenueName": "Mukta A2 Cinemas: Vinuss One Mall, Samastipur"
  },
  "MBCR": {
    "AvailableFormats": "2D|3D",
    "City": "Jodhpur",
    "Latitude": "26.2837",
    "Longitude": "73.0383",
    "RegionCode": "JODH",
    "State": "Rajasthan",
    "SubRegionCode": "JODH",
    "VenueAddress": "Blue City Mall, 3rd Floor, Circuit House Road, Jodhpur, Rajasthan 342001, India",
    "VenueCode": "MBCR",
    "VenueName": "Miraj Cinemas: Blue City Mall, Jodhpur"
  },
  "MCAN": {
    "AvailableFormats": "3D|2D",
    "City": "Ulhasnagar",
    "Latitude": "19.2083",
    "Longitude": "73.1966",
    "RegionCode": "MUMBAI",
    "State": "Maharashtra",
    "SubRegionCode": "ULHA",
    "VenueAddress": "854, Kalyan - Badlapur Road, Wimco Naka Matoshree Nagar, Ambernath, Ulhasnagar, Maharashtra 421505, India",
    "VenueCode": "MCAN",
    "VenueName": "Miraj Cinemas, Star: Ambernath"
  },
  "MCCR": {
    "AvailableFormats": "3D|2D",
    "City": "Chandrapur",
    "Latitude": "19.9774",
    "Longitude": "79.2829",
    "RegionCode": "CHAN",
    "State": "Maharashtra",
    "SubRegionCode": "CHAN",
    "VenueAddress": "MDR Mall and Multiplex, Survey No.-59, Wadgaon Bapat Nagar, Chandrapur, Maharashtra 442401, India",
    "VenueCode": "MCCR",
    "VenueName": "Miraj Cinema: Chandrapur"
  },
  "MCFP": {
    "AvailableFormats": "",
    "City": "Fatehpur",
    "FirstTracked": "2026-07-14",
    "Latitude": "26.03003",
    "Longitude": "80.580124",
    "RegionCode": "FATE",
    "State": "Uttar Pradesh",
    "SubRegionCode": "FATE",
    "VenueAddress": "Kashi Complex, Mughal Road, Near Laluli Chauraha Bindki, Fatehpur, Uttar Pradesh 212635, India",
    "VenueCode": "MCFP",
    "VenueName": "Aryan M Cinemas: Bindki, Fatehpur"
  },
  "MCHP": {
    "AvailableFormats": "",
    "City": "Hoshiarpur",
    "FirstTracked": "2026-07-14",
    "Latitude": "31.528864",
    "Longitude": "75.907646",
    "RegionCode": "HOSH",
    "State": "Punjab",
    "SubRegionCode": "HOSH",
    "VenueAddress": "Js Eminent Mall, Sutheri Road, Manavta Nagar, Hoshiarpur, Punjab 146001, India",
    "VenueCode": "MCHP",
    "VenueName": "Miraj Cinemas: Hoshiarpur"
  },
  "MCKO": {
    "AvailableFormats": "2D",
    "City": "Kolkata",
    "Latitude": "22.5973",
    "Longitude": "88.3719",
    "RegionCode": "KOLK",
    "State": "West Bengal",
    "SubRegionCode": "KOLK",
    "VenueAddress": "136/2, Bidhan Sarani, Shyam Bazar, Sovabazar, Hati Bagan, Kolkata, West Bengal 700004, India",
    "VenueCode": "MCKO",
    "VenueName": "Minar Cinema: Kolkata"
  },
  "MCMP": {
    "AvailableFormats": "",
    "City": "Patna",
    "Latitude": "25.6178",
    "Longitude": "85.1488",
    "RegionCode": "PATN",
    "State": "Bihar",
    "SubRegionCode": "PATN",
    "VenueAddress": "Gandhi Maidan Road, Bakerganj, Patna, Bihar 800004, India",
    "VenueCode": "MCMP",
    "VenueName": "Mona: Christie 4K RGB Laser & Dolby Atmos"
  },
  "MCRL": {
    "AvailableFormats": "2D|3D",
    "City": "Kanpur",
    "Latitude": "26.4564",
    "Longitude": "80.3342",
    "RegionCode": "KANP",
    "State": "Uttar Pradesh",
    "SubRegionCode": "KANP",
    "VenueAddress": "Ratan Elegance, Afim Kothi Chauraha, 86/275, Rajpurwa, Kanpur, Uttar Pradesh 208012, India",
    "VenueCode": "MCRL",
    "VenueName": "Movietime Cinemas: Ratan Elegance, Kanpur"
  },
  "MCSR": {
    "AvailableFormats": "",
    "City": "Saharanpur",
    "FirstTracked": "2026-07-14",
    "Latitude": "29.92732",
    "Longitude": "77.52606",
    "RegionCode": "SAHA",
    "State": "Uttar Pradesh",
    "SubRegionCode": "SAHA",
    "VenueAddress": "GNG Mall, 91-93, 2nd floor, Mavikaala, Pant Vihar, South Saharanpur, Near Standard Chartered Bank, Saharanpur, Uttar Pradesh 247001, India",
    "VenueCode": "MCSR",
    "VenueName": "Miraj Cinemas: Saharanpur, Uttar Pradesh"
  },
  "MCVD": {
    "AvailableFormats": "2D",
    "City": "Vadodara",
    "Latitude": "22.3194",
    "Longitude": "73.1589",
    "RegionCode": "VAD",
    "State": "Gujarat",
    "SubRegionCode": "VAD",
    "VenueAddress": "3rd Floor, S-Square Complex, Above Dominos, Subhanpura, Beside Ganga Jamuna Hospital, Vadodara, Gujarat 390023, India",
    "VenueCode": "MCVD",
    "VenueName": "Movietime: S-Square Mall, Subhanpura, Vadodara"
  },
  "MDGJ": {
    "AvailableFormats": "2D",
    "City": "Daltonganj",
    "Latitude": "24.0411",
    "Longitude": "84.0651",
    "RegionCode": "DATG",
    "State": "Jharkhand",
    "SubRegionCode": "DATG",
    "VenueAddress": "Near Jalihata Bus Stand, Daltonganj Road, Pahari Muhalla, Medininagar, Daltonganj, Jharkhand 822101, India",
    "VenueCode": "MDGJ",
    "VenueName": "Mohan Cinema: Daltonganj"
  },
  "MEER": {
    "AvailableFormats": "2D",
    "City": "Rajapalayam",
    "Latitude": "9.4487",
    "Longitude": "77.5596",
    "RegionCode": "RAYM",
    "State": "Tamil Nadu",
    "SubRegionCode": "RAYM",
    "VenueAddress": "61,Ashok Talkies Road, Rajapalayam,Virudhunagar, Near Rajapalayam Railway Station, Rajapalayam, Tamil Nadu 626117, India",
    "VenueCode": "MEER",
    "VenueName": "Meenakshi Cinemas Dolby Atmos A/C 4K: Rajapalayam"
  },
  "METE": {
    "AvailableFormats": "2D",
    "City": "Erattupetta",
    "Latitude": "9.68921",
    "Longitude": "76.7768",
    "RegionCode": "ERAT",
    "State": "Kerala",
    "SubRegionCode": "ERAT",
    "VenueAddress": "Kaduvamuzhi, Erattupetta, Near Erattupetta Police Station, Erattupetta, Kerala 686121, India",
    "VenueCode": "METE",
    "VenueName": "Rajans Metro A/C: Erattupetta"
  },
  "MHCL": {
    "AvailableFormats": "2D",
    "City": "Siddhpur",
    "Latitude": "23.9244",
    "Longitude": "72.363",
    "RegionCode": "SIDD",
    "State": "Gujarat",
    "SubRegionCode": "SIDD",
    "VenueAddress": "Ground and 1st Floor, Samarth Complex, Tavadia Char Rasta, Siddhpur, Gujarat 384151, India",
    "VenueCode": "MHCL",
    "VenueName": "Movie Hub (City Light Cinema): Siddhpur"
  },
  "MIMU": {
    "AvailableFormats": "3D|2D",
    "City": "Ghaziabad",
    "Latitude": "28.6791",
    "Longitude": "77.3589",
    "RegionCode": "NCR",
    "State": "NCR",
    "SubRegionCode": "GHAZ",
    "VenueAddress": "Laxmi Plaza Block 7 Sector 5, Rajendra Nagar, Opposite To Central Bank Of India, Ghaziabad, NCR 201006, India",
    "VenueCode": "MIMU",
    "VenueName": "Miraj Cinemas: M4U, Sahibabad"
  },
  "MJMC": {
    "AvailableFormats": "2D",
    "City": "Jiaganj",
    "Latitude": "24.2375",
    "Longitude": "88.2642",
    "RegionCode": "JAGJ",
    "State": "West Bengal",
    "SubRegionCode": "JAGJ",
    "VenueAddress": "Old Laxmi Talkies, Chudipatti Road, Jiaganj, West Bengal 742123, India",
    "VenueCode": "MJMC",
    "VenueName": "Mahabir Jain Municipalty Cultural: Jiaganj"
  },
  "MKMP": {
    "AvailableFormats": "2D|3D",
    "City": "Chittorgarh",
    "Latitude": "24.8821",
    "Longitude": "74.6355",
    "RegionCode": "COTT",
    "State": "Rajasthan",
    "SubRegionCode": "COTT",
    "VenueAddress": "3rd Floor, Maharani Padmini Mall, Near Panna Dhay Bus Stand, Chittorgarh, Rajasthan 312001, India",
    "VenueCode": "MKMP",
    "VenueName": "Mukta A2 Cinema: Maharani Padmini Mall,Chittorgarh"
  },
  "MLDP": {
    "AvailableFormats": "",
    "City": "Dehradun",
    "FirstTracked": "2026-07-14",
    "Latitude": "30.289",
    "Longitude": "77.9991",
    "RegionCode": "DEH",
    "State": "Uttarakhand",
    "SubRegionCode": "DEH",
    "VenueAddress": "The City Junction, 2nd Floor, Adjoining ISBT Dehradun, Haridwar Byepass Road, Dehradun, Uttarakhand 248001, India",
    "VenueCode": "MLDP",
    "VenueName": "Microcineplex Cinema: Dehradun"
  },
  "MMCJ": {
    "AvailableFormats": "2D",
    "City": "Jasdan",
    "Latitude": "22.0243",
    "Longitude": "71.1793",
    "RegionCode": "JASD",
    "State": "Gujarat",
    "SubRegionCode": "JASD",
    "VenueAddress": "Ring Road, Atkot Road, Aanand Nagar, Jasdan, Gujarat 360050, India",
    "VenueCode": "MMCJ",
    "VenueName": "Miraj Cinemas: Citypride Multiplex, Jasdan"
  },
  "MMKC": {
    "AvailableFormats": "2D",
    "City": "Chennai",
    "Latitude": "12.9198",
    "Longitude": "80.1957",
    "RegionCode": "CHEN",
    "State": "Tamil Nadu",
    "SubRegionCode": "CHEN",
    "VenueAddress": "No. 4/347 Velachery Main Road, Medavakkam, Chennai, Tamil Nadu 600100, India",
    "VenueCode": "MMKC",
    "VenueName": "Medavakkam Kumaran Cinemas RGB LASER Dolby Atmos"
  },
  "MMOC": {
    "AvailableFormats": "2D",
    "City": "Ghaziabad",
    "Latitude": "28.7354",
    "Longitude": "77.285",
    "RegionCode": "NCR",
    "State": "NCR",
    "SubRegionCode": "GHAZ",
    "VenueAddress": "D-Block No. 2, Near Bus Stand, Loni, Ghaziabad, NCR 201102, India",
    "VenueCode": "MMOC",
    "VenueName": "Movie Magic Cinema: Ghaziabad"
  },
  "MMTR": {
    "AvailableFormats": "2D",
    "City": "Kottayam",
    "Latitude": "9.5866",
    "Longitude": "76.5213",
    "RegionCode": "ETTU",
    "State": "Kerala",
    "SubRegionCode": "ETTU",
    "VenueAddress": "Main Central Road, Kollam - Theni Highway, Near BSNL Bhavan, Kottayam, Kerala 686001, India",
    "VenueCode": "MMTR",
    "VenueName": "Dhanya Remya: Kottayam"
  },
  "MMZM": {
    "AvailableFormats": "2D",
    "City": "Indore",
    "Latitude": "22.7525",
    "Longitude": "75.8969",
    "RegionCode": "IND",
    "State": "Madhya Pradesh",
    "SubRegionCode": "IND",
    "VenueAddress": "Mangal City, Plot No.A-1, PU-4, Garipipliya Road Scheme No.54, Vijay Nagar, Indore, Madhya Pradesh 452010, India",
    "VenueCode": "MMZM",
    "VenueName": "Mangal Multiplex: Indore"
  },
  "MNRL": {
    "AvailableFormats": "2D",
    "City": "Kallur",
    "Latitude": "13.5572",
    "Longitude": "78.9892",
    "RegionCode": "KLUR",
    "State": "Andhra Pradesh",
    "SubRegionCode": "KLUR",
    "VenueAddress": "Kallur - Punganur Road, Near SRK gardens, Kallur, Andhra Pradesh 517113, India",
    "VenueCode": "MNRL",
    "VenueName": "MNR Cinemax - Prabhakar Picture Palace: Kallur(AP)"
  },
  "MPTT": {
    "AvailableFormats": "2D",
    "City": "Tirupati",
    "Latitude": "13.6302",
    "Longitude": "79.4239",
    "RegionCode": "TIRU",
    "State": "Andhra Pradesh",
    "SubRegionCode": "TIRU",
    "VenueAddress": "Jayasam Road, Tata Nagar, Tirupati, Andhra Pradesh 517501, India",
    "VenueCode": "MPTT",
    "VenueName": "Pratap Delux A/c 2k Dolby Atmos: Tirupati"
  },
  "MRGT": {
    "AvailableFormats": "3D|2D",
    "City": "Hyderabad",
    "Latitude": "17.4938",
    "Longitude": "78.3193",
    "RegionCode": "HYD",
    "State": "Telangana",
    "SubRegionCode": "HYD",
    "VenueAddress": "H.No 5 - 54, Manjeera Road, Chandanagar, Beside Andhra Bank, Hyderabad, Telangana 500050, India",
    "VenueCode": "MRGT",
    "VenueName": "Miraj Cinemas: Geeta, Chandanagar"
  },
  "MRSW": {
    "AvailableFormats": "2D|3D",
    "City": "Vadodara",
    "Latitude": "22.2803",
    "Longitude": "73.1497",
    "RegionCode": "VAD",
    "State": "Gujarat",
    "SubRegionCode": "VAD",
    "VenueAddress": "Plot No. 28, Ward No. 11, Next to Sun Pharma Research Center, Sun Pharma Road, Soudagar Park, Tandalja, Vadodara, Gujarat 390012, India",
    "VenueCode": "MRSW",
    "VenueName": "Miraj Cinemas: SWC Mall"
  },
  "MSDR": {
    "AvailableFormats": "",
    "City": "Madanapalle",
    "FirstTracked": "2026-07-14",
    "Latitude": "13.55864",
    "Longitude": "78.50057",
    "RegionCode": "MDNP",
    "State": "Andhra Pradesh",
    "SubRegionCode": "MDNP",
    "VenueAddress": "Krishna Nagar, Marpuri Steet Road, Madanapalle, Andhra Pradesh 517325, India",
    "VenueCode": "MSDR",
    "VenueName": "Mini Siddartha 2K A/c Digital Surround:Madanapalle"
  },
  "MTAR": {
    "AvailableFormats": "2D",
    "City": "Rajgangpur",
    "Latitude": "22.1913",
    "Longitude": "84.5893",
    "RegionCode": "RJGR",
    "State": "Odisha",
    "SubRegionCode": "RJGR",
    "VenueAddress": "Subhas Chowk, R.G.P Main Road, Near DHP Shah Hindustan Petrol Pump, Rajgangpur, Odisha 770017, India",
    "VenueCode": "MTAR",
    "VenueName": "Milan Talkies: Rajgangpur"
  },
  "MTCV": {
    "AvailableFormats": "",
    "City": "Gurugram (Gurgaon)",
    "FirstTracked": "2026-07-14",
    "Latitude": "28.5364",
    "Longitude": "77.0185",
    "RegionCode": "NCR",
    "State": "NCR",
    "SubRegionCode": "GURG",
    "VenueAddress": "2nd Floor, VSR Avenue Sector 114, Gurugram (Gurgaon), NCR 122017, India",
    "VenueCode": "MTCV",
    "VenueName": "Movietime Cinema: VSR 114 Avenue Sec 114 Gurgaon"
  },
  "MTKT": {
    "AvailableFormats": "",
    "City": "Tirupur",
    "FirstTracked": "2026-07-14",
    "Latitude": "11.273499",
    "Longitude": "77.41322",
    "RegionCode": "TIRP",
    "State": "Tamil Nadu",
    "SubRegionCode": "TIRP",
    "VenueAddress": "Kunnathur, Tirupur, Tamil Nadu, Near SV Hospital, Tirupur, Tamil Nadu 638103, India",
    "VenueCode": "MTKT",
    "VenueName": "Mohan Theatre: Kunnathur"
  },
  "MTPP": {
    "AvailableFormats": "3D|2D",
    "City": "Delhi",
    "Latitude": "28.7058",
    "Longitude": "77.1428",
    "RegionCode": "NCR",
    "State": "NCR",
    "SubRegionCode": "DELHI",
    "VenueAddress": "1st Floor, North Pacific Mall, KP Block Pitampura, Near Hotel City Park, Delhi, NCR 110088, India",
    "VenueCode": "MTPP",
    "VenueName": "Movietime Cinemas: Pitampura"
  },
  "MUAA": {
    "AvailableFormats": "",
    "City": "Hyderabad",
    "FirstTracked": "2026-07-14",
    "Latitude": "17.385727",
    "Longitude": "78.47715",
    "RegionCode": "AUSH",
    "State": "Telangana",
    "SubRegionCode": "AUSH",
    "VenueAddress": "Ramakrishna 35mm, JN Road, Abids, Hyderabad, Telangana 500001, India",
    "VenueCode": "MUAA",
    "VenueName": "Mukta A2 Cinemas, Ramakrishna: Abids"
  },
  "MVEX": {
    "AvailableFormats": "",
    "City": "Balasore",
    "FirstTracked": "2026-07-14",
    "Latitude": "21.560041",
    "Longitude": "86.98362",
    "RegionCode": "BLSR",
    "State": "Odisha",
    "SubRegionCode": "BLSR",
    "VenueAddress": "Maa Ambica Enterprises, O.T. Road, Near HP Petrol Pump, Balasore, Odisha 756003, India",
    "VenueCode": "MVEX",
    "VenueName": "MovieEX Cinema: Balasore"
  },
  "MXCB": {
    "AvailableFormats": "",
    "City": "Bikaner",
    "FirstTracked": "2026-07-14",
    "Latitude": "27.99357",
    "Longitude": "73.32065",
    "RegionCode": "BIK",
    "State": "Rajasthan",
    "SubRegionCode": "BIK",
    "VenueAddress": "Road No 5, Agarsen Nagar, Rani Bazar, Kishmideshar, Near Industrial Area, Bikaner, Rajasthan 334001, India",
    "VenueCode": "MXCB",
    "VenueName": "MovieMax: Cinemagic, Bikaner"
  },
  "MYCP": {
    "AvailableFormats": "2D",
    "City": "Gorakhpur",
    "Latitude": "26.747",
    "Longitude": "83.3562",
    "RegionCode": "GRKP",
    "State": "Uttar Pradesh",
    "SubRegionCode": "GRKP",
    "VenueAddress": "Bade Kajipur, Geeta Press Road, Near Kothe Wali Masjid, Gorakhpur, Uttar Pradesh 273005, India",
    "VenueCode": "MYCP",
    "VenueName": "Maya Cineplex: Gorakhpur"
  },
  "MYTK": {
    "AvailableFormats": "2D",
    "City": "Morena",
    "Latitude": "26.4965",
    "Longitude": "77.9884",
    "RegionCode": "MRMP",
    "State": "Madhya Pradesh",
    "SubRegionCode": "MRMP",
    "VenueAddress": "H B Colony, Nainagarh Road, Nearby B.N Garden, Morena, Madhya Pradesh 476001, India",
    "VenueCode": "MYTK",
    "VenueName": "Mayur Talkies: Morena"
  },
  "NAMD": {
    "AvailableFormats": "2D",
    "City": "Ahmedabad",
    "Latitude": "23.0326",
    "Longitude": "72.5083",
    "RegionCode": "AHD",
    "State": "Gujarat",
    "SubRegionCode": "AHD",
    "VenueAddress": "Ground and First Floor, Block O, Mondeal Retail Park, S G Road, Ahmedabad, Gujarat 380059, India",
    "VenueCode": "NAMD",
    "VenueName": "1,Newfangled Miniplex (Twin Seat): Mondeal Park"
  },
  "NCHJ": {
    "AvailableFormats": "2D",
    "City": "Hajipur",
    "Latitude": "25.6942",
    "Longitude": "85.215",
    "RegionCode": "HAJI",
    "State": "Bihar",
    "SubRegionCode": "HAJI",
    "VenueAddress": "Ram Balak Chowk, Naveen Cinema Road, JP Colony, Yadav Nagar, Near Commmunity Hall, Hajipur, Bihar 844101, India",
    "VenueCode": "NCHJ",
    "VenueName": "Navin Cinema: Hajipur"
  },
  "NCPM": {
    "AvailableFormats": "2D",
    "City": "Parbhani",
    "Latitude": "19.2664",
    "Longitude": "76.7624",
    "RegionCode": "PARB",
    "State": "Maharashtra",
    "SubRegionCode": "PARB",
    "VenueAddress": "National Highway 222, Masoom Colony, Jintoor Road, Parbhani, Maharashtra 431401, India",
    "VenueCode": "NCPM",
    "VenueName": "Naresh Cineplex: Parbhani"
  },
  "NEDD": {
    "AvailableFormats": "2D",
    "City": "Dehradun",
    "Latitude": "30.3265",
    "Longitude": "78.0434",
    "RegionCode": "DEH",
    "State": "Uttarakhand",
    "SubRegionCode": "DEH",
    "VenueAddress": "Rajpur Road, Gandhi Park, Chukkuwala, Near Police Station, Dehradun, Uttarakhand 248001, India",
    "VenueCode": "NEDD",
    "VenueName": "FUN Cinemas New Empire: Dehradun"
  },
  "NJCJ": {
    "AvailableFormats": "2D|3D",
    "City": "Jhansi",
    "Latitude": "25.4482",
    "Longitude": "78.567",
    "RegionCode": "JNSI",
    "State": "Uttar Pradesh",
    "SubRegionCode": "JNSI",
    "VenueAddress": "Civil Lines, Shivpuri - Jhansi Road, Jhansi, Uttar Pradesh 284001, India",
    "VenueCode": "NJCJ",
    "VenueName": "Nataraj Cinema: Jhansi"
  },
  "NMAD": {
    "AvailableFormats": "2D",
    "City": "Ahmedabad",
    "Latitude": "23.1023",
    "Longitude": "72.5945",
    "RegionCode": "AHD",
    "State": "Gujarat",
    "SubRegionCode": "AHD",
    "VenueAddress": "312, 3 Floor, North Plaza, Motera, Near 4D Square Mall, Ahmedabad, Gujarat 380005, India",
    "VenueCode": "NMAD",
    "VenueName": "2,Newfangled Miniplex (Twin Seat): Motera"
  },