{
  "AACK": {
    "AvailableFormats": "",
    "City": "Kasdol",
    "FirstTracked": "2026-07-14",
    "Latitude": "21.621115",
    "Longitude": "82.424225",
    "RegionCode": "KASD",
    "State": "Chhattisgarh",
    "SubRegionCode": "KASD",
    "VenueAddress": "89/3,State Highway 14, Opposite Metro Studio, Kasdol, Chhattisgarh 493335, India",
    "VenueCode": "AACK",
    "VenueName": "Shri Balaji Cinema (Airconditioned): Kasdol"
  },
  "AAME": {
    "AvailableFormats": "2D",
    "City": "Deesa",
    "Latitude": "24.2421",
    "Longitude": "72.1826",
    "RegionCode": "DEES",
    "State": "Gujarat",
    "SubRegionCode": "DEES",
    "VenueAddress": "Multiplex Entertainment Complex, Patan Cross Road, Deesa, Gujarat 385535, India",
    "VenueCode": "AAME",
    "VenueName": "Shree Ram Multiplex: Deesa"
  },
  "AAVB": {
    "AvailableFormats": "2D",
    "City": "Vijayapura (Bijapur)",
    "Latitude": "16.8338",
    "Longitude": "75.7151",
    "RegionCode": "VJPR",
    "State": "Karnataka",
    "SubRegionCode": "VJPR",
    "VenueAddress": "Ram Mandir Road, Behind Sideshwara Gudi, Sholapur, Vijayapura (Bijapur), Karnataka 586101, India",
    "VenueCode": "AAVB",
    "VenueName": "Amir Talkies: Vijayapura (Bijapur)"
  },
  "ABMP": {
    "AvailableFormats": "2D",
    "City": "Ahmedabad",
    "Latitude": "23.025",
    "Longitude": "72.5295",
    "RegionCode": "AHD",
    "State": "Gujarat",
    "SubRegionCode": "AHD",
    "VenueAddress": "Sheetal Varsha 5, 512 A, Suryapooja Block B, Satellite Road, Ahmedabad, Gujarat 380013, India",
    "VenueCode": "ABMP",
    "VenueName": "AB Miniplex: Shivranjini Cross Road, Satellite"
  },
  "ACAT": {
    "AvailableFormats": "2D",
    "City": "Ashta",
    "Latitude": "23.021",
    "Longitude": "76.726",
    "RegionCode": "ASTA",
    "State": "Madhya Pradesh",
    "SubRegionCode": "ASTA",
    "VenueAddress": "Sai Colony, Ashta, Ashta, Madhya Pradesh 466116, India",
    "VenueCode": "ACAT",
    "VenueName": "Anshay Chitralay: Ashta"
  },
  "ACHI": {
    "AvailableFormats": "2D",
    "City": "Hyderabad",
    "Latitude": "17.4923",
    "Longitude": "78.452",
    "RegionCode": "HYD",
    "State": "Telangana",
    "SubRegionCode": "HYD",
    "VenueAddress": "Jeedimetla Main Road, Ganesh Nagar, Jeedimetla, Dee Nagar, Balanagar, Hyderabad, Telangana 500037, India",
    "VenueCode": "ACHI",
    "VenueName": "Asian Sha & Shahensha: Chintal"
  },
  "ACKB": {
    "AvailableFormats": "2D",
    "City": "Bengaluru",
    "Latitude": "12.977726",
    "Longitude": "77.575961",
    "RegionCode": "BANG",
    "State": "Karnataka",
    "SubRegionCode": "BANG",
    "VenueAddress": "No-300/1, S.C.Road, Gandhinagar, Next To Movieland Theatre, Bengaluru, Karnataka 560009, India",
    "VenueCode": "ACKB",
    "VenueName": "AMB Cinemas Kapali: Bengaluru"
  },
  "ACMR": {
    "AvailableFormats": "2D",
    "City": "Mattannur",
    "Latitude": "11.9289",
    "Longitude": "75.5724",
    "RegionCode": "MATT",
    "State": "Kerala",
    "SubRegionCode": "MATT",
    "VenueAddress": "Indira Nagar, Mattannur,Kerala, Near Links Mall, Mattannur, Kerala 670702, India",
    "VenueCode": "ACMR",
    "VenueName": "Aura Cinemas: Mattannur"
  },
  "ACPV": {
    "AvailableFormats": "",
    "City": "Piravom",
    "Latitude": "9.8722",
    "Longitude": "76.4866",
    "RegionCode": "KOCH",
    "State": "Kerala",
    "SubRegionCode": "KOCH",
    "VenueAddress": "Kaduthuruthy Road, Kochi, Piravom, Kerala 686664, India",
    "VenueCode": "ACPV",
    "VenueName": "Aashirvad Cineplexx: Piravom"
  },
  "ACVM": {
    "AvailableFormats": "2D",
    "City": "Chennai",
    "Latitude": "13.1047",
    "Longitude": "80.209",
    "RegionCode": "PONE",
    "State": "Tamil Nadu",
    "SubRegionCode": "PONE",
    "VenueAddress": "No. 1/1, Mettu Street Villivakkam, Behind, Villivakkam Bus Depot, Chennai, Tamil Nadu 600049, India",
    "VenueCode": "ACVM",
    "VenueName": "AGS Cinemas: Villivakkam"
  },
  "ADCR": {
    "AvailableFormats": "2D",
    "City": "Bengaluru",
    "Latitude": "13.0145",
    "Longitude": "77.516",
    "RegionCode": "HOKT",
    "State": "Karnataka",
    "SubRegionCode": "HOKT",
    "VenueAddress": "Bldg No 135/3, Rajeshwari Theatre Road, Laggere, Near Friends Circle, Bengaluru, Karnataka 560058, India",
    "VenueCode": "ADCR",
    "VenueName": "Akash Cinemas: Laggere"
  },
  "AECE": {
    "AvailableFormats": "",
    "City": "Alappuzha",
    "FirstTracked": "2026-07-14",
    "Latitude": "9.498583",
    "Longitude": "76.3431",
    "RegionCode": "ALPZ",
    "State": "Kerala",
    "SubRegionCode": "ALPZ",
    "VenueAddress": "AVJ Junction, Erezha, Mullakkal, Alappuzha, Kerala 688011, India",
    "VenueCode": "AECE",
    "VenueName": "AEC Cinemas: Alappuzha"
  },
  "AHMH": {
    "AvailableFormats": "",
    "City": "Hyderabad",
    "FirstTracked": "2026-07-14",
    "Latitude": "17.402218",
    "Longitude": "78.57199",
    "RegionCode": "AUSH",
    "State": "Telangana",
    "SubRegionCode": "AUSH",
    "VenueAddress": "Survey No. 99, Asian Cine Square Mall, Shanthi Nagar, Warangal Road, Besides Indian Oil Petrol Pump, Uppal, Hyderabad, Telangana 500039, India",
    "VenueCode": "AHMH",
    "VenueName": "Asian CineSquare Multiplex: Uppal"
  },
  "AKFC": {
    "AvailableFormats": "2D",
    "City": "Alakode",
    "Latitude": "12.1785",
    "Longitude": "75.4649",
    "RegionCode": "ALAK",
    "State": "Kerala",
    "SubRegionCode": "ALAK",
    "VenueAddress": "Kottayadu Kavala, Malabar Hill Highway, Near St.Marys Forane Church, Alakode, Kerala 670571, India",
    "VenueCode": "AKFC",
    "VenueName": "Alakode Film City 4K Dolby Atmos"
  },
  "AKYJ": {
    "AvailableFormats": "",
    "City": "Hyderabad",
    "Latitude": "17.4796",
    "Longitude": "78.4175",
    "RegionCode": "HYD",
    "State": "Telangana",
    "SubRegionCode": "HYD",
    "VenueAddress": "INOX Leisure Ltd,3rd Floor, Ashoka One Mall, Kukatpally Y-Junction, Hyderabad, Telangana 500072, India",
    "VenueCode": "AKYJ",
    "VenueName": "INOX: Ashoka One, 4K LASER Dolby ATMOS: Kukatpally"
  },
  "ALSN": {
    "AvailableFormats": "2D|3D",
    "City": "Kantabanji",
    "Latitude": "20.5061",
    "Longitude": "82.9221",
    "RegionCode": "KTBJ",
    "State": "Odisha",
    "SubRegionCode": "KTBJ",
    "VenueAddress": "Lathkend, PO - Salandi, PS - Belpada, Kantabanji, Odisha 767026, India",
    "VenueCode": "ALSN",
    "VenueName": "Alishan Central: Kantabanji"
  },
  "AMCD": {
    "AvailableFormats": "2D",
    "City": "Delhi",
    "Latitude": "28.6774",
    "Longitude": "77.2012",
    "RegionCode": "NCR",
    "State": "NCR",
    "SubRegionCode": "DELHI",
    "VenueAddress": "GT Road, Ghanta Ghar, Subzi Mandi, Block 40, Shakti Nagar, Near Clock Tower, Delhi, NCR 110007, India",
    "VenueCode": "AMCD",
    "VenueName": "Amba Cinema: Delhi"
  },
  "AMKN": {
    "AvailableFormats": "3D|2D",
    "City": "Nagpur",
    "Latitude": "21.2663",
    "Longitude": "79.0873",
    "RegionCode": "NAGP",
    "State": "Maharashtra",
    "SubRegionCode": "NAGP",
    "VenueAddress": "A M Cinema, Near Naivedhyam Cele, New Nanda, Koradi, Nagpur, Maharashtra 441111, India",
    "VenueCode": "AMKN",
    "VenueName": "AM Cinema: Koradi, Nagpur"
  },
  "AMSN": {
    "AvailableFormats": "2D",
    "City": "Karimnagar",
    "Latitude": "18.442650",
    "Longitude": "79.138599",
    "RegionCode": "KARIM",
    "State": "Telangana",
    "SubRegionCode": "KARIM",
    "VenueAddress": "SN Pride Mall, 2nd Floor, Gandhi Road, Kisan Nagar, Karimnagar, Telangana 505451, India",
    "VenueCode": "AMSN",
    "VenueName": "1 Cinemas by Asian Mukta A2 Cinemas, SN Pride Mall"
  },
  "ANCB": {
    "AvailableFormats": "2D",
    "City": "Barmer",
    "Latitude": "25.7618",
    "Longitude": "71.4177",
    "RegionCode": "BARM",
    "State": "Rajasthan",
    "SubRegionCode": "BARM",
    "VenueAddress": "NH25, Baldev Nagar, Uttarlai Road, Barmer, Rajasthan 344001, India",
    "VenueCode": "ANCB",
    "VenueName": "Aanchal Cinema: Barmer"
  },
  "ANLS": {
    "AvailableFormats": "2D|3D",
    "City": "Shillong",
    "Latitude": "25.5738",
    "Longitude": "91.877",
    "RegionCode": "SHLG",
    "State": "Meghalaya",
    "SubRegionCode": "SHLG",
    "VenueAddress": "Anjalee Complex, 25 Cantonment, Shillong, Meghalaya 793001, India",
    "VenueCode": "ANLS",
    "VenueName": "Anjalee Cinema: Shillong"
  },
  "ANTM": {
    "AvailableFormats": "2D",
    "City": "Mangalagiri",
    "Latitude": "16.4263",
    "Longitude": "80.5671",
    "RegionCode": "MGLR",
    "State": "Andhra Pradesh",
    "SubRegionCode": "MGLR",
    "VenueAddress": "Trunk Road, Near - St.Francis English Medium School., Mangalagiri, Andhra Pradesh 522503, India",
    "VenueCode": "ANTM",
    "VenueName": "Annapurna Theater A/C Dts 2K: Mangalagiri"
  },
  "APCL": {
    "AvailableFormats": "2D",
    "City": "Ahmedabad",
    "Latitude": "23.0388",
    "Longitude": "72.6286",
    "RegionCode": "AHD",
    "State": "Gujarat",
    "SubRegionCode": "AHD",
    "VenueAddress": "3rd Floor, White House, India Colony Char Rasta, Bapunagar, Opposite Shyam Shikhar Complex, Ahmedabad, Gujarat 380024, India",
    "VenueCode": "APCL",
    "VenueName": "Apple Cinema: Bapunagar"
  },
  "APPX": {
    "AvailableFormats": "2D",
    "City": "Ahmedabad",
    "Latitude": "23.0025",
    "Longitude": "72.5901",
    "RegionCode": "AHD",
    "State": "Gujarat",
    "SubRegionCode": "AHD",
    "VenueAddress": "4, Jyoti Colony, Kankaria, Maninagar, Gita Mandir Road, Near Bhakta Vallabh Dhola Vidya Vihar, Ahmedabad, Gujarat 380002, India",
    "VenueCode": "APPX",
    "VenueName": "Apple Multiplex: Maninagar, Ahmedabad"
  },
  "APTS": {
    "AvailableFormats": "2D",
    "City": "Samastipur",
    "Latitude": "25.8609",
    "Longitude": "85.7938",
    "RegionCode": "SMST",
    "State": "Bihar",
    "SubRegionCode": "SMST",
    "VenueAddress": "Bahadurpur, Samastipur, Samastipur, Bihar 848101, India",
    "VenueCode": "APTS",
    "VenueName": "Anuroop Talkies: Samastipur"
  },
  "ARDC": {
    "AvailableFormats": "2D|3D",
    "City": "Chhatrapati Sambhajinagar (Aurangabad)",
    "Latitude": "19.8847",
    "Longitude": "75.3231",
    "RegionCode": "AURA",
    "State": "Maharashtra",
    "SubRegionCode": "AURA",
    "VenueAddress": "1, Naralibag Road, Opposite Sai Abhyasika, Chhatrapati Sambhajinagar (Aurangabad), Maharashtra 431001, India",
    "VenueCode": "ARDC",
    "VenueName": "Anjali Ratnadeep Cinema:Chhatrapati SambhajiNagar"
  },
  "ARTH": {
    "AvailableFormats": "2D",
    "City": "Hyderabad",
    "Latitude": "17.4249",
    "Longitude": "78.5335",
    "RegionCode": "HYD",
    "State": "Telangana",
    "SubRegionCode": "HYD",
    "VenueAddress": "Professors Quarters, Inner Ring Road, Opposite Big Bazaar, Hyderabad, Telangana 500017, India",
    "VenueCode": "ARTH",
    "VenueName": "Aradhana Theatre: Hyderabad"
  },
  "ASCT": {
    "AvailableFormats": "2D",
    "City": "Thodupuzha",
    "Latitude": "9.89105",
    "Longitude": "76.7075",
    "RegionCode": "THOD",
    "State": "Kerala",
    "SubRegionCode": "THOD",
    "VenueAddress": "Near Pvt. Bus Stand, Pala Road, Thodupuzha, Kerala 685584, India",
    "VenueCode": "ASCT",
    "VenueName": "Aashirvad Cineplexx: Thodupuzha"
  },
  "ASJY": {
    "AvailableFormats": "2D",
    "City": "Hyderabad",
    "Latitude": "17.5028",
    "Longitude": "78.3122",
    "RegionCode": "HYD",
    "State": "Telangana",
    "SubRegionCode": "HYD",
    "VenueAddress": "Jyothi Nagar, Ashok Nagar, Chanda Nagar, Opposite TVS Motors, Near Brilliant Junior College, Hyderabad, Telangana 502032, India",
    "VenueCode": "ASJY",
    "VenueName": "Asian Jyothi: RC Puram"
  },
  "ASNT": {
    "AvailableFormats": "2D",
    "City": "Adilabad",
    "Latitude": "19.6748",
    "Longitude": "78.5315",
    "RegionCode": "ADIL",
    "State": "Telangana",
    "SubRegionCode": "ADIL",
    "VenueAddress": "Bhuktapur, Near IDBI Bank, Near Hanuman Temple, Adilabad, Telangana 504001, India",
    "VenueCode": "ASNT",
    "VenueName": "Asian Nataraj: Adilabad"
  },
  "ASSR": {
    "AvailableFormats": "2D",
    "City": "Siddipet",
    "Latitude": "18.0987",
    "Longitude": "78.8522",
    "RegionCode": "SDDP",
    "State": "Telangana",
    "SubRegionCode": "SDDP",
    "VenueAddress": "Aphb Colony, Shivaji Nagar, Hyderabad Road, Siddipet, Telangana 502103, India",
    "VenueCode": "ASSR",
    "VenueName": "Asian Srinivasa Deluxe: Siddipet"
  },
  "ASWT": {
    "AvailableFormats": "2D",
    "City": "Peringamala",
    "Latitude": "8.4146",
    "Longitude": "77.0184",
    "RegionCode": "TRIV",
    "State": "Kerala",
    "SubRegionCode": "TRIV",
    "VenueAddress": "C279+R9J, Pallichal, Vizhinjam Road, Pullannimukku, Peringamala, Kerala 695523, India",
    "VenueCode": "ASWT",
    "VenueName": "Aswathy Cineplus: Peringamala"
  },
  "ATGN": {
    "AvailableFormats": "2D",
    "City": "Bengaluru",
    "Latitude": "12.9737",
    "Longitude": "77.5776",
    "RegionCode": "HOKT",
    "State": "Karnataka",
    "SubRegionCode": "HOKT",
    "VenueAddress": "B.V.K. Ayengar Road, Gandhi Nagar, Near TNB Bank, Bengaluru, Karnataka 560009, India",
    "VenueCode": "ATGN",
    "VenueName": "Abhinay Theatre 4K A/C: Gandhinagar"
  },
  "ATPK": {
    "AvailableFormats": "2D",
    "City": "Palakkad",
    "Latitude": "10.7772",
    "Longitude": "76.6532",
    "RegionCode": "PLKK",
    "State": "Kerala",
    "SubRegionCode": "PLKK",
    "VenueAddress": "Priyadarshini Road, Sultanpet, Near Apex Residence, Palakkad, Kerala 678001, India",
    "VenueCode": "ATPK",
    "VenueName": "Aroma Theatre: Palakkad"
  },
  "ATYY": {
    "AvailableFormats": "",
    "City": "Kottayam",
    "FirstTracked": "2026-07-14",
    "Latitude": "9.586128",
    "Longitude": "76.52411",
    "RegionCode": "KTYM",
    "State": "Kerala",
    "SubRegionCode": "KTYM",
    "VenueAddress": "TB Road, Eerayil Kadavu, Near Asha Theatre, Kottayam, Kerala 686001, India",
    "VenueCode": "ATYY",
    "VenueName": "Anand Theatre Triple Beam 3D: Kottayam"
  },
  "AVDM": {
    "AvailableFormats": "2D",
    "City": "Mahbubnagar",
    "Latitude": "16.7451",
    "Longitude": "77.9918",
    "RegionCode": "JADC",
    "State": "Telangana",
    "SubRegionCode": "JADC",
    "VenueAddress": "Shah Saheb Gutta, Boyapalle Rural, Near Sri Hanuman Temple, Mahbubnagar, Telangana 509001, India",
    "VenueCode": "AVDM",
    "VenueName": "AVD Cinemas: Mahbubnagar"
  },
  "AXMC": {
    "AvailableFormats": "2D",
    "City": "Muvattupuzha",
    "Latitude": "9.98175",
    "Longitude": "76.5787",
    "RegionCode": "MUVA",
    "State": "Kerala",
    "SubRegionCode": "MUVA",
    "VenueAddress": "3rd Floor Grand Centre Mall, Thottumkalpeedika, Muvattupuzha, Kerala 686661, India",
    "VenueCode": "AXMC",
    "VenueName": "Aashirvad Cineplexx, GrandCentreMall: Muvattupuzha"
  },
  "BACS": {
    "AvailableFormats": "2D",
    "City": "Surat",
    "Latitude": "21.214",
    "Longitude": "72.8219",
    "RegionCode": "SURT",
    "State": "Gujarat",
    "SubRegionCode": "SURT",
    "VenueAddress": "72-78, Ved Road, Opposite Ramji Nagar Society, Fatakdawadi, Pandol, Industrial Estate, Katargam, Surat, Gujarat 395004, India",
    "VenueCode": "BACS",
    "VenueName": "Bajrang Cinema: Surat"
  },
  "BATG": {
    "AvailableFormats": "2D",
    "City": "Pondicherry",
    "Latitude": "11.9378",
    "Longitude": "79.8199",
    "RegionCode": "AURV",
    "State": "Tamil Nadu",
    "SubRegionCode": "AURV",
    "VenueAddress": "118,Brindavanam, Kamaraj Salai, Near Thanthai Periyar Statue, Pondicherry, Tamil Nadu 605013, India",
    "VenueCode": "BATG",
    "VenueName": "Balaji Theatre 70MM: Pondicherry"
  },
  "BCBA": {
    "AvailableFormats": "2D",
    "City": "Berachampa",
    "Latitude": "22.6934",
    "Longitude": "88.7022",
    "RegionCode": "BRAC",
    "State": "West Bengal",
    "SubRegionCode": "BRAC",
    "VenueAddress": "Berachampa, Taki Road, 24 PGS (N), Berachampa, West Bengal 743424, India",
    "VenueCode": "BCBA",
    "VenueName": "Banirupa Cinema: Berachampa"
  },
  "BDRB": {
    "AvailableFormats": "2D",
    "City": "Bhuvanagiri",
    "Latitude": "17.5106",
    "Longitude": "78.8893",
    "RegionCode": "BHUV",
    "State": "Telangana",
    "SubRegionCode": "BHUV",
    "VenueAddress": "Bhuvanagiri - Nalgonda Road, Bharpet, Bhuvanagiri, Telangana 508116, India",
    "VenueCode": "BDRB",
    "VenueName": "Badradri Theatre: Bhuvanagiri"
  },
  "BHEL": {
    "AvailableFormats": "2D",
    "City": "Trichy",
    "Latitude": "10.7695",
    "Longitude": "78.7974",
    "RegionCode": "TRIC",
    "State": "Tamil Nadu",
    "SubRegionCode": "TRIC",
    "VenueAddress": "Kamarajapuram BHEL Township, BHEL Tiruchirappali Complex area,Thiruverumbur,Trichy, Near BHEL Training Center, Trichy, Tamil Nadu 620022, India",
    "VenueCode": "BHEL",
    "VenueName": "BHELEC Cinema A/C Dolby 7.1: Trichy"
  },
  "BINT": {
    "AvailableFormats": "2D",
    "City": "Dubrajpur",
    "Latitude": "23.797",
    "Longitude": "87.3776",
    "RegionCode": "DUBR",
    "State": "West Bengal",
    "SubRegionCode": "DUBR",
    "VenueAddress": "Bharat Mata Sangha Road, Birbhum, Near S.J Electronics, Dubrajpur, West Bengal 731132, India",
    "VenueCode": "BINT",
    "VenueName": "Binapani Talkies: Dubrajpur"
  },
  "BKMV": {
    "AvailableFormats": "",
    "City": "Hyderabad",
    "FirstTracked": "2026-07-14",
    "Latitude": "17.343603",
    "Longitude": "78.554214",
    "RegionCode": "AUSH",
    "State": "Telangana",
    "SubRegionCode": "AUSH",
    "VenueAddress": "Gunti Jangaiah Nagar, LB Nagar, Raghavendra Nagar Colony, Opposite Bank Of India, Hyderabad, Telangana 500074, India",
    "VenueCode": "BKMV",
    "VenueName": "BVK Multiplex Vijayalakshmi: LB Nagar"
  },
  "BLMX": {
    "AvailableFormats": "2D",
    "City": "Vadodara",
    "Latitude": "22.3035",
    "Longitude": "73.1383",
    "RegionCode": "ANKV",
    "State": "Gujarat",
    "SubRegionCode": "ANKV",
    "VenueAddress": "Bansal Mall,Gotri - Bhayli Rd, Nilamber Char Rasta,Near, Saiyed Vasna, Gotri, Vadodara, Gujarat 390021, India",
    "VenueCode": "BLMX",
    "VenueName": "Bansal Movieplex Gotri-Vasna Road: Vadodara"
  },
  "BMYK": {
    "AvailableFormats": "",
    "City": "Deralakatte",
    "FirstTracked": "2026-07-14",
    "Latitude": "12.809443",
    "Longitude": "74.884476",
    "RegionCode": "DERA",
    "State": "Karnataka",
    "SubRegionCode": "DERA",
    "VenueAddress": "2nd Floor, Bearys Turning Point, Mangalore University Road, Deralakatte, Ullal, Deralakatte, Karnataka 575022, India",
    "VenueCode": "BMYK",
    "VenueName": "Bharath Cinemas: Bearys Turning Point, Deralakatte"
  },
  "BRTP": {
    "AvailableFormats": "2D",
    "City": "Palasa",
    "Latitude": "18.7661",
    "Longitude": "84.4217",
    "RegionCode": "PALS",
    "State": "Andhra Pradesh",
    "SubRegionCode": "PALS",
    "VenueAddress": "Shivaji Nagar, Kasibugga, Near Mandala Parishat Office, Palasa, Andhra Pradesh 532222, India",
    "VenueCode": "BRTP",
    "VenueName": "Bhaskara Rama A/C Dts: Palasa"
  },
  "BSSO": {
    "AvailableFormats": "2D",
    "City": "Ahmedabad",
    "Latitude": "23.0415",
    "Longitude": "72.4983",
    "RegionCode": "AHD",
    "State": "Gujarat",
    "SubRegionCode": "AHD",
    "VenueAddress": "312-314-315, Times Square Grand, Sindhu Bhavan Marg, Thaltej, Ahmedabad, Gujarat 380059, India",
    "VenueCode": "BSSO",
    "VenueName": "Sanelite Cinemas (Banana Smartplex): SBR, Thaltej"
  },
  "BTKD": {
    "AvailableFormats": "2D",
    "City": "Ongole",
    "Latitude": "15.5466",
    "Longitude": "79.9397",
    "RegionCode": "ONGL",
    "State": "Andhra Pradesh",
    "SubRegionCode": "ONGL",
    "VenueAddress": "GWWQ+JVV, Santhanuthalapadu, Ongole, Andhra Pradesh 523225, India",
    "VenueCode": "BTKD",
    "VenueName": "Sai Balaji A/c Dolby Surround: Santhanutalapadu"
  },
  "CACG": {
    "AvailableFormats": "",
    "City": "Ghumarwin",
    "FirstTracked": "2026-07-14",
    "Latitude": "31.442915",
    "Longitude": "76.719",
    "RegionCode": "GHUM",
    "State": "Himachal Pradesh",
    "SubRegionCode": "GHUM",
    "VenueAddress": "M/s Kritika Enterprises (Citara Plex Pvt. Ltd ), Kuthera Road, Near Post Office, Ghumarwin, Himachal Pradesh 174021, India",
    "VenueCode": "CACG",
    "VenueName": "Citara Cinema: Ghumarwin"
  },
  "CBMU": {
    "AvailableFormats": "3D|2D",
    "City": "Udaipur",
    "Latitude": "24.6123",
    "Longitude": "73.7026",
    "RegionCode": "UDAI",
    "State": "Rajasthan",
    "SubRegionCode": "UDAI",
    "VenueAddress": "4th Floor, The Celebration Mall, Sundercha N.H.- 8, Bhuwana, Opposite Devendra Dham Bhuwan, Udaipur, Rajasthan 313001, India",
    "VenueCode": "CBMU",
    "VenueName": "PVR: Celebration Mall, Udaipur"
  },
  "CCBA": {
    "AvailableFormats": "2D",
    "City": "Bagbahara",
    "Latitude": "21.0506",
    "Longitude": "82.3793",
    "RegionCode": "BBHA",
    "State": "Chhattisgarh",
    "SubRegionCode": "BBHA",
    "VenueAddress": "NH59, Bhawanipatna Raipur Highway, Near Post office, Bagbahara, Chhattisgarh 493449, India",
    "VenueCode": "CCBA",
    "VenueName": "City Cinema: Bagbahara"
  },
  "CCHW": {
    "AvailableFormats": "",
    "City": "Handwara",
    "FirstTracked": "2026-07-14",
    "Latitude": "34.401604",
    "Longitude": "74.27998",
    "RegionCode": "HNDW",
    "State": "Jammu and Kashmir",
    "SubRegionCode": "HNDW",
    "VenueAddress": "Maqbool Abad Khanabal B, Muncipal Committee, Handwara, Jammu and Kashmir 193221, India",
    "VenueCode": "CCHW",
    "VenueName": "Citara Cinemas: Handwara"
  },
  "CCMF": {
    "AvailableFormats": "2D",
    "City": "Charkhi Dadri",
    "Latitude": "28.5937",
    "Longitude": "76.2574",
    "RegionCode": "CCDD",
    "State": "Haryana",
    "SubRegionCode": "CCDD",
    "VenueAddress": "Main Loharu Road, Rose Petals Hotel Restaurant, Charkhi Dadri, Haryana 127306, India",
    "VenueCode": "CCMF",
    "VenueName": "Chhotu Maharaj Cine Cafe: Charkhi Dadri"
  },
  "CCNL": {
    "AvailableFormats": "",
    "City": "Nalbari",
    "FirstTracked": "2026-07-14",
    "Latitude": "26.454315",
    "Longitude": "91.40943",
    "RegionCode": "NALB",
    "State": "Assam",
    "SubRegionCode": "NALB",
    "VenueAddress": "National Highway 31, 5th Floor, Barkura Banekuchi, Nalbari, Assam 781340, India",
    "VenueCode": "CCNL",
    "VenueName": "Chhotu Maharaj Cine Cafe: Nalbari"
  },
  "CCRN": {
    "AvailableFormats": "",
    "City": "Chandrapur",
    "FirstTracked": "2026-07-14",
    "Latitude": "19.7872",
    "Longitude": "79.3843",
    "RegionCode": "CHAN",
    "State": "Maharashtra",
    "SubRegionCode": "CHAN",
    "VenueAddress": "E-cube, Beside Lakshmi Godown Main Road Bamanwada, Taluka rajura, Chandrapur, Maharashtra 442905, India",
    "VenueCode": "CCRN",
    "VenueName": "Chhotu Maharaj: Rajura, Chandrapur"
  },
  "CCXR": {
    "AvailableFormats": "2D",
    "City": "Gurugram (Gurgaon)",
    "Latitude": "28.3933",
    "Longitude": "76.9769",
    "RegionCode": "NCR",
    "State": "NCR",
    "SubRegionCode": "GURG",
    "VenueAddress": "Entertainland Mall, Floreal Towers, Sector 83, Gurugram (Gurgaon), NCR 122012, India",
    "VenueCode": "CCXR",
    "VenueName": "Connplex Cinemas: Luxuriance, Gurgaon"
  },
  "CDWP": {
    "AvailableFormats": "",
    "City": "Surat",
    "FirstTracked": "2026-07-14",
    "Latitude": "21.1957",
    "Longitude": "72.8598",
    "RegionCode": "SURT",
    "State": "Gujarat",
    "SubRegionCode": "SURT",
    "VenueAddress": "4th Floor, DR World Mall, Aai Mata Road, Surat, Gujarat 395010, India",
    "VenueCode": "CDWP",
    "VenueName": "Coconut Cinema DR World Parvat Patiya: Surat"
  },
  "CFBS": {
    "AvailableFormats": "2D|IMAX 2D|4DX|3D",
    "City": "Bengaluru",
    "Latitude": "12.9894",
    "Longitude": "77.7279",
    "RegionCode": "HOKT",
    "State": "Karnataka",
    "SubRegionCode": "HOKT",
    "VenueAddress": "3rd Floor, Nexus Shantiniketan Mall, Opposite Manipal Hospital, ITPL Main Road, Whitefield, Bengaluru, Karnataka 560067, India",
    "VenueCode": "CFBS",
    "VenueName": "Cinepolis: Nexus Shantiniketan, Bengaluru"
  },
  "CGGM": {
    "AvailableFormats": "2D",
    "City": "Kozhikode",
    "Latitude": "11.2581",
    "Longitude": "75.7931",
    "RegionCode": "KOZH",
    "State": "Kerala",
    "SubRegionCode": "KOZH",
    "VenueAddress": "97, Mavoor Road, Arayidathupalam, Near Federal Tower, Kozhikode, Kerala 673016, India",
    "VenueCode": "CGGM",
    "VenueName": "Cinepolis: Gokulam Galleria Mall"
  },
  "CGTT": {
    "AvailableFormats": "",
    "City": "Guntakal",
    "FirstTracked": "2026-07-14",
    "Latitude": "15.166328",
    "Longitude": "77.382965",
    "RegionCode": "GUNL",
    "State": "Andhra Pradesh",
    "SubRegionCode": "GUNL",
    "VenueAddress": "B.S.S. Colony, Tilak Nagar, Guntakal, Andhra Pradesh 515801, India",
    "VenueCode": "CGTT",
    "VenueName": "Chaitanya Theater: Guntakal"
  },
  "CHTH": {
    "AvailableFormats": "2D",
    "City": "Bengaluru",
    "Latitude": "12.9356",
    "Longitude": "77.5616",
    "RegionCode": "HOKT",
    "State": "Karnataka",
    "SubRegionCode": "HOKT",
    "VenueAddress": "Vidyapeeta circle, Katriguppe Main Road, Hanumanthanagar, Near Parekhs Hospital, Bengaluru, Karnataka 560050, India",
    "VenueCode": "CHTH",
    "VenueName": "Chandrodaya Digital 4K Cinema: Vidyapeeta Circle"
  },
  "CICM": {
    "AvailableFormats": "2D",
    "City": "Math Chandipur",
    "Latitude": "22.0886",
    "Longitude": "87.8576",
    "RegionCode": "MPUR",
    "State": "West Bengal",
    "SubRegionCode": "MPUR",
    "VenueAddress": "Mayukh Gift Corner, Nandigram Road, Math Chandipur, West Bengal 721659, India",
    "VenueCode": "CICM",
    "VenueName": "Chitranjali Cinema: Math Chandipur"
  },
  "CIPS": {
    "AvailableFormats": "2D|3D|4DX",
    "City": "Delhi",
    "Latitude": "28.5283",
    "Longitude": "77.2176",
    "RegionCode": "NCR",
    "State": "NCR",
    "SubRegionCode": "DELHI",
    "VenueAddress": "DLF Avenue, Saket District Centre, Plot-A4, Near Marriot Hotel, Saket, Delhi, NCR 110017, India",
    "VenueCode": "CIPS",
    "VenueName": "Cinepolis: DLF Avenue, Saket"
  },
  "CKUA": {
    "AvailableFormats": "2D|3D",
    "City": "Ahmedabad",
    "Latitude": "22.9998",
    "Longitude": "72.658",
    "RegionCode": "AHD",
    "State": "Gujarat",
    "SubRegionCode": "AHD",
    "VenueAddress": "3rd Floor, Near Nirant Cross Road, Metro Station Vastral, Ahmedabad, Gujarat 382418, India",
    "VenueCode": "CKUA",
    "VenueName": "Cinepolis: Kankubag, Vastral, Ahmedabad"
  },
  "CLKP": {
    "AvailableFormats": "",
    "City": "Patna",
    "FirstTracked": "2026-07-14",
    "Latitude": "25.6025",
    "Longitude": "85.1453",
    "RegionCode": "PATN",
    "State": "Bihar",
    "SubRegionCode": "PATN",
    "VenueAddress": "Avnc lifestyles Nutan Complex, Kankarbagh, Near KKrish Hyundai, Patna, Bihar 800020, India",
    "VenueCode": "CLKP",
    "VenueName": "Connplex Cinemas Luxuriance: Kankarbagh, Patna"
  },
  "CMAU": {
    "AvailableFormats": "2D",
    "City": "Abu Road",
    "Latitude": "24.4982",
    "Longitude": "72.766",
    "RegionCode": "ABRD",
    "State": "Rajasthan",
    "SubRegionCode": "ABRD",
    "VenueAddress": "New Town Housing, Revdar Road, Manpur Rural, Abu Road, Rajasthan 307026, India",
    "VenueCode": "CMAU",
    "VenueName": "Cineplus Multiplex: Abu Road"
  },
  "CMHU": {
    "AvailableFormats": "2D",
    "City": "Unnao",
    "Latitude": "26.5391",
    "Longitude": "80.5025",
    "RegionCode": "UNNA",
    "State": "Uttar Pradesh",
    "SubRegionCode": "UNNA",
    "VenueAddress": "Fantasy Motels Pvt Ltd, Hussain Nagar Bypass Road, Unnao, Uttar Pradesh 209801, India",
    "VenueCode": "CMHU",
    "VenueName": "Chhotu Maharaj Cine Cafe:Unnao"
  },
  "CMMN": {
    "AvailableFormats": "",
    "City": "Erode",
    "FirstTracked": "2026-07-14",
    "Latitude": "11.310983",
    "Longitude": "77.66701",
    "RegionCode": "EROD",
    "State": "Tamil Nadu",
    "SubRegionCode": "EROD",
    "VenueAddress": "R.S No 325/3A, Patta No-364, Puthur, Puthuppalayam Village and Pichandampalayam Panchayat, Erode, Tamil Nadu 638112, India",
    "VenueCode": "CMMN",
    "VenueName": "Chhotu Maharaj Cine Cafe: Erode"
  },
  "CMSN": {
    "AvailableFormats": "",
    "City": "Agra",
    "FirstTracked": "2026-07-14",
    "Latitude": "27.2032",
    "Longitude": "77.9671",
    "RegionCode": "AGRA",
    "State": "Uttar Pradesh",
    "SubRegionCode": "AGRA",
    "VenueAddress": "2nd Floor Bhawna Dwarka Street ,Prop. No. Comm 7, Anthem Pocket A Sec, 15 Avas Vikas Sikandra Agra, Agra, Uttar Pradesh 282007, India",
    "VenueCode": "CMSN",
    "VenueName": "Chhotu Maharaj: Sikandra Agra, UP"
  },
  "CMVV": {
    "AvailableFormats": "2D",
    "City": "Varanasi",
    "Latitude": "25.3012",
    "Longitude": "82.9586",
    "RegionCode": "VAR",
    "State": "Uttar Pradesh",
    "SubRegionCode": "VAR",
    "VenueAddress": "Plot No. 237/3, Madauli, Near St.Johns School, Varanasi, Uttar Pradesh 221003, India",
    "VenueCode": "CMVV",
    "VenueName": "Chhotu Maharaj Cine Cafe: Varanasi"
  },
  "CNCS": {
    "AvailableFormats": "2D",
    "City": "Sangamner",
    "Latitude": "19.5948",
    "Longitude": "74.1942",
    "RegionCode": "SMNE",
    "State": "Maharashtra",
    "SubRegionCode": "SMNE",
    "VenueAddress": "2nd Floor, Malpani Multiplex Mall, Gunjalwadi, Sangamner, Maharashtra 422605, India",
    "VenueCode": "CNCS",
    "VenueName": "Connplex Cinemas: Sangamner"
  },
  "CNLP": {
    "AvailableFormats": "3D|2D",
    "City": "Ahmedabad",
    "Latitude": "23.1461",
    "Longitude": "72.5463",
    "RegionCode": "GNAGAR",
    "State": "Gujarat",
    "SubRegionCode": "GNAGAR",
    "VenueAddress": "1st Floor, Master Avenue, Gandhinagar, Near - Vaishnodevi Circle, Ahmedabad, Gujarat 382421, India",
    "VenueCode": "CNLP",
    "VenueName": "Connplex Cinemas (Luxuriance): Vaishnodevi"
  },
  "CNRM": {
    "AvailableFormats": "2D",
    "City": "Bengaluru",
    "Latitude": "12.8759",
    "Longitude": "77.5956",
    "RegionCode": "HOKT",
    "State": "Karnataka",
    "SubRegionCode": "HOKT",
    "VenueAddress": "Royal Meenakshi Mall, Bannerghatta Road, Bengaluru, Karnataka 560076, India",
    "VenueCode": "CNRM",
    "VenueName": "Cinepolis: Royal Meenakshi Mall"
  },
  "CNWJ": {
    "AvailableFormats": "2D|3D",
    "City": "Jaipur",
    "Latitude": "26.8532",
    "Longitude": "75.8048",
    "RegionCode": "JAIP",
    "State": "Rajasthan",
    "SubRegionCode": "JAIP",
    "VenueAddress": "D-Block, Sector 4, JLN Marg, Malviya Nagar, Jaipur, Rajasthan 302017, India",
    "VenueCode": "CNWJ",
    "VenueName": "Cinepolis: World Trade Park Mall, Jaipur"
  },
  "COPG": {
    "AvailableFormats": "2D",
    "City": "Gandhinagar",
    "Latitude": "23.1848",
    "Longitude": "72.6229",
    "RegionCode": "GNAGAR",
    "State": "Gujarat",
    "SubRegionCode": "GNAGAR",
    "VenueAddress": "301-308, Shreeji Signature, Sargasan, Near Reliance Crossroad, Gandhinagar, Gujarat 382028, India",
    "VenueCode": "COPG",
    "VenueName": "Connplex Cinemas (Signature): Gandhinagar"
  },
  "CPCN": {
    "AvailableFormats": "2D",
    "City": "Bijainagar",
    "Latitude": "25.9298",
    "Longitude": "74.6475",
    "RegionCode": "BINW",
    "State": "Rajasthan",
    "SubRegionCode": "BINW",
    "VenueAddress": "Bus Stand Road, Opposite Hotel N Chandra Palace, Bijainagar, Rajasthan 305624, India",
    "VenueCode": "CPCN",
    "VenueName": "Cineplus Cinema: Bijainagar"
  },
  "CPJI": {
    "AvailableFormats": "3D|2D",
    "City": "Jaipur",
    "Latitude": "26.857",
    "Longitude": "75.8051",
    "RegionCode": "JAIP",
    "State": "Rajasthan",
    "SubRegionCode": "JAIP",
    "VenueAddress": "Cinepolis Jewel of India Jaipur, 1st Floor, KH. No.180,181,184,186, Horizon Tower, Jawahar Lal Nehru Marg, Jaipur, Rajasthan 302018, India",
    "VenueCode": "CPJI",
    "VenueName": "Cinepolis: Jewel of India, Jaipur (Newly Opened)"
  },
  "CPLX": {
    "AvailableFormats": "2D",
    "City": "Jeypore",
    "Latitude": "18.8588",
    "Longitude": "82.5902",
    "RegionCode": "JEYP",
    "State": "Odisha",
    "SubRegionCode": "JEYP",
    "VenueAddress": "Industrial Estate, Jeypore Vizianagaram Road, Jeypore, Odisha 764001, India",
    "VenueCode": "CPLX",
    "VenueName": "Celebration Cineplex: Jeypore"
  },
  "CPNS": {
    "AvailableFormats": "2D|3D",
    "City": "Delhi",
    "Latitude": "28.6947",
    "Longitude": "77.1542",
    "RegionCode": "NCR",
    "State": "NCR",
    "SubRegionCode": "DELHI",
    "VenueAddress": "NSP Pacific Mall, NSP Metro Station, Pitampura, Delhi, NCR 110034, India",
    "VenueCode": "CPNS",
    "VenueName": "Cinepolis: Pacific NSP2, Delhi"
  },
  "CPSH": {
    "AvailableFormats": "2D|3D",
    "City": "Jamshedpur",
    "Latitude": "22.785",
    "Longitude": "86.181",
    "RegionCode": "JMDP",
    "State": "Jharkhand",
    "SubRegionCode": "JMDP",
    "VenueAddress": "P and M Hi-Tech City Centre Mall, Millenium Park, Bistupur, Outer Circle Road, Jamshedpur, Jharkhand 831001, India",
    "VenueCode": "CPSH",
    "VenueName": "PJP Cinepolis: Jamshedpur"
  },
  "CPVV": {
    "AvailableFormats": "2D|3D",
    "City": "Thane",
    "Latitude": "19.2085",
    "Longitude": "72.9713",
    "RegionCode": "MUMBAI",
    "State": "Maharashtra",
    "SubRegionCode": "THNE",
    "VenueAddress": "Viviana Mall, Eastern Express Highway, Laxmi Nagar, Thane (West), Beside Jupiter Hospital, Thane, Maharashtra 400606, India",
    "VenueCode": "CPVV",
    "VenueName": "Cinepolis: VIP Viviana Mall, Thane"
  },
  "CRXH": {
    "AvailableFormats": "2D",
    "City": "Halol",
    "Latitude": "22.4966",
    "Longitude": "73.4714",
    "RegionCode": "HALO",
    "State": "Gujarat",
    "SubRegionCode": "HALO",
    "VenueAddress": "Townsquare Mall, 3rd Floor Oppositie Fire Station, Halol, Gujarat 389350, India",
    "VenueCode": "CRXH",
    "VenueName": "Cinemera Multiplex: Halol"
  },
  "CSHM": {
    "AvailableFormats": "2D",
    "City": "Mehsana",
    "Latitude": "23.6178",
    "Longitude": "72.3471",
    "RegionCode": "MEHS",
    "State": "Gujarat",
    "SubRegionCode": "MEHS",
    "VenueAddress": "B110, 1st Floor, Trogon Two, D,Mart Circle, Near Mehsana Bypass Road, Mehsana, Gujarat 384002, India",
    "VenueCode": "CSHM",
    "VenueName": "Connplex Cinemas: D`Mart Circle, Mehsana"
  },
  "CSST": {
    "AvailableFormats": "2D",
    "City": "Ahmedabad",
    "Latitude": "23.0525",
    "Longitude": "72.4807",
    "RegionCode": "AHD",
    "State": "Gujarat",
    "SubRegionCode": "AHD",
    "VenueAddress": "2nd Floor, Shilp The Address,Shilaj Road, SP Ringoad, Thaltej, Ahmedabad, Gujarat 380059, India",
    "VenueCode": "CSST",
    "VenueName": "Connplex Cinemas: Shilaj"
  },
  "CTBG": {
    "AvailableFormats": "",
    "City": "Bagalkot",
    "FirstTracked": "2026-07-14",
    "Latitude": "16.158556",
    "Longitude": "75.65981",
    "RegionCode": "BAGA",
    "State": "Karnataka",
    "SubRegionCode": "BAGA",
    "VenueAddress": "Plot No. 80, 81, Sector 25, Nava Nagar, Behind StateBank of India, Bagalkot, Karnataka 587103, India",
    "VenueCode": "CTBG",
    "VenueName": "Chandan Theatre: Bagalkot"
  },
  "CTMK": {
    "AvailableFormats": "2D",
    "City": "Korba",
    "Latitude": "22.3424",
    "Longitude": "82.6987",
    "RegionCode": "KRBA",
    "State": "Chhattisgarh",
    "SubRegionCode": "KRBA",
    "VenueAddress": "Purani Basti, Rani Road, Near Hotel Satkar Deluxe, Korba, Chhattisgarh 495677, India",
    "VenueCode": "CTMK",
    "VenueName": "Chitra Cinema: Korba"
  },
  "CTRD": {
    "AvailableFormats": "2D",
    "City": "Pune",
    "Latitude": "18.5165",
    "Longitude": "73.8423",
    "RegionCode": "PUNE",
    "State": "Maharashtra",
    "SubRegionCode": "PUNE",
    "VenueAddress": "2nd Floor, R Deccan Mall, Jangli Maharaj Road, Opp Deccan Bus Stand, Pune, Maharashtra 411004, India",
    "VenueCode": "CTRD",
    "VenueName": "City Pride: R Deccan"
  },
  "CVCG": {
    "AvailableFormats": "2D",
    "City": "Gudur",
    "Latitude": "14.1492",
    "Longitude": "79.8469",
    "RegionCode": "GUDR",
    "State": "Andhra Pradesh",
    "SubRegionCode": "GUDR",
    "VenueAddress": "Sri Venkateshwara Cine Complex, Gamallapalem Street, Vivekananda Road, Swarna Bharathi Nagar, Gudur, Andhra Pradesh 524101, India",
    "VenueCode": "CVCG",
    "VenueName": "V Cinemas, Screen 1: Gudur"
  },
  "CWCK": {
    "AvailableFormats": "2D",
    "City": "Katni",
    "Latitude": "23.8007",
    "Longitude": "80.3674",
    "RegionCode": "KATN",
    "State": "Madhya Pradesh",
    "SubRegionCode": "KATN",
    "VenueAddress": "2nd floor, Mittal Mall, Beside Mittal Enclave, Collectorate Road, Katni, Madhya Pradesh 483501, India",
    "VenueCode": "CWCK",
    "VenueName": "Cine Worldz Cinema: Katni"
  },
  "CXMH": {
    "AvailableFormats": "2D",
    "City": "Himmatnagar",
    "Latitude": "23.5823",
    "Longitude": "72.9728",
    "RegionCode": "HIMM",
    "State": "Gujarat",
    "SubRegionCode": "HIMM",
    "VenueAddress": "Devdhan Complex, Sahakari Jin Road, Near Jyoti Supermarket, Himmatnagar, Gujarat 383001, India",
    "VenueCode": "CXMH",
    "VenueName": "Cinemunch Mplex MCR: Himmatnagar"
  },
  "DABA": {
    "AvailableFormats": "2D",
    "City": "Cumbum",
    "Latitude": "9.73105",
    "Longitude": "77.2823",
    "RegionCode": "CMBM",
    "State": "Tamil Nadu",
    "SubRegionCode": "CMBM",
    "VenueAddress": "Angoorpalayam Road, Mani Nagaram, Cumbum, Tamil Nadu 625516, India",
    "VenueCode": "DABA",
    "VenueName": "Deva Bala Sakthi Bala A/C 2K DOLBY Atmos: Cumbum"
  },
  "DCCO": {
    "AvailableFormats": "2D|3D",
    "City": "Nashik",
    "Latitude": "19.9812",
    "Longitude": "73.756",
    "RegionCode": "NASK",
    "State": "Maharashtra",
    "SubRegionCode": "NASK",
    "VenueAddress": "Purab Paschim Plaza, Trimurti Chowk Cidco-9, Opposite Trimurti Chowk Post Office, Nashik, Maharashtra 422008, India",
    "VenueCode": "DCCO",
    "VenueName": "Divya Cinemas: Nashik"
  },
  "DCKC": {
    "AvailableFormats": "2D",
    "City": "Kanichar",
    "Latitude": "11.9054",
    "Longitude": "75.7844",
    "RegionCode": "KANC",
    "State": "Kerala",
    "SubRegionCode": "KANC",
    "VenueAddress": "Dev Associates, Kottiyar Road, Kanichar, Near Kanichar Sree Subrahmanya Temple, Kanichar, Kerala 670674, India",
    "VenueCode": "DCKC",
    "VenueName": "Dev Cinemas: Kanichar"
  },
  "DCTW": {
    "AvailableFormats": "2D",
    "City": "Thane",
    "Latitude": "19.254465",
    "Longitude": "72.985121",
    "RegionCode": "THNE",
    "State": "Maharashtra",
    "SubRegionCode": "THNE",
    "VenueAddress": "Hiranandani Estate, Villa Grand Road, Thane, Maharashtra 400607, India",
    "VenueCode": "DCTW",
    "VenueName": "Devgn CineX: The Walk, Thane"
  },
  "DEES": {
    "AvailableFormats": "2D",
    "City": "Markapur",
    "Latitude": "15.7435",
    "Longitude": "79.2716",
    "RegionCode": "MARK",
    "State": "Andhra Pradesh",
    "SubRegionCode": "MARK",
    "VenueAddress": "Bharathi Vidya Nikethan Road, Near Viswa Shanthi School Hostel, Markapur, Andhra Pradesh 523316, India",
    "VenueCode": "DEES",
    "VenueName": "Jagadeeswari Theatre A/C 4K Dolby Atmos: Markapur"
  },
  "DGCA": {
    "AvailableFormats": "2D",
    "City": "Rangia",
    "Latitude": "26.4422",
    "Longitude": "91.6094",
    "RegionCode": "RAAA",
    "State": "Assam",
    "SubRegionCode": "RAAA",
    "VenueAddress": "Ward No. 2, Station Road, Kamrup, Rangia, Assam 781365, India",
    "VenueCode": "DGCA",
    "VenueName": "Delight Gold Cinema Hall: Rangia"
  },
  "DJYA": {
    "AvailableFormats": "2D",
    "City": "Angul",
    "Latitude": "20.8326",
    "Longitude": "85.0889",
    "RegionCode": "ANGL",
    "State": "Odisha",
    "SubRegionCode": "ANGL",
    "VenueAddress": "Hatisalapada, National Highway 42, Angul, Odisha 759106, India",
    "VenueCode": "DJYA",
    "VenueName": "Divyajyoti Multiplex 2 (Dolby Atmos): Angul"
  },
  "DMAN": {
    "AvailableFormats": "2D",
    "City": "Anand",
    "Latitude": "22.5632",
    "Longitude": "72.9527",
    "RegionCode": "PETL",
    "State": "Gujarat",
    "SubRegionCode": "PETL",
    "VenueAddress": "100 Feet Road, Beside Vegetable Market, Ganesh Colony, Anand, Gujarat 388001, India",
    "VenueCode": "DMAN",
    "VenueName": "Diya Cinema: Anand"
  },
  "DNKM": {
    "AvailableFormats": "2D",
    "City": "Kollam",
    "Latitude": "8.89143",
    "Longitude": "76.6034",
    "RegionCode": "KOLM",
    "State": "Kerala",
    "SubRegionCode": "KOLM",
    "VenueAddress": "Kadapakkada, Kappalandimukku - Kadappakkada Road, Near The Hindu News Paper, Kollam, Kerala 691008, India",
    "VenueCode": "DNKM",
    "VenueName": "Dhanya Remya: Kollam"
  },
  "DRCR": {
    "AvailableFormats": "",
    "City": "Mansa",
    "FirstTracked": "2026-07-14",
    "Latitude": "30.020473",
    "Longitude": "75.39797",
    "RegionCode": "MNSA",
    "State": "Punjab",
    "SubRegionCode": "MNSA",
    "VenueAddress": "Grand Mall, Barnala - Mansa Sisra Road, Near Nehru Collage, Mansa, Punjab 151505, India",
    "VenueCode": "DRCR",
    "VenueName": "Dream Reality Cinema: Mansa"
  },
  "DTCK": {
    "AvailableFormats": "2D",
    "City": "Kalimpong",
    "Latitude": "27.0648",
    "Longitude": "88.4667",
    "RegionCode": "KALI",
    "State": "West Bengal",
    "SubRegionCode": "KALI",
    "VenueAddress": "9th Mile, Trimoti Shopping complex, Mongbol Busty, Alipurduar Road, Rishi Road, Near Hotel Jiwan Jyoti, Kalimpong, West Bengal 734301, India",
    "VenueCode": "DTCK",
    "VenueName": "Dream Theatre Cineplex: Kalimpong"
  },
  "DURG": {
    "AvailableFormats": "2D",
    "City": "Banki",
    "Latitude": "20.3791",
    "Longitude": "85.531",
    "RegionCode": "BANK",
    "State": "Odisha",
    "SubRegionCode": "BANK",
    "VenueAddress": "Near SBI Bank, Cuttack - Banki Road, Banki, Odisha 754008, India",
    "VenueCode": "DURG",
    "VenueName": "Durga Talkies: Banki"
  },
  "DXEC": {
    "AvailableFormats": "",
    "City": "Ottapalam",
    "FirstTracked": "2026-07-14",
    "Latitude": "10.7413",
    "Longitude": "76.3901",
    "RegionCode": "THSR",
    "State": "Kerala",
    "SubRegionCode": "THSR",
    "VenueAddress": "Chelakkara, Kondazhi Mayannur Road, Ottapalam, Kerala 679105, India",
    "VenueCode": "DXEC",
    "VenueName": "Dreamax E Cinemas: Mayannur"
  },
  "ECPP": {
    "AvailableFormats": "2D|3D",
    "City": "Pune",
    "Latitude": "18.6285",
    "Longitude": "73.7841",
    "RegionCode": "PUNE",
    "State": "Maharashtra",
    "SubRegionCode": "PUNE",
    "VenueAddress": "2nd Floor, Elpro City Square Mall, Pimpri Chinchwad Link Road, Pune, Maharashtra 411033, India",
    "VenueCode": "ECPP",
    "VenueName": "INOX: Elpro City Square, Chinchwad"
  },
  "EKCM": {
    "AvailableFormats": "2D",
    "City": "Kusumgram",
    "Latitude": "23.3893",
    "Longitude": "88.1318",
    "RegionCode": "KKKL",
    "State": "West Bengal",
    "SubRegionCode": "KKKL",
    "VenueAddress": "SH 8, Kusumgram, Belgram Bolgona Kalna Road, Opposite Bandhan Bank, Kusumgram, West Bengal 713422, India",
    "VenueCode": "EKCM",
    "VenueName": "Ekta Manch: Kusumgram"
  },
  "EMPN": {
    "AvailableFormats": "",
    "City": "Pulgaon",
    "FirstTracked": "2026-07-14",
    "Latitude": "20.725908",
    "Longitude": "78.31447",
    "RegionCode": "PUON",
    "State": "Maharashtra",
    "SubRegionCode": "PUON",
    "VenueAddress": "Empress Mall, Gandhi Nagar, Pulgaon Road, Near Pulgaon Railway Station, Pulgaon, Maharashtra 442303, India",
    "VenueCode": "EMPN",
    "VenueName": "Empress Cinema: Pulgaon"
  },
  "ESBD": {
    "AvailableFormats": "2D",
    "City": "Beed",
    "Latitude": "18.9946",
    "Longitude": "75.7533",
    "RegionCode": "BEED",
    "State": "Maharashtra",
    "SubRegionCode": "BEED",
    "VenueAddress": "Shahu Nagar, Pangri Road, Near Bus Stand, Beed, Maharashtra 431122, India",
    "VenueCode": "ESBD",
    "VenueName": "Santoshimata: Beed"
  },
  "ESVP": {
    "AvailableFormats": "2D",
    "City": "Pune",
    "Latitude": "18.511",
    "Longitude": "73.8801",
    "RegionCode": "PUNE",
    "State": "Maharashtra",
    "SubRegionCode": "PUNE",
    "VenueAddress": "2429, Gen Thimayya Road, Camp, opposite Kayani Bakery, Pune, Maharashtra 411001, India",
    "VenueCode": "ESVP",
    "VenueName": "Victory Theatre: Camp, Pune"
  },
  "EVMP": {
    "AvailableFormats": "2D",
    "City": "Kochi",
    "Latitude": "10.1113",
    "Longitude": "76.4742",
    "RegionCode": "KOCH",
    "State": "Kerala",
    "SubRegionCode": "KOCH",
    "VenueAddress": "old kaala vayal, Perumbavoor, Kochi, Kerala 683542, India",
    "VenueCode": "EVMP",
    "VenueName": "EVM Cinema A/C 4K RGB Laser 3D: Perumbavoor"
  },
  "FCHP": {
    "AvailableFormats": "",
    "City": "Kolkata",
    "FirstTracked": "2026-07-14",
    "Latitude": "22.483189",
    "Longitude": "88.39094",
    "RegionCode": "KOLK",
    "State": "West Bengal",
    "SubRegionCode": "KOLK",
    "VenueAddress": "Metropolis Mall Hiland Park, Eastern Metropolitan Bypass Chakgaria, Opp Peerless Hospital, Kolkata, West Bengal 700020, India",
    "VenueCode": "FCHP",
    "VenueName": "INOX: Hiland Park"
  },
  "FCTB": {
    "AvailableFormats": "",
    "City": "Talwandi Bhai",
    "FirstTracked": "2026-07-14",
    "Latitude": "30.859259",
    "Longitude": "74.92114",
    "RegionCode": "TALW",
    "State": "Punjab",
    "SubRegionCode": "TALW",
    "VenueAddress": "Karmitti Road, Dist. Ferozepur, Talwandi Bhai, Punjab 142050, India",
    "VenueCode": "FCTB",
    "VenueName": "Fun Cineplex: Talwandi Bhai"
  },
  "FMFB": {
    "AvailableFormats": "2D",
    "City": "Bengaluru",
    "Latitude": "12.9608",
    "Longitude": "77.7481",
    "RegionCode": "BANG",
    "State": "Karnataka",
    "SubRegionCode": "BANG",
    "VenueAddress": "No.62, 2nd Floor, Nexus, Whitefield Main Road, Whitefield, Near Citi Bank ATM, Bengaluru, Karnataka 560066, India",
    "VenueCode": "FMFB",
    "VenueName": "INOX: Nexus, Whitefield"
  },
  "FMVS": {
    "AvailableFormats": "",
    "City": "Navi Mumbai",
    "FirstTracked": "2026-07-14",
    "Latitude": "19.06411",
    "Longitude": "72.99694",
    "RegionCode": "MUMBAI",
    "State": "Maharashtra",
    "SubRegionCode": "THAN",
    "VenueAddress": "3rd Floor, Raghuleela Mall, Sector 30, Vashi, Opposite Vashi Railway Station, Navi Mumbai, Maharashtra 400703, India",
    "VenueCode": "FMVS",
    "VenueName": "INOX: Raghuleela Mall, Vashi"
  },
  "FNCO": {
    "AvailableFormats": "2D",
    "City": "Coimbatore",
    "Latitude": "11.0247",
    "Longitude": "77.0104",
    "RegionCode": "COIM",
    "State": "Tamil Nadu",
    "SubRegionCode": "COIM",
    "VenueAddress": "Peelamedu, Avinashi Road, Peelamedu, Near PSGR Krishnammal College, Coimbatore, Tamil Nadu 641004, India",
    "VenueCode": "FNCO",
    "VenueName": "Cinepolis: Fun Republic Mall, Coimbatore"
  },
  "FNSD": {
    "AvailableFormats": "2D|3D",
    "City": "Delhi",
    "Latitude": "28.6574",
    "Longitude": "77.3023",
    "RegionCode": "NCR",
    "State": "NCR",
    "SubRegionCode": "DELHI",
    "VenueAddress": "Cross River Mall, Central Business,Shahdara, Near Karkardooma Court, Delhi, NCR 110032, India",
    "VenueCode": "FNSD",
    "VenueName": "Cinepolis: Cross River Mall, Shahdara"
  },
  "FSCK": {
    "AvailableFormats": "2D|IMAX 2D|3D",
    "City": "Kolkata",
    "Latitude": "22.5014",
    "Longitude": "88.3616",
    "RegionCode": "KOLK",
    "State": "West Bengal",
    "SubRegionCode": "KOLK",
    "VenueAddress": "375, South City Mall, Prince Anwar Shah Road, Opposite Central Bank of India, Kolkata, West Bengal 700068, India",
    "VenueCode": "FSCK",
    "VenueName": "INOX: South City, Kolkata"
  },
  "G3SR": {
    "AvailableFormats": "2D|3D",
    "City": "Delhi",
    "Latitude": "28.7351",
    "Longitude": "77.1135",
    "RegionCode": "NCR",
    "State": "NCR",
    "SubRegionCode": "DELHI",
    "VenueAddress": "Level 2, Sector-11, Rohini, Inside Garg Trade, Delhi, NCR 110085, India",
    "VenueCode": "G3SR",
    "VenueName": "G3S Cinema: Rohini (Newly Renovated)"
  },
  "GAPR": {
    "AvailableFormats": "",
    "City": "Ongole",
    "FirstTracked": "2026-07-14",
    "Latitude": "15.51993",
    "Longitude": "80.04735",
    "RegionCode": "ADKI",
    "State": "Andhra Pradesh",
    "SubRegionCode": "ADKI",
    "VenueAddress": "Guntur Road, Gopal Nagar, Ongole, Andhra Pradesh 523001, India",
    "VenueCode": "GAPR",
    "VenueName": "G2V Theaters, Ravi Priya Mall: Ongole"
  },
  "GBTG": {
    "AvailableFormats": "2D",
    "City": "Gudivada",
    "Latitude": "16.4305",
    "Longitude": "80.9914",
    "RegionCode": "GUDI",
    "State": "Andhra Pradesh",
    "SubRegionCode": "GUDI",
    "VenueAddress": "Satyanarayana Puram, Pillalamari Street, Gudivada, Andhra Pradesh 521301, India",
    "VenueCode": "GBTG",
    "VenueName": "G3 Bhaskar Talkies: Gudivada"
  },
  "GCDC": {
    "AvailableFormats": "",
    "City": "Dabra",
    "FirstTracked": "2026-07-14",
    "Latitude": "25.886345",
    "Longitude": "78.33501",
    "RegionCode": "DABR",
    "State": "Madhya Pradesh",
    "SubRegionCode": "DABR",
    "VenueAddress": "Geeta Talkies Road, Near Shree Krishna Dairy, Subhash Ganj, Darshan Colony, Dabra, Madhya Pradesh 475110, India",
    "VenueCode": "GCDC",
    "VenueName": "Geeta Cineplex: Dabra"
  },
  "GCGD": {
    "AvailableFormats": "",
    "City": "Gwalior",
    "FirstTracked": "2026-07-14",
    "Latitude": "26.205128",
    "Longitude": "78.18938",
    "RegionCode": "GWAL",
    "State": "Madhya Pradesh",
    "SubRegionCode": "GWAL",
    "VenueAddress": "Plot no. 1, City Centre, Madhavrao Scindia Marg, Near HDFC Bank and Cafe Coffee Day City Center, Tulsi Vihar Colony, Gwalior, Madhya Pradesh 474011, India",
    "VenueCode": "GCGD",
    "VenueName": "Gold Cinema: Gwalior"
  },
  "GCMG": {
    "AvailableFormats": "2D",
    "City": "Mumbai",
    "Latitude": "19.1917",
    "Longitude": "72.8204",
    "RegionCode": "MUMBAI",
    "State": "Maharashtra",
    "SubRegionCode": "MWEST",
    "VenueAddress": "Savera Heights, Gate No.5, Bank of India Building, Abdul Hamid Marg, Malvani Road, Opposite Malvani Police Station, Mumbai, Maharashtra 400095, India",
    "VenueCode": "GCMG",
    "VenueName": "Gold Cinema: Malad Malvani"
  },
  "GCSD": {
    "AvailableFormats": "2D",
    "City": "Sardulgarh",
    "Latitude": "29.721",
    "Longitude": "75.2455",
    "RegionCode": "SARD",
    "State": "Punjab",
    "SubRegionCode": "SARD",
    "VenueAddress": "Rori Road, Near Bus Stand, Sardulewala, Sardulgarh, Punjab 125201, India",
    "VenueCode": "GCSD",
    "VenueName": "Golden Cinemas: Sardulgarh"
  },
  "GDAN": {
    "AvailableFormats": "2D|3D",
    "City": "Anand",
    "Latitude": "22.5523",
    "Longitude": "72.9399",
    "RegionCode": "PETL",
    "State": "Gujarat",
    "SubRegionCode": "PETL",
    "VenueAddress": "Block A, 3rd Floor, Opp. Dena Parivar, Anand Vidya Nagar Road, Near Giny and Jony, Anand, Gujarat 388001, India",
    "VenueCode": "GDAN",
    "VenueName": "Gold Cinema: Anand"
  },
  "GDCU": {
    "AvailableFormats": "",
    "City": "Una",
    "FirstTracked": "2026-07-14",
    "Latitude": "31.433987",
    "Longitude": "76.32296",
    "RegionCode": "BEEL",
    "State": "Himachal Pradesh",
    "SubRegionCode": "BEEL",
    "VenueAddress": "8 Miles Stone, Behdala, Una, Himachal Pradesh 174306, India",
    "VenueCode": "GDCU",
    "VenueName": "Grand Cinemaz: Una @ The Gulmohar"
  },
  "GDTH": {
    "AvailableFormats": "3D|2D",
    "City": "Thane",
    "Latitude": "19.1905",
    "Longitude": "72.9766",
    "RegionCode": "MUMBAI",
    "State": "Maharashtra",
    "SubRegionCode": "THNE",
    "VenueAddress": "Prabhat Plaza, 3rd Floor, Station Road, Shivaji Road, Near Talao Pali, Thane, Maharashtra 400601, India",
    "VenueCode": "GDTH",
    "VenueName": "Gold  Cinema: Shivaji Road, Thane (W)"
  },
  "GGCS": {
    "AvailableFormats": "2D",
    "City": "Seethathodu",
    "Latitude": "9.325442",
    "Longitude": "76.969631",
    "RegionCode": "SXCF",
    "State": "Kerala",
    "SubRegionCode": "SXCF",
    "VenueAddress": "Gavi Shopping Complex, Chittar, Angamoozhy Road, Seethathodu, Kerala 689667, India",
    "VenueCode": "GGCS",
    "VenueName": "Gavi Galaxi Cinemas: Seethathodu"
  },
  "GHZB": {
    "AvailableFormats": "",
    "City": "Ghaziabad",
    "FirstTracked": "2026-07-14",
    "Latitude": "28.708088",
    "Longitude": "77.291626",
    "RegionCode": "NCR",
    "State": "NCR",
    "SubRegionCode": "GHAZ",
    "VenueAddress": "Loni Road, Harijan Basti, Raj Nagar, Gokalpur, Ghaziabad, NCR 110094, India",
    "VenueCode": "GHZB",
    "VenueName": "Meenakshi Cherish Cinema: Ghaziabad"
  },
  "GKKC": {
    "AvailableFormats": "",
    "City": "Chennai",
    "FirstTracked": "2026-07-14",
    "Latitude": "13.049656",
    "Longitude": "80.19342",
    "RegionCode": "CHEN",
    "State": "Tamil Nadu",
    "SubRegionCode": "CHEN",
    "VenueAddress": "No.71/2, Yadaval Street,Virugambakkam, Chennai, Tamil Nadu 600092, India",
    "VenueCode": "GKKC",
    "VenueName": "Sri Devi Karumari Cinemas RGB LASER DOLBY ATMOS"
  },
  "GMGX": {
    "AvailableFormats": "2D",
    "City": "Ghaziabad",
    "Latitude": "28.6549",
    "Longitude": "77.3452",
    "RegionCode": "MRDG",
    "State": "NCR",
    "SubRegionCode": "MRDG",
    "VenueAddress": "Galaxie Mall, Local Road for JILIT Ltd, Sahibabad, Madan Mohan Malviya Marg, Sahibabad Industrial Area Site 4, Opposite Gulmohar Grand, Ghaziabad, NCR 201010, India",
    "VenueCode": "GMGX",
    "VenueName": "Galaxie Multiplex: Ghaziabad"
  },
  "GOKU": {
    "AvailableFormats": "2D",
    "City": "Hyderabad",
    "Latitude": "17.4536",
    "Longitude": "78.4344",
    "RegionCode": "HYD",
    "State": "Telangana",
    "SubRegionCode": "HYD",
    "VenueAddress": "Main Road, Vikaspuri, Erragadda, Beside Nexa Maruthi Showroom, Hyderabad, Telangana 500018, India",
    "VenueCode": "GOKU",
    "VenueName": "Gokul 70MM 4K DTS: Erragadda"
  },
  "GPKA": {
    "AvailableFormats": "2D",
    "City": "Seoni",
    "Latitude": "22.0777",
    "Longitude": "79.5459",
    "RegionCode": "SEON",
    "State": "Madhya Pradesh",
    "SubRegionCode": "SEON",
    "VenueAddress": "Gopika Cinema and Shopping Mall, Nagpur Road, Seoni, Madhya Pradesh 480661, India",
    "VenueCode": "GPKA",
    "VenueName": "Gopika Cinema: Seoni"
  },
  "GRDC": {
    "AvailableFormats": "",
    "City": "Jalandhar",
    "FirstTracked": "2026-07-14",
    "Latitude": "31.287695",
    "Longitude": "75.66471",
    "RegionCode": "JALA",
    "State": "Punjab",
    "SubRegionCode": "JALA",
    "VenueAddress": "3rd Floor Viva Collage Mall, GT Road, Jalandhar, Punjab 144001, India",
    "VenueCode": "GRDC",
    "VenueName": "GRD Cinemas: Jalandhar, Punjab"
  },
  "GSVA": {
    "AvailableFormats": "2D",
    "City": "Akividu",
    "Latitude": "16.5838",
    "Longitude": "81.3862",
    "RegionCode": "AKVD",
    "State": "Andhra Pradesh",
    "SubRegionCode": "AKVD",
    "VenueAddress": "Near HP Petrol Pump, PP Road, Beside Ambica Rice Merchants, Akividu, Andhra Pradesh 534235, India",
    "VenueCode": "GSVA",
    "VenueName": "G6 Sri Venkata Gangaratnam Theatre: Akividu"
  },
  "GTEE": {
    "AvailableFormats": "2D",
    "City": "Nagpur",
    "Latitude": "21.2155",
    "Longitude": "79.1947",
    "RegionCode": "NAGP",
    "State": "Maharashtra",
    "SubRegionCode": "NAGP",
    "VenueAddress": "Near Swank Agarbatti, Husainabad, Shiv Panchayat Nagar, Nagpur, Maharashtra 441001, India",
    "VenueCode": "GTEE",
    "VenueName": "Goyal Talkies: Kamptee"
  },
  "GTTS": {
    "AvailableFormats": "",
    "City": "Salem",
    "FirstTracked": "2026-07-14",
    "Latitude": "11.649974",
    "Longitude": "78.16141",
    "RegionCode": "SALM",
    "State": "Tamil Nadu",
    "SubRegionCode": "SALM",
    "VenueAddress": "24, Kitchipalayam Main Road, Sendarapatti, Gugai, Salem, Tamil Nadu 636015, India",
    "VenueCode": "GTTS",
    "VenueName": "ARRS Geethalaya Theatre: (SALEM OLD BUS STAND)"
  },
  "GXCK": {
    "AvailableFormats": "2D",
    "City": "Kollam",
    "Latitude": "8.88672",
    "Longitude": "76.5888",
    "RegionCode": "KOLM",
    "State": "Kerala",
    "SubRegionCode": "KOLM",
    "VenueAddress": "Bishop Jerome Nagar, 6th Avenue, 4th Floor, Chinnakkada, Kollam, Near State Bank of India, Kollam, Kerala 691001, India",
    "VenueCode": "GXCK",
    "VenueName": "Gmax Cinemas Jerome 3D 7.1 JBL: Kollam"
  },
  "HASV": {
    "AvailableFormats": "2D",
    "City": "Bengaluru",
    "Latitude": "12.6827",
    "Longitude": "77.4757",
    "RegionCode": "BANG",
    "State": "Karnataka",
    "SubRegionCode": "BANG",
    "VenueAddress": "Marasandra Main Road, Ranganath Badavane, Harohalli, Ramanagara, Bengaluru, Karnataka 562112, India",
    "VenueCode": "HASV",
    "VenueName": "Sri Vinayaka Theatre: Harohalli"
  },
  "HFSQ": {
    "AvailableFormats": "2D",
    "City": "Bicholim",
    "Latitude": "15.5878",
    "Longitude": "73.9441",
    "RegionCode": "GOA",
    "State": "Goa",
    "SubRegionCode": "BICG",
    "VenueAddress": "Bicholim Road, Bicholim, Near Dreams Bakery, Bicholim, Goa 403504, India",
    "VenueCode": "HFSQ",
    "VenueName": "Z Square Hira Talkies: Bicholim"
  },
  "HLWD": {
    "AvailableFormats": "",
    "City": "Guntur",
    "Latitude": "16.3083",
    "Longitude": "80.4344",
    "RegionCode": "GUNT",
    "State": "Andhra Pradesh",
    "SubRegionCode": "GUNT",
    "VenueAddress": "Lakshmipuram Main Road, Brodipet, Guntur, Andhra Pradesh 522002, India",
    "VenueCode": "HLWD",
    "VenueName": "Hollywood Bollywood Theaters: Guntur"
  },
  "HTBY": {
    "AvailableFormats": "2D",
    "City": "Bareilly",
    "Latitude": "28.3538",
    "Longitude": "79.4186",
    "RegionCode": "BARE",
    "State": "Uttar Pradesh",
    "SubRegionCode": "BARE",
    "VenueAddress": "Church Road, Civil Lines, Bareilly, Uttar Pradesh 243001, India",
    "VenueCode": "HTBY",
    "VenueName": "New Hind Talkies: Bareilly"
  },
  "ICTP": {
    "AvailableFormats": "2D|3D",
    "City": "Tezpur",
    "Latitude": "26.622",
    "Longitude": "92.7964",
    "RegionCode": "TEZP",
    "State": "Assam",
    "SubRegionCode": "TEZP",
    "VenueAddress": "Imperial Parijat Building, Tezpur Main Road, Near D.T.O, Tezpur, Assam 784001, India",
    "VenueCode": "ICTP",
    "VenueName": "Imp Cinemas: Tezpur"
  },
  "IGMH": {
    "AvailableFormats": "2D|3D",
    "City": "Hyderabad",
    "Latitude": "17.4964",
    "Longitude": "78.3357",
    "RegionCode": "HYD",
    "State": "Telangana",
    "SubRegionCode": "HYD",
    "VenueAddress": "INOX Leisure Ltd, 4th floor, GSM Mall, Miyapur Main Road, Madinaguda, Hyderabad, Telangana 500049, India",
    "VenueCode": "IGMH",
    "VenueName": "INOX: GSM Mall, Hyderabad"
  },
  "IMJN": {
    "AvailableFormats": "2D|3D",
    "City": "Kolkata",
    "Latitude": "22.5645",
    "Longitude": "88.3516",
    "RegionCode": "KOLK",
    "State": "West Bengal",
    "SubRegionCode": "KOLK",
    "VenueAddress": "INOX Leisure Ltd., 5, Jawaharlal Nehru Road, 4th Floor, Kolkata, West Bengal 700013, India",
    "VenueCode": "IMJN",
    "VenueName": "INOX: Metro, Jawaharlal Nehru Road"
  },
  "INAA": {
    "AvailableFormats": "2D",
    "City": "Nadiad",
    "Latitude": "22.6912",
    "Longitude": "72.8653",
    "RegionCode": "NADI",
    "State": "Gujarat",
    "SubRegionCode": "NADI",
    "VenueAddress": "Inox Leisure Ltd, 3rd Floor, Opal One Mall, College Road, Nadiad, Gujarat 387001, India",
    "VenueCode": "INAA",
    "VenueName": "INOX: Opal One Mall, Nadiad"
  },
  "INBJ": {
    "AvailableFormats": "2D",
    "City": "Bengaluru",
    "Latitude": "12.9292",
    "Longitude": "77.5912",
    "RegionCode": "HOKT",
    "State": "Karnataka",
    "SubRegionCode": "HOKT",
    "VenueAddress": "4th Floor, Shree Garuda Swagath, Tilak Nagar Main Road, Jayanagar, Near Tilak Nagar Police Station, Bengaluru, Karnataka 560041, India",
    "VenueCode": "INBJ",
    "VenueName": "INOX: Garuda Swagath Mall, Jayanagar"
  },
  "INCR": {
    "AvailableFormats": "2D|3D",
    "City": "Raipur",
    "Latitude": "21.2764",
    "Longitude": "81.6873",
    "RegionCode": "RAIPUR",
    "State": "Chhattisgarh",
    "SubRegionCode": "RAIPUR",
    "VenueAddress": "1st Floor, Ambuja City Centre Mall, Vishan Sabha Road, Mowa, Near Saddu Nala, Raipur, Chhattisgarh 492007, India",
    "VenueCode": "INCR",
    "VenueName": "INOX: Ambuja City Centre, Raipur"
  },
  "INGO": {
    "AvailableFormats": "2D|3D",
    "City": "Goa",
    "Latitude": "15.4991",
    "Longitude": "73.8212",
    "RegionCode": "PANA",
    "State": "Goa",
    "SubRegionCode": "PANA",
    "VenueAddress": "Dayanand Bandodkar Marg, Old GMC Heritage Precinct, D.B.Road, General Bernardo Guedes Road, Goa, Goa 403001, India",
    "VenueCode": "INGO",
    "VenueName": "INOX: Old GMC, DB Road, Panaji"
  },
  "INKO": {
    "AvailableFormats": "3D|2D",
    "City": "Thane",
    "Latitude": "19.2032",
    "Longitude": "72.9649",
    "RegionCode": "MUMBAI",
    "State": "Maharashtra",
    "SubRegionCode": "THNE",
    "VenueAddress": "3rd Floor, Korum Mall, Mangal Pandey Road Thane West, Off Eastern Express Highway, Thane, Maharashtra 400606, India",
    "VenueCode": "INKO",
    "VenueName": "INOX: Korum Mall, Eastern Express Highway, Thane"
  },
  "INNS": {
    "AvailableFormats": "2D|3D",
    "City": "Bhubaneswar",
    "Latitude": "20.323",
    "Longitude": "85.8817",
    "RegionCode": "BHUB",
    "State": "Odisha",
    "SubRegionCode": "BHUB",
    "VenueAddress": "Plot No.149 Rudrapur NH16, Near Reliance Trends, Bhubaneswar, Odisha 752101, India",
    "VenueCode": "INNS",
    "VenueName": "INOX: Symphony Mall"
  },
  "INPR": {
    "AvailableFormats": "2D|3D|IMAX 2D",
    "City": "Chennai",
    "Latitude": "12.9921",
    "Longitude": "80.2172",
    "RegionCode": "CHEN",
    "State": "Tamil Nadu",
    "SubRegionCode": "CHEN",
    "VenueAddress": "Formerly Jazz Cinemas, 2nd Floor, Phoenix Market City, Velachery Main Road, Velachery, Chennai, Tamil Nadu 600042, India",
    "VenueCode": "INPR",
    "VenueName": "INOX: LUXE Phoenix Market City, Velachery"
  },
  "INRP": {
    "AvailableFormats": "3D|2D",
    "City": "Raipur",
    "Latitude": "21.2364",
    "Longitude": "81.6856",
    "RegionCode": "RAIPUR",
    "State": "Chhattisgarh",
    "SubRegionCode": "RAIPUR",
    "VenueAddress": "3rd Floor, City Mall 36, Great Eastern Road, NH-6, Vishal Nagar, Raipur, Chhattisgarh 492001, India",
    "VenueCode": "INRP",
    "VenueName": "INOX: City Mall 36, G E Road"
  },
  "INSR": {
    "AvailableFormats": "2D|3D",
    "City": "Siliguri",
    "Latitude": "26.725",
    "Longitude": "88.3954",
    "RegionCode": "SILI",
    "State": "West Bengal",
    "SubRegionCode": "SILI",
    "VenueAddress": "2nd floor, City Centre Mall, Matigara, Siliguri, West Bengal 734010, India",
    "VenueCode": "INSR",
    "VenueName": "INOX: City Centre, Siliguri"
  },
  "INVD": {
    "AvailableFormats": "2D|3D",
    "City": "Vadodara",
    "Latitude": "22.3131",
    "Longitude": "73.1579",
    "RegionCode": "VAD",
    "State": "Gujarat",
    "SubRegionCode": "VAD",
    "VenueAddress": "Race Course Road, Gopal Baug, Ellora Park, Vadodara, Gujarat 390007, India",
    "VenueCode": "INVD",
    "VenueName": "INOX: Race Course Circle"
  },
  "INXR": {
    "AvailableFormats": "2D",
    "City": "Surat",
    "Latitude": "21.2293",
    "Longitude": "72.8967",
    "RegionCode": "SURT",
    "State": "Gujarat",
    "SubRegionCode": "SURT",
    "VenueAddress": "RAJ Imperial, 3rd Floor, Deepkamal Mall And Multiplex, Varachha Road, Sarthana Jakat Naka, Near Sarthana Zoo, Surat, Gujarat 395006, India",
    "VenueCode": "INXR",
    "VenueName": "Raj Imperial, INOX: Varachha Road, Surat"
  },
  "IOTG": {
    "AvailableFormats": "3D|2D",
    "City": "Ghaziabad",
    "Latitude": "28.6539",
    "Longitude": "77.4373",
    "RegionCode": "MRDG",
    "State": "NCR",
    "SubRegionCode": "MRDG",
    "VenueAddress": "The Opulent Mall, Grand Trunk Road, New Gandhi Nagar, Nehru Nagar III, Ghaziabad, NCR 201001, India",
    "VenueCode": "IOTG",
    "VenueName": "PVR: Opulent, Ghaziabad"
  },
  "IPSG": {
    "AvailableFormats": "2D",
    "City": "Varanasi",
    "Latitude": "25.3167",
    "Longitude": "82.9901",
    "RegionCode": "VAR",
    "State": "Uttar Pradesh",
    "SubRegionCode": "VAR",
    "VenueAddress": "IP SIGRA Shopping Mall, Vidyapeeth Road, Sigra, Shastri Nagar, Guru Nanak Nagar Colony, IP Mall, Varanasi, Uttar Pradesh 221002, India",
    "VenueCode": "IPSG",
    "VenueName": "IP Cinemas: IP Sigra Mall, Varanasi"
  },
  "ISRM": {
    "AvailableFormats": "2D",
    "City": "Surat",
    "Latitude": "21.1817",
    "Longitude": "72.8313",
    "RegionCode": "SURT",
    "State": "Gujarat",
    "SubRegionCode": "SURT",
    "VenueAddress": "4th Floor, Reliance Mega Mall, Udhna, Nearby Reliance Smart, Surat, Gujarat 395002, India",
    "VenueCode": "ISRM",
    "VenueName": "INOX: Reliance Mall, Surat"
  },
  "JAAD": {
    "AvailableFormats": "",
    "City": "Rajapalayam",
    "FirstTracked": "2026-07-14",
    "Latitude": "9.44257",
    "Longitude": "77.55871",
    "RegionCode": "RAYM",
    "State": "Tamil Nadu",
    "SubRegionCode": "RAYM",
    "VenueAddress": "Vembakottai Road, PSK Nagar, Srirengapalayam, Near Muthu Medicals, Rajapalayam, Tamil Nadu 626117, India",
    "VenueCode": "JAAD",
    "VenueName": "Jeya Anand Theatre Dolby Atmos: Rajapalayam"
  },
  "JBTT": {
    "AvailableFormats": "2D",
    "City": "Tumakuru (Tumkur)",
    "Latitude": "13.345",
    "Longitude": "77.0969",
    "RegionCode": "TUMK",
    "State": "Karnataka",
    "SubRegionCode": "TUMK",
    "VenueAddress": "Mandipet Main Road, Opposite Church Road, New Mandipet, Tumakuru (Tumkur), Karnataka 572101, India",
    "VenueCode": "JBTT",
    "VenueName": "Jai Bharath Theater 4K Atmos: Tumkur"
  },
  "JCNM": {
    "AvailableFormats": "2D",
    "City": "Dindigul",
    "Latitude": "10.288",
    "Longitude": "77.9201",
    "RegionCode": "DIND",
    "State": "Tamil Nadu",
    "SubRegionCode": "DIND",
    "VenueAddress": "Balasubramanian Street, Keelakottai, Chinnalapatti, Dindigul, Tamil Nadu 624301, India",
    "VenueCode": "JCNM",
    "VenueName": "J Cinemas A/C 7.1 Laser Projector: Chinnalapatti"
  },
  "JETP": {
    "AvailableFormats": "2D",
    "City": "Pala",
    "Latitude": "9.71532",
    "Longitude": "76.6894",
    "RegionCode": "PALL",
    "State": "Kerala",
    "SubRegionCode": "PALL",
    "VenueAddress": "State Highway 32, Chakkampuzha Road, Near KSRTC Bus Stand, Pala, Kerala 686575, India",
    "VenueCode": "JETP",
    "VenueName": "Jo`s A/c 2k3D 7.1 Dolby Sound: Pala"
  },
  "JJDA": {
    "AvailableFormats": "2D",
    "City": "Pathapatnam",
    "Latitude": "18.7523",
    "Longitude": "84.0947",
    "RegionCode": "PRKM",
    "State": "Andhra Pradesh",
    "SubRegionCode": "PRKM",
    "VenueAddress": "Jagatha Janani Theatre, Near St.Ann`s School, Srikakulam District, Pathapatnam, Andhra Pradesh 532213, India",
    "VenueCode": "JJDA",
    "VenueName": "J &J Cinemas A/C Dolby Atmos: Pathapatnam"
  },
  "JMBA": {
    "AvailableFormats": "2D",
    "City": "Buchireddypalem",
    "Latitude": "14.5351",
    "Longitude": "79.8773",
    "RegionCode": "BCHR",
    "State": "Andhra Pradesh",
    "SubRegionCode": "BCHR",
    "VenueAddress": "Buchi Old, Bus stand, SH 57, Nagamambapuram, Buchireddypalem, Andhra Pradesh 524305, India",
    "VenueCode": "JMBA",
    "VenueName": "Jameela Mahal: Buchireddypalem"
  },
  "JPCC": {
    "AvailableFormats": "2D",
    "City": "Chhatarpur",
    "Latitude": "24.9439",
    "Longitude": "79.564",
    "RegionCode": "CHHT",
    "State": "Madhya Pradesh",
    "SubRegionCode": "CHHT",
    "VenueAddress": "JP Paradise, Peptech Town, Nowgong Road, National Highway 39, Chhatarpur, Madhya Pradesh 471001, India",
    "VenueCode": "JPCC",
    "VenueName": "JP Cinemas: Chhatarpur"
  },
  "JTAB": {
    "AvailableFormats": "",
    "City": "Peddapalli",
    "FirstTracked": "2026-07-14",
    "Latitude": "18.61074",
    "Longitude": "79.38101",
    "RegionCode": "PEDA",
    "State": "Telangana",
    "SubRegionCode": "PEDA",
    "VenueAddress": "Hyderabad - Ramagundam Road, Near Sharanya Hospital, Peddapalli, Telangana 505172, India",
    "VenueCode": "JTAB",
    "VenueName": "Srinivasa 70MM AC Delux: Peddapalli"
  },
  "JTGT": {
    "AvailableFormats": "2D",
    "City": "Payakaraopeta",
    "Latitude": "17.3622",
    "Longitude": "82.5493",
    "RegionCode": "PATE",
    "State": "Andhra Pradesh",
    "SubRegionCode": "PATE",
    "VenueAddress": "Tuni, Payakaraopeta Town Road, Near Panduranga Swamy Temple, Payakaraopeta, Andhra Pradesh 531126, India",
    "VenueCode": "JTGT",
    "VenueName": "Gautham Theatre: Payakaraopeta"
  },
  "JTMT": {
    "AvailableFormats": "",
    "City": "Adilabad",
    "FirstTracked": "2026-07-14",
    "Latitude": "19.67155",
    "Longitude": "78.534355",
    "RegionCode": "ADIL",
    "State": "Telangana",
    "SubRegionCode": "ADIL",
    "VenueAddress": "Mahalaxmiwada, Near Devi Maa Temple, Adilabad, Telangana 504001, India",
    "VenueCode": "JTMT",
    "VenueName": "Maheshwari Theatre: Adilabad"
  },
  "JTPT": {
    "AvailableFormats": "2D",
    "City": "Tenali",
    "Latitude": "16.2406",
    "Longitude": "80.6425",
    "RegionCode": "TENA",
    "State": "Andhra Pradesh",
    "SubRegionCode": "TENA",
    "VenueAddress": "D.No.8-10-1, TS No 20, Ward No.7, Block No.3, Giri Road, Morrispet, Balajirao Pet, Near Railway Station, Tenali, Andhra Pradesh 522202, India",
    "VenueCode": "JTPT",
    "VenueName": "Priya Sri Priya Complex: Tenali"
  },
  "JTST": {
    "AvailableFormats": "2D",
    "City": "Kovur (Nellore)",
    "Latitude": "14.5019",
    "Longitude": "79.986",
    "RegionCode": "KOVR",
    "State": "Andhra Pradesh",
    "SubRegionCode": "KOVR",
    "VenueAddress": "Chinnapadugupadu, Srinivasa Theatre Road, Near State Bank ATM, Kovur (Nellore), Andhra Pradesh 524137, India",
    "VenueCode": "JTST",
    "VenueName": "Srinivas Theatre: Kovur"
  },
  "JVCM": {
    "AvailableFormats": "",
    "City": "Mathura",
    "FirstTracked": "2026-07-14",
    "Latitude": "27.383",
    "Longitude": "77.6911",
    "RegionCode": "MATH",
    "State": "Uttar Pradesh",
    "SubRegionCode": "MATH",
    "VenueAddress": "Site-B, Plot no. C-1 B, CITY HUB MALL, Opposite Refinery Mathura Industrial Area Site-A, Mathura, Uttar Pradesh 281004, India",
    "VenueCode": "JVCM",
    "VenueName": "JV Cinemas: Mathura Refinery"
  },
  "JYOT": {
    "AvailableFormats": "",
    "City": "Sadasivpet",
    "FirstTracked": "2026-07-14",
    "Latitude": "17.615894",
    "Longitude": "77.95759",
    "RegionCode": "SADA",
    "State": "Telangana",
    "SubRegionCode": "SADA",
    "VenueAddress": "NH 65, Main Road, Mumbai Highway, Near SBI, Sadasivpet, Telangana 502291, India",
    "VenueCode": "JYOT",
    "VenueName": "Jyothi 70MM: Sadasivpet"
  },
  "KAMP": {
    "AvailableFormats": "2D|3D",
    "City": "Jabalpur",
    "Latitude": "23.1652",
    "Longitude": "79.935",
    "RegionCode": "JABL",
    "State": "Madhya Pradesh",
    "SubRegionCode": "JABL",
    "VenueAddress": "4th floor, KA Mall, Jyoti talkies, Naudra Bridge, Jabalpur, Madhya Pradesh 482002, India",
    "VenueCode": "KAMP",
    "VenueName": "PVR: KA Mall, Jabalpur"
  },
  "KAYA": {
    "AvailableFormats": "2D",
    "City": "Kanchipuram",
    "Latitude": "12.8375",
    "Longitude": "79.7031",
    "RegionCode": "KNPM",
    "State": "Tamil Nadu",
    "SubRegionCode": "KNPM",
    "VenueAddress": "27, Annai Indira Gandhi Salai, Bavaji Nagar, Nellukara Street, Kanchipuram, Tamil Nadu 631502, India",
    "VenueCode": "KAYA",
    "VenueName": "Karthikeyan Cinemas A/C: Kanchipuram"
  },
  "KCKA": {
    "AvailableFormats": "2D",
    "City": "Korutla",
    "Latitude": "18.8262",
    "Longitude": "78.7134",
    "RegionCode": "KCKA",
    "State": "Telangana",
    "SubRegionCode": "KCKA",
    "VenueAddress": "Nizamabad - Mancherial Road, NH 63, Near LIC of India Satellite Ofc, Korutla, Telangana 505326, India",
    "VenueCode": "KCKA",
    "VenueName": "Kinnera Deluxe Theatre: Korutla"
  },
  "KCPM": {
    "AvailableFormats": "2D",
    "City": "Pattambi",
    "Latitude": "10.8016",
    "Longitude": "76.1664",
    "RegionCode": "PTMB",
    "State": "Kerala",
    "SubRegionCode": "PTMB",
    "VenueAddress": "Puthiya Gate, Koppam - Muthuthala Road, Perumudiyur P.O, Pattambi, Kerala 679303, India",
    "VenueCode": "KCPM",
    "VenueName": "Krishna Cineplex: 4K RGB Laser 3D Dolby Atmos"
  },
  "KDCN": {
    "AvailableFormats": "",
    "City": "Vadakkencherry",
    "FirstTracked": "2026-07-14",
    "Latitude": "10.589787",
    "Longitude": "76.47631",
    "RegionCode": "VDCY",
    "State": "Kerala",
    "SubRegionCode": "VDCY",
    "VenueAddress": "Main Road, Near Sree Krishna Temple, Vadakkencherry, Kerala 678683, India",
    "VenueCode": "KDCN",
    "VenueName": "Kadankavil Cinemas 2K Laser: Vadakkenchery"
  },
  "KGCM": {
    "AvailableFormats": "2D",
    "City": "Coimbatore",
    "Latitude": "11.0001",
    "Longitude": "76.9721",
    "RegionCode": "COIM",
    "State": "Tamil Nadu",
    "SubRegionCode": "COIM",
    "VenueAddress": "No.3, Bungalow Road, Race Course, Near K G Hospital, Coimbatore, Tamil Nadu 641018, India",
    "VenueCode": "KGCM",
    "VenueName": "KG Cinemas: Coimbatore"
  },
  "KKCI": {
    "AvailableFormats": "2D|3D",
    "City": "Imphal",
    "Latitude": "24.7699",
    "Longitude": "93.9367",
    "RegionCode": "IMPH",
    "State": "Manipur",
    "SubRegionCode": "IMPH",
    "VenueAddress": "Kumecs Infratech, Kumecs City Centre, Kakwa, Imphal West, Imphal, Manipur 795008, India",
    "VenueCode": "KKCI",
    "VenueName": "Kumecs Cinema: Imphal"
  },
  "KLJL": {
    "AvailableFormats": "2D",
    "City": "Yellandu",
    "Latitude": "17.5843",
    "Longitude": "80.329",
    "RegionCode": "YRLL",
    "State": "Telangana",
    "SubRegionCode": "YRLL",
    "VenueAddress": "Bhagya Nagar, Thanda, Yellandu, Telangana 507123, India",
    "VenueCode": "KLJL",
    "VenueName": "Kalanjali Theater: Yellandu"
  },
  "KMMV": {
    "AvailableFormats": "2D|3D",
    "City": "Mumbai",
    "Latitude": "19.3708",
    "Longitude": "72.8137",
    "RegionCode": "MUMBAI",
    "State": "Maharashtra",
    "SubRegionCode": "MWEST",
    "VenueAddress": "Kauls Mall, Agarwal Complex, Bhabola Chulna Road, Kaul Heritage City, Vasai (West), Mumbai, Maharashtra 401202, India",
    "VenueCode": "KMMV",
    "VenueName": "K Movie Star Multiplex: Vasai (W)"
  },
  "KOMS": {
    "AvailableFormats": "2D",
    "City": "Sahjanwa",
    "Latitude": "26.7594",
    "Longitude": "83.2154",
    "RegionCode": "GRKP",
    "State": "Uttar Pradesh",
    "SubRegionCode": "GRKP",
    "VenueAddress": "Sanichar Bazaar, Mandi Road, Sahjanwa, Uttar Pradesh 273209, India",
    "VenueCode": "KOMS",
    "VenueName": "Hari Om Multiplex: Sahjanwa"
  },
  "KRCD": {
    "AvailableFormats": "",
    "City": "Vadodara",
    "FirstTracked": "2026-07-14",
    "Latitude": "22.13212",
    "Longitude": "73.40637",
    "RegionCode": "VAD",
    "State": "Gujarat",
    "SubRegionCode": "VAD",
    "VenueAddress": "Sarita Nagar Society, College Road, Vadodara, Gujarat 391110, India",
    "VenueCode": "KRCD",
    "VenueName": "Krishna Cinema: Dabhoi"
  },
  "KRTA": {
    "AvailableFormats": "2D",
    "City": "Kazhakkoottam",
    "Latitude": "8.5664",
    "Longitude": "76.875",
    "RegionCode": "TRIV",
    "State": "Kerala",
    "SubRegionCode": "TRIV",
    "VenueAddress": "NH 47, Bypass Road, Near Bhima Theatre, Kazhakkoottam, Kerala 695582, India",
    "VenueCode": "KRTA",
    "VenueName": "Krishna Theatre: Kazhakkoottam"
  },
  "KSGK": {
    "AvailableFormats": "2D",
    "City": "Vizag (Visakhapatnam)",
    "Latitude": "17.6864",
    "Longitude": "83.208",
    "RegionCode": "SABB",
    "State": "Andhra Pradesh",
    "SubRegionCode": "SABB",
    "VenueAddress": "Main Road, Old Gajuwaka, Near Mamata Hospital, Vizag (Visakhapatnam), Andhra Pradesh 530026, India",
    "VenueCode": "KSGK",
    "VenueName": "Sree Kanya Cinemas: Gajuwaka"
  },
  "KSTN": {
    "AvailableFormats": "",
    "City": "Nagaon",
    "FirstTracked": "2026-07-14",
    "Latitude": "26.351933",
    "Longitude": "92.68961",
    "RegionCode": "NAAM",
    "State": "Assam",
    "SubRegionCode": "NAAM",
    "VenueAddress": "Professors Colony, M.G. Road, Nagaon GPO, Near The Professional Couriers, Nagaon, Assam 782001, India",
    "VenueCode": "KSTN",
    "VenueName": "Krishna Talkies: Nagaon"
  },
  "KTJG": {
    "AvailableFormats": "",
    "City": "Jaggampeta",
    "FirstTracked": "2026-07-14",
    "Latitude": "17.1752",
    "Longitude": "82.0621",
    "RegionCode": "JAGG",
    "State": "Andhra Pradesh",
    "SubRegionCode": "JAGG",
    "VenueAddress": "Jaggampeta-Ramavaram Road, Near Bank of Baroda, Jaggampeta, Andhra Pradesh 533435, India",
    "VenueCode": "KTJG",
    "VenueName": "Krishnaveni Theatre: Jaggampeta"
  },
  "KURL": {
    "AvailableFormats": "2D",
    "City": "Mumbai",
    "Latitude": "19.0669",
    "Longitude": "72.8773",
    "RegionCode": "MUMBAI",
    "State": "Maharashtra",
    "SubRegionCode": "MCENT",
    "VenueAddress": "Station Road, Kurla West, Mumbai, Maharashtra 400070, India",
    "VenueCode": "KURL",
    "VenueName": "Bharat Cineplex: Kurla (W)"
  },
  "LACT": {
    "AvailableFormats": "",
    "City": "Thuraiyur",
    "FirstTracked": "2026-07-14",
    "Latitude": "11.150786",
    "Longitude": "78.593605",
    "RegionCode": "THYR",
    "State": "Tamil Nadu",
    "SubRegionCode": "THYR",
    "VenueAddress": "3A, South Car Street, Senappanallur Road, Near HDFC Bank, Thuraiyur, Tamil Nadu 621010, India",
    "VenueCode": "LACT",
    "VenueName": "LA Cinemas Dolby Atmos: Thuraiyur"
  },
  "LATG": {
    "AvailableFormats": "",
    "City": "Trichy",
    "FirstTracked": "2026-07-14",
    "Latitude": "10.827378",
    "Longitude": "78.68944",
    "RegionCode": "TRIC",
    "State": "Tamil Nadu",
    "SubRegionCode": "TRIC",
    "VenueAddress": "Maris Theater Complex, Fort Station Road, Trichy, Tamil Nadu 620002, India",
    "VenueCode": "LATG",
    "VenueName": "LA CINEMA MARIS COMPLEX RGB LASER: TRICHY"
  },
  "LCNS": {
    "AvailableFormats": "2D",
    "City": "Nagpur",
    "Latitude": "21.1576",
    "Longitude": "79.0798",
    "RegionCode": "NAGP",
    "State": "Maharashtra",
    "SubRegionCode": "NAGP",
    "VenueAddress": "Besides Hotel Tuli Residency Road, Bazar Road Sadar Bazar Liberty Chowk, Mangalwari Bazar, Nagpur, Maharashtra 440001, India",
    "VenueCode": "LCNS",
    "VenueName": "Liberty Cinema: Sadar"
  },
  "LETK": {
    "AvailableFormats": "",
    "City": "Kallakurichi",
    "FirstTracked": "2026-07-14",
    "Latitude": "11.7347",
    "Longitude": "78.9634",
    "RegionCode": "ATTR",
    "State": "Tamil Nadu",
    "SubRegionCode": "ATTR",
    "VenueAddress": "State Highway 6, Raja Nagar, Kallakurichi, Near Lakshmi Vilas Bank, Kallakurichi, Tamil Nadu 606213, India",
    "VenueCode": "LETK",
    "VenueName": "LENA CINE SPACE A/C 4K RGB LASER DOLBY ATMOS"
  },
  "LKCT": {
    "AvailableFormats": "2D",
    "City": "Tanuku",
    "Latitude": "16.7493",
    "Longitude": "81.6831",
    "RegionCode": "TADP",
    "State": "Andhra Pradesh",
    "SubRegionCode": "TADP",
    "VenueAddress": "Lakshmi Complex, Velpur Road,Venkiatrayapuram, Near Kadharawara Sweet Shop, Tanuku, Andhra Pradesh 534211, India",
    "VenueCode": "LKCT",
    "VenueName": "Lakshmi Complex: Tanuku"
  },
  "LLCH": {
    "AvailableFormats": "2D",
    "City": "Haldwani",
    "Latitude": "29.2121",
    "Longitude": "79.5275",
    "RegionCode": "HALD",
    "State": "Uttarakhand",
    "SubRegionCode": "HALD",
    "VenueAddress": "Sindhi Chaurah, Rampur Road, Nainital, Haldwani, Uttarakhand 263139, India",
    "VenueCode": "LLCH",
    "VenueName": "Laxmi Cineplex: Haldwani"
  },
  "LPCH": {
    "AvailableFormats": "2D|3D",
    "City": "Hubballi (Hubli)",
    "Latitude": "15.3485",
    "Longitude": "75.1443",
    "RegionCode": "HUBL",
    "State": "Karnataka",
    "SubRegionCode": "HUBL",
    "VenueAddress": "3rd Floor, Laxmi Mall, Coen Road, Shree Shakti Road, J C Nagar, New Hubli, Hubballi (Hubli), Karnataka 580020, India",
    "VenueCode": "LPCH",
    "VenueName": "Laxmi Citypride Multiplex: Laxmi Mall, Hubli"
  },
  "LTRM": {
    "AvailableFormats": "2D",
    "City": "Ratlam",
    "Latitude": "23.3291",
    "Longitude": "75.0381",
    "RegionCode": "KHCU",
    "State": "Madhya Pradesh",
    "SubRegionCode": "KHCU",
    "VenueAddress": "Lokendra Talkies Road, Sahar Sarai, Laxman Pura, Katju Nagar, Near Getwell Hospital and Research Center, Ratlam, Madhya Pradesh 457001, India",
    "VenueCode": "LTRM",
    "VenueName": "Shri Lokendra Talkies (Laser Projector): Ratlam"
  },
  "LXTK": {
    "AvailableFormats": "2D",
    "City": "Kakinada",
    "Latitude": "16.9442",
    "Longitude": "82.2361",
    "RegionCode": "KAKI",
    "State": "Andhra Pradesh",
    "SubRegionCode": "KAKI",
    "VenueAddress": "D No. 42-1-11, Vallabhai Street, Cinema Road, Suryanarayana Puram, Kakinada, Andhra Pradesh 533001, India",
    "VenueCode": "LXTK",
    "VenueName": "Laxmi  A/C  Dts 2K: Kakinada"
  },
  "MABI": {
    "AvailableFormats": "2D|3D",
    "City": "Bhilai",
    "Latitude": "21.2125",
    "Longitude": "81.4321",
    "RegionCode": "BHILAI",
    "State": "Chhattisgarh",
    "SubRegionCode": "BHILAI",
    "VenueAddress": "Nagar Palika Road, Shanti Nagar, Charoda, Near Jila Sahakari Kendriya Bank Maryadit Bank, Bhilai, Chhattisgarh 490021, India",
    "VenueCode": "MABI",
    "VenueName": "Mukta A2 Cinema, Babyloon (Bhilai 3): Bhilai"
  },
  "MADC": {
    "AvailableFormats": "2D",
    "City": "Badnagar",
    "Latitude": "23.0591",
    "Longitude": "75.3722",
    "RegionCode": "BADA",
    "State": "Madhya Pradesh",
    "SubRegionCode": "BADA",
    "VenueAddress": "Swastik Enterprises, Diversion Road, Court Choraha, Badnagar, Madhya Pradesh 456771, India",
    "VenueCode": "MADC",
    "VenueName": "Madhuram Cineplex (The Box) Badnagar: Ujjain"
  },
  "MAJT": {
    "AvailableFormats": "2D",
    "City": "Kochi",
    "Latitude": "10.0448",
    "Longitude": "76.2176",
    "RegionCode": "PALY",
    "State": "Kerala",
    "SubRegionCode": "PALY",
    "VenueAddress": "Vypin - Pallipuram Road, Narakkal, Njarackal Ernakulam, Near Narakkal Gramapanchayath Karyalayam, Kochi, Kerala 682505, India",
    "VenueCode": "MAJT",
    "VenueName": "Majestic Multiplex 4K RGB Laser: Narakkal"
  },
  "MAPM": {
    "AvailableFormats": "2D|3D",
    "City": "Bhopal",
    "Latitude": "23.3045",
    "Longitude": "77.4219",
    "RegionCode": "BHOP",
    "State": "Madhya Pradesh",
    "SubRegionCode": "BHOP",
    "VenueAddress": "1st Floor, Peoples Mall, Peoples Campus, Bhanpur, Bhopal, Madhya Pradesh 462037, India",
    "VenueCode": "MAPM",
    "VenueName": "Mukta A2 Cinemas: Peoples Mall, Bhopal"
  },
  "MAVT": {
    "AvailableFormats": "",
    "City": "Punganur",
    "FirstTracked": "2026-07-14",
    "Latitude": "13.36582",
    "Longitude": "78.57048",
    "RegionCode": "PGNR",
    "State": "Andhra Pradesh",
    "SubRegionCode": "PGNR",
    "VenueAddress": "Tatimakula palem road, Near Hotel SRI Restaurant, Punganur, Andhra Pradesh 517247, India",
    "VenueCode": "MAVT",
    "VenueName": "Sri Venkateshwara Mahal A/C Dolby Atmos 2K"
  },
  "MBDC": {
    "AvailableFormats": "2D",
    "City": "Kozhikode",
    "Latitude": "11.2599",
    "Longitude": "75.787",
    "RegionCode": "KOZH",
    "State": "Kerala",
    "SubRegionCode": "KOZH",
    "VenueAddress": "3rd Floor, Mavoor Road, Near Mofussil Bus Stand, Kozhikode, Kerala 673004, India",
    "VenueCode": "MBDC",
    "VenueName": "Miraj Cinemas: Blue Diamond Mall, Calicut"
  },
  "MCAZ": {
    "AvailableFormats": "",
    "City": "Delhi",
    "Latitude": "28.7099",
    "Longitude": "77.1782",
    "RegionCode": "NCR",
    "State": "NCR",
    "SubRegionCode": "DELHI",
    "VenueAddress": "Aakash Cinema Complex, 2nd Floor, Naniwala Bagh, Azadpur, Delhi, NCR 110033, India",
    "VenueCode": "MCAZ",
    "VenueName": "Miraj Cinemas: Aakash, Azadpur"
  },
  "MCCZ": {
    "AvailableFormats": "2D",
    "City": "Ambajogai",
    "Latitude": "18.7313",
    "Longitude": "76.391",
    "RegionCode": "AMBG",
    "State": "Maharashtra",
    "SubRegionCode": "AMBG",
    "VenueAddress": "Prashant Nagar, Dr. B.R Ambedkar Road, Ambajogai, Maharashtra 431517, India",
    "VenueCode": "MCCZ",
    "VenueName": "Mohan Cinemark: Ambajogai"
  },
  "MCFS": {
    "AvailableFormats": "",
    "City": "Tirur",
    "FirstTracked": "2026-07-14",
    "Latitude": "10.90895",
    "Longitude": "75.919014",
    "RegionCode": "TRUR",
    "State": "Kerala",
    "SubRegionCode": "TRUR",
    "VenueAddress": "Paravanna Road, Poongotukulam, Tirur, Kerala 676101, India",
    "VenueCode": "MCFS",
    "VenueName": "Magic Frames Khayaam 4k Dolby Atmos 3D: Tirur"
  },
  "MCHR": {
    "AvailableFormats": "",
    "City": "Hisar",
    "FirstTracked": "2026-07-14",
    "Latitude": "29.15723",
    "Longitude": "75.72142",
    "RegionCode": "HISR",
    "State": "Haryana",
    "SubRegionCode": "HISR",
    "VenueAddress": "3rd Floor, Eminent Mall - Red Square Market, Delhi Road, Hisar, Haryana 125001, India",
    "VenueCode": "MCHR",
    "VenueName": "Miraj Cinemas: Hisar"
  },
  "MCKP": {
    "AvailableFormats": "",
    "City": "Abohar",
    "Latitude": "30.1284",
    "Longitude": "74.2053",
    "RegionCode": "ABOR",
    "State": "Punjab",
    "SubRegionCode": "ABOR",
    "VenueAddress": "Abohar - Hanumangarh Road, Hanumangarh, Abohar, Punjab 152116, India",
    "VenueCode": "MCKP",
    "VenueName": "Miraj Cinemas: Kundan Palace, Abohar"
  },
  "MCNA": {
    "AvailableFormats": "2D|3D",
    "City": "Ahmedabad",
    "Latitude": "23.082",
    "Longitude": "72.6727",
    "RegionCode": "AHD",
    "State": "Gujarat",
    "SubRegionCode": "AHD",
    "VenueAddress": "5th floor, Vitthal Plaza, Naroda Dahegam Road, New Naroda, Opp GEB, Ahmedabad, Gujarat 382330, India",
    "VenueCode": "MCNA",
    "VenueName": "Miraj Cinemas: Vitthal Plaza, New Naroda"
  },
  "MCRM": {
    "AvailableFormats": "3D|2D",
    "City": "Mumbai",
    "Latitude": "19.1841",
    "Longitude": "72.9524",
    "RegionCode": "MUMBAI",
    "State": "Maharashtra",
    "SubRegionCode": "MCENT",
    "VenueAddress": "3rd Floor, R Mall, L.B.S Marg, Near Mulund Check Naka and Kamgar Colony, Mulund West, Mumbai, Maharashtra 400080, India",
    "VenueCode": "MCRM",
    "VenueName": "Miraj Cinemas: R Mall, Mulund"
  },
  "MCSS": {
    "AvailableFormats": "",
    "City": "Hyderabad",
    "Latitude": "17.3678",
    "Longitude": "78.5363",
    "RegionCode": "HYD",
    "State": "Telangana",
    "SubRegionCode": "HYD",
    "VenueAddress": "Opposite Kothapet Fruit Market, Beside Reddy Bar and Restaurant, Kothapet Near Induss Hospital, Hyderabad, Telangana 500036, India",
    "VenueCode": "MCSS",
    "VenueName": "Miraj Cinemas: Shalini Shivani, Kothapet"
  },
  "MCVM": {
    "AvailableFormats": "",
    "City": "Delhi",
    "Latitude": "28.6123",
    "Longitude": "77.3111",
    "RegionCode": "NCR",
    "State": "NCR",
    "SubRegionCode": "DELHI",
    "VenueAddress": "Chand Cinema Building, Trilokpuri, Mayur Vihar Phase 1, Near Sanjay Lake Trilokpuri Metro Station, New Delhi, Delhi, NCR 110091, India",
    "VenueCode": "MCVM",
    "VenueName": "Miraj Cinemas: Chand, Mayur Vihar Phase 1"
  },
  "MDIT": {
    "AvailableFormats": "2D",
    "City": "Trichy",
    "Latitude": "10.7464",
    "Longitude": "78.59",
    "RegionCode": "TRIC",
    "State": "Tamil Nadu",
    "SubRegionCode": "TRIC",
    "VenueAddress": "484 Navalurkottapattu, Dindigul High Road, Trichy, Tamil Nadu 620009, India",
    "VenueCode": "MDIT",
    "VenueName": "A-Moorthys Drive-In Theatre: Trichy"
  },
  "MELD": {
    "AvailableFormats": "2D",
    "City": "Vizag (Visakhapatnam)",
    "Latitude": "17.7113",
    "Longitude": "83.3005",
    "RegionCode": "SABB",
    "State": "Andhra Pradesh",
    "SubRegionCode": "SABB",
    "VenueAddress": "Suryabagh, Jagadamba Junction, V Max Theatre, Vizag, Andhra Pradesh 530020, India",
    "VenueCode": "MELD",
    "VenueName": "Sri Melody HDR Dolby Atmos: Vizag"
  },
  "METH": {
    "AvailableFormats": "2D|3D",
    "City": "Ahmedabad",
    "Latitude": "23.1027",
    "Longitude": "72.5952",
    "RegionCode": "AHD",
    "State": "Gujarat",
    "SubRegionCode": "AHD",
    "VenueAddress": "4D Square Mall, Visat - Gandhinagar Highway, Ahmedabad, Gujarat 380005, India",
    "VenueCode": "METH",
    "VenueName": "PVR: Motera, Ahmedabad"
  },
  "MHFF": {
    "AvailableFormats": "3D|2D",
    "City": "Yavatmal",
    "Latitude": "20.4011",
    "Longitude": "78.1302",
    "RegionCode": "YAVA",
    "State": "Maharashtra",
    "SubRegionCode": "YAVA",
    "VenueAddress": "Bombaywala Compound, C/o Zuber Imdad Ali Bombaywala, Plot No.6 Wanjari Fail SBI Road, Opposite Khoja Colony, Yavatmal, Maharashtra 445001, India",
    "VenueCode": "MHFF",
    "VenueName": "MH29 Fun N Food Miniplex: Yavatmal"
  },
  "MINL": {
    "AvailableFormats": "2D",
    "City": "Sangli",
    "Latitude": "17.094",
    "Longitude": "74.459",
    "RegionCode": "ASMA",
    "State": "Maharashtra",
    "SubRegionCode": "ASMA",
    "VenueAddress": "Karad Tasgaon Road, Near Old S T Stand, Sangli, Maharashtra 416310, India",
    "VenueCode": "MINL",
    "VenueName": "Minakshi Cinema: Palus"
  },
  "MJMJ": {
    "AvailableFormats": "2D|3D",
    "City": "Jabalpur",
    "Latitude": "23.1241",
    "Longitude": "79.9273",
    "RegionCode": "JABL",
    "State": "Madhya Pradesh",
    "SubRegionCode": "JABL",
    "VenueAddress": "2nd Floor, South Avenue Mall, Narmada Road, Polipather, Jabalpur, Madhya Pradesh 482008, India",
    "VenueCode": "MJMJ",
    "VenueName": "Movie Magic (SAM): Jabalpur"
  },
  "MKNS": {
    "AvailableFormats": "",
    "City": "Aligarh",
    "FirstTracked": "2026-07-14",
    "Latitude": "27.886385",
    "Longitude": "78.07768",
    "RegionCode": "ALI",
    "State": "Uttar Pradesh",
    "SubRegionCode": "ALI",
    "VenueAddress": "Ramghat Road, Shyam Nagar, Aligarh, Uttar Pradesh 202001, India",
    "VenueCode": "MKNS",
    "VenueName": "Meenakshi Cinema: Aligarh"
  },
  "MLDT": {
    "AvailableFormats": "2D",
    "City": "Bengaluru",
    "Latitude": "12.9987",
    "Longitude": "77.5035",
    "RegionCode": "HOKT",
    "State": "Karnataka",
    "SubRegionCode": "HOKT",
    "VenueAddress": "Magadi Main Road, Near Hegganahalli Cross, Sunkadakatte, Bengaluru, Karnataka 560091, India",
    "VenueCode": "MLDT",
    "VenueName": "Mohan Cinema Barco 4K A/C 7.1: Sunkadakatte"
  },
  "MMCK": {
    "AvailableFormats": "2D",
    "City": "Katghora",
    "Latitude": "22.4996",
    "Longitude": "82.5419",
    "RegionCode": "KATG",
    "State": "Chhattisgarh",
    "SubRegionCode": "KATG",
    "VenueAddress": "Murli Metro Cinema, Near Gopal Petro Pump, Bilaspur - Katghora Highway, Katghora, Chhattisgarh 495445, India",
    "VenueCode": "MMCK",
    "VenueName": "Murli Metro Cinema: Katghora"
  },
  "MMKJ": {
    "AvailableFormats": "",
    "City": "Selu",
    "FirstTracked": "2026-07-14",
    "Latitude": "19.460514",
    "Longitude": "76.43564",
    "RegionCode": "SELU",
    "State": "Maharashtra",
    "SubRegionCode": "SELU",
    "VenueAddress": "Swami Vivekanand Nagar, Maulana Azad Nagar, College Road Roadseludegaon, Phata Road, Sailu, Selu, Maharashtra 431503, India",
    "VenueCode": "MMKJ",
    "VenueName": "Meenakshi Cinemark: Selu"
  },
  "MMOM": {
    "AvailableFormats": "",
    "City": "Patiala",
    "FirstTracked": "2026-07-14",
    "Latitude": "30.337278",
    "Longitude": "76.39434",
    "RegionCode": "PATI",
    "State": "Punjab",
    "SubRegionCode": "PATI",
    "VenueAddress": "MovieMax, 2nd Floor, Omaxe Mall, Near Kali Mata Mandir, Patiala, Punjab 147001, India",
    "VenueCode": "MMOM",
    "VenueName": "MovieMax: Omaxe Mall, Patiala (SRS Earlier)"
  },
  "MMTZ": {
    "AvailableFormats": "",
    "City": "Nashik",
    "FirstTracked": "2026-07-14",
    "Latitude": "20.005316",
    "Longitude": "73.76628",
    "RegionCode": "NASK",
    "State": "Maharashtra",
    "SubRegionCode": "NASK",
    "VenueAddress": "MovieMax, Above Big Bazaar, College Road, Near Vitthal Mandir, Nashik, Maharashtra 422005, India",
    "VenueCode": "MMTZ",
    "VenueName": "MovieMaX: The Zone, College Road, Nashik"
  },
  "MMZP": {
    "AvailableFormats": "2D",
    "City": "Ponda",
    "Latitude": "15.4001",
    "Longitude": "74.0185",
    "RegionCode": "GOA",
    "State": "Goa",
    "SubRegionCode": "PONA",
    "VenueAddress": "Upper Bazar Road, Prabhu Nagar, Ponda, Goa 403401, India",
    "VenueCode": "MMZP",
    "VenueName": "Magic Moviez: Ponda"
  },
  "MNSC": {
    "AvailableFormats": "",
    "City": "Jajpur Road",
    "FirstTracked": "2026-07-14",
    "Latitude": "20.93864",
    "Longitude": "86.15278",
    "RegionCode": "JAJP",
    "State": "Odisha",
    "SubRegionCode": "JAJP",
    "VenueAddress": "Vyasanagar, Panikoili Road, Jajpur Road, Odisha 755019, India",
    "VenueCode": "MNSC",
    "VenueName": "Mission Shakti Cinema: Jajpur Road"
  },
  "MRAA": {
    "AvailableFormats": "2D|3D",
    "City": "Hyderabad",
    "Latitude": "17.4824",
    "Longitude": "78.4487",
    "RegionCode": "HYD",
    "State": "Telangana",
    "SubRegionCode": "HYD",
    "VenueAddress": "A2A Central Mall, 4th Floor, Adarsh Nagar, Hyderabad, Telangana 500037, India",
    "VenueCode": "MRAA",
    "VenueName": "Miraj Cinemas: A2A Central Mall, Balanagar"
  },
  "MRHT": {
    "AvailableFormats": "",
    "City": "Kothagudem",
    "Latitude": "17.5638",
    "Longitude": "80.623",
    "RegionCode": "KTGM",
    "State": "Telangana",
    "SubRegionCode": "KTGM",
    "VenueAddress": "9-60 Behind Rajya Laxmi Motors Laxmidevipally, Srinagar, Laxmidevipalle Rural, Near Axis Bank, Kothagudem, Telangana 507101, India",
    "VenueCode": "MRHT",
    "VenueName": "Maheshwari 2K Dolby Atmos: Kothagudem"
  },
  "MRTE": {
    "AvailableFormats": "2D",
    "City": "Mandya",
    "Latitude": "12.5275",
    "Longitude": "76.8955",
    "RegionCode": "MND",
    "State": "Karnataka",
    "SubRegionCode": "MND",
    "VenueAddress": "Bangalore Mysore Highway, M.C. Road, Ashok Nagar, Mandya, Karnataka 571401, India",
    "VenueCode": "MRTE",
    "VenueName": "Mahaveer Theatre: Mandya"
  },
  "MSMA": {
    "AvailableFormats": "2D|3D",
    "City": "Kolkata",
    "Latitude": "22.5777",
    "Longitude": "88.4008",
    "RegionCode": "KOLK",
    "State": "West Bengal",
    "SubRegionCode": "KOLK",
    "VenueAddress": "Mani Square Mall,Plot No 164/1, EM Bypass Road, Beside Apollo Gleaneagles Hospital, Kolkata, West Bengal 700054, India",
    "VenueCode": "MSMA",
    "VenueName": "PVR: Mani Square Mall, Kolkata"
  },
  "MTBN": {
    "AvailableFormats": "",
    "City": "Barwani",
    "FirstTracked": "2026-07-14",
    "Latitude": "22.02927",
    "Longitude": "74.90415",
    "RegionCode": "BRWN",
    "State": "Madhya Pradesh",
    "SubRegionCode": "BRWN",
    "VenueAddress": "Moulana Azad Marg, Maa Vaishno Devi Road, Opposite Ganesh Temple, Near MPEB, Barwani, Madhya Pradesh 451551, India",
    "VenueCode": "MTBN",
    "VenueName": "Mahendra Talkies: Barwani"
  },
  "MTGD": {
    "AvailableFormats": "2D",
    "City": "Mumbai",
    "Latitude": "19.2519",
    "Longitude": "72.8629",
    "RegionCode": "MUMBAI",
    "State": "Maharashtra",
    "SubRegionCode": "MWEST",
    "VenueAddress": "Old Rajeshri Cinema Building, S V Road, Maratha Colony Road, Dahisar East, Near Ravindra Hotel, Mumbai, Maharashtra 400068, India",
    "VenueCode": "MTGD",
    "VenueName": "Movietime: Dahisar (E)"
  },
  "MTLM": {
    "AvailableFormats": "2D",
    "City": "Chennai",
    "Latitude": "13.2795",
    "Longitude": "80.2606",
    "RegionCode": "CHEN",
    "State": "Tamil Nadu",
    "SubRegionCode": "CHEN",
    "VenueAddress": "27,Thiruvottiyur High Road, Minjur, Tiruvallur, Chennai, Tamil Nadu 601203, India",
    "VenueCode": "MTLM",
    "VenueName": "Mani Talkies 2K RGB Laser ATMOS: Minjur"
  },
  "MTRB": {
    "AvailableFormats": "2D|3D",
    "City": "Ahmedabad",
    "Latitude": "23.0303",
    "Longitude": "72.4713",
    "RegionCode": "AHD",
    "State": "Gujarat",
    "SubRegionCode": "AHD",
    "VenueAddress": "5th floor, Block A, The Retail Park (TRP), Near Rajyash City, Central Bopal, Ahmedabad, Gujarat 380058, India",
    "VenueCode": "MTRB",
    "VenueName": "Mukta A2 Cinemas: The Retail Park (TRP) Bopal"
  },
  "MUCK": {
    "AvailableFormats": "3D|2D",
    "City": "Kalyan",
    "Latitude": "19.2602",
    "Longitude": "73.1236",
    "RegionCode": "MUMBAI",
    "State": "Maharashtra",
    "SubRegionCode": "KALYAN",
    "VenueAddress": "Triveni Grande, 4th Floor, D.B Chowk, Adharwadi Jail Road, Kalyan West, Thane, Near Don Bosco School, Kalyan, Maharashtra 421301, India",
    "VenueCode": "MUCK",
    "VenueName": "Mukta A2 Cinemas: Triveni Grande, Kalyan (West)"
  },
  "MVRP": {
    "AvailableFormats": "2D",
    "City": "Rudrapur",
    "Latitude": "28.9757",
    "Longitude": "79.3866",
    "RegionCode": "RUDP",
    "State": "Uttarakhand",
    "SubRegionCode": "RUDP",
    "VenueAddress": "Ground Floor, Old Chawla Cinema, Gaba Chowk, Near Essar Petrol Pump, Rudrapur, Uttarakhand 263153, India",
    "VenueCode": "MVRP",
    "VenueName": "Movietime Cinemas: Rudrapur"
  },
  "MXCS": {
    "AvailableFormats": "2D|3D",
    "City": "Greater Noida",
    "Latitude": "28.458",
    "Longitude": "77.5281",
    "RegionCode": "NCR",
    "State": "NCR",
    "SubRegionCode": "GRET",
    "VenueAddress": "MSX CINEMA, 3rd Floor, Sec-19, Block F, Industrial Area, Greater Noida, NCR 201310, India",
    "VenueCode": "MXCS",
    "VenueName": "MSX Cinemas: Greater Noida"
  },
  "MYCT": {
    "AvailableFormats": "2D",
    "City": "Thalayolaparambu",
    "Latitude": "9.78555",
    "Longitude": "76.4529",
    "RegionCode": "THAL",
    "State": "Kerala",
    "SubRegionCode": "THAL",
    "VenueAddress": "Thalayolaparambu P.O,Kottayam, Ernakulam Road, Ernakulam Road, Near Bharat Petrol Pump, Thalayolaparambu, Kerala 686605, India",
    "VenueCode": "MYCT",
    "VenueName": "MY Cinemas: Thalayolaparambu, Kerala"
  },
  "NACK": {
    "AvailableFormats": "2D",
    "City": "Kolkata",
    "Latitude": "22.5009",
    "Longitude": "88.3486",
    "RegionCode": "KOLK",
    "State": "West Bengal",
    "SubRegionCode": "KOLK",
    "VenueAddress": "85, Prince Anwar Shah Road, Tollygunge, Rajendra Prasad Colony, Kolkata, West Bengal 700033, India",
    "VenueCode": "NACK",
    "VenueName": "Navina Cinema: Tollygunge"
  },
  "NBCH": {
    "AvailableFormats": "2D",
    "City": "Diamond Harbour",
    "Latitude": "22.2053",
    "Longitude": "88.1842",
    "RegionCode": "MNHR",
    "State": "West Bengal",
    "SubRegionCode": "MNHR",
    "VenueAddress": "NH34 New Town, Harindanga, Jaydebpur, Diamond Harbour, West Bengal 743331, India",
    "VenueCode": "NBCH",
    "VenueName": "New Bijoli Cinema: Diamond Harbour"
  },
  "NCJA": {
    "AvailableFormats": "2D",
    "City": "Jalna",
    "Latitude": "19.835",
    "Longitude": "75.8936",
    "RegionCode": "JALN",
    "State": "Maharashtra",
    "SubRegionCode": "JALN",
    "VenueAddress": "Railway Station Road, Nariman Nagar, Jalna, Maharashtra 431213, India",
    "VenueCode": "NCJA",
    "VenueName": "Neelam Cineplex: Jalna"
  },
  "NCTH": {
    "AvailableFormats": "2D",
    "City": "Vizianagaram",
    "Latitude": "18.1174",
    "Longitude": "83.4003",
    "RegionCode": "JAMI",
    "State": "Andhra Pradesh",
    "SubRegionCode": "JAMI",
    "VenueAddress": "Chinna Veedhi, Balaji Nagar, MG Rd NCS Area, Near SBI Main Branch, Vizianagaram, Andhra Pradesh 535001, India",
    "VenueCode": "NCTH",
    "VenueName": "NCS 4K Laser Dolby Atmos: Vizianagaram"
  },