{
  "AACM": {
    "AvailableFormats": "2D",
    "City": "Raniganj",
    "Latitude": "23.6272",
    "Longitude": "87.1138",
    "RegionCode": "RNGJ",
    "State": "West Bengal",
    "SubRegionCode": "RNGJ",
    "VenueAddress": "N S B Road, P/O Raniganj, Raniganj, West Bengal 713347, India",
    "VenueCode": "AACM",
    "VenueName": "Anjana Chitra Mandir: Raniganj"
  },
  "AASH": {
    "AvailableFormats": "2D",
    "City": "Bhandara",
    "Latitude": "21.17",
    "Longitude": "79.6562",
    "RegionCode": "BHAA",
    "State": "Maharashtra",
    "SubRegionCode": "BHAA",
    "VenueAddress": "Gandhi Square, Gandhi Chowk, Santaji Nagar, Bhandara, Maharashtra 441904, India",
    "VenueCode": "AASH",
    "VenueName": "Adarsh Chitra Mandir: Bhandara"
  },
  "ABCT": {
    "AvailableFormats": "2D",
    "City": "Bodinayakanur",
    "Latitude": "10.0077",
    "Longitude": "77.3531",
    "RegionCode": "BODI",
    "State": "Tamil Nadu",
    "SubRegionCode": "BODI",
    "VenueAddress": "P. H Road, Old bus stand, Bodinayakanur, Tamil Nadu 625513, India",
    "VenueCode": "ABCT",
    "VenueName": "Arra Cinemas: Bodi"
  },
  "ACAM": {
    "AvailableFormats": "2D",
    "City": "Ambala",
    "Latitude": "30.3786",
    "Longitude": "76.7636",
    "RegionCode": "AMB",
    "State": "Haryana",
    "SubRegionCode": "AMB",
    "VenueAddress": "City Plaza, 947, Citi Mall, NH 152, Patti Mehar, Ambala, Haryana 134003, India",
    "VenueCode": "ACAM",
    "VenueName": "Ayaan Cinemas: Ambala"
  },
  "ACEV": {
    "AvailableFormats": "2D",
    "City": "Hyderabad",
    "Latitude": "17.338",
    "Longitude": "78.5678",
    "RegionCode": "HYD",
    "State": "Telangana",
    "SubRegionCode": "HYD",
    "VenueAddress": "Door. No.5-5-185 and 5-5-186,Sy.No.53 and 56, 4th Floor, TATTVA MALL, Vanasthalipuram, Saheb Nagar Khurd, Hyderabad, Telangana 500070, India",
    "VenueCode": "ACEV",
    "VenueName": "ART CINEMAS: Vanasthalipuram"
  },
  "ACKB": {
    "AvailableFormats": "2D",
    "City": "Bengaluru",
    "Latitude": "12.977726",
    "Longitude": "77.575961",
    "RegionCode": "BANG",
    "State": "Karnataka",
    "SubRegionCode": "BANG",
    "VenueAddress": "No-300/1, S.C.Road, Gandhinagar, Next To Movieland Theatre, Bengaluru, Karnataka 560009, India",
    "VenueCode": "ACKB",
    "VenueName": "AMB Cinemas Kapali: Bengaluru"
  },
  "ACNB": {
    "AvailableFormats": "2D|3D",
    "City": "Barasat",
    "Latitude": "22.7199",
    "Longitude": "88.4875",
    "RegionCode": "BSRT",
    "State": "West Bengal",
    "SubRegionCode": "BSRT",
    "VenueAddress": "Bus Stand, 125/1, Jessore Road, Champadali, Barasat, West Bengal 700124, India",
    "VenueCode": "ACNB",
    "VenueName": "SSR Cinemas, Suncity Mall: Barasat"
  },
  "ACSI": {
    "AvailableFormats": "2D",
    "City": "Shamli",
    "Latitude": "29.4176",
    "Longitude": "77.2509",
    "RegionCode": "SHAM",
    "State": "Uttar Pradesh",
    "SubRegionCode": "SHAM",
    "VenueAddress": "Shamli-Kairana Road, Near Shubh Lagan Marriage Hall, Shamli, Uttar Pradesh 247776, India",
    "VenueCode": "ACSI",
    "VenueName": "Adhiraj Cinemas: Shamli"
  },
  "ACXK": {
    "AvailableFormats": "2D",
    "City": "Kichha",
    "Latitude": "28.9107",
    "Longitude": "79.5144",
    "RegionCode": "KCHA",
    "State": "Uttarakhand",
    "SubRegionCode": "KCHA",
    "VenueAddress": "Bareilly Road, Main Market, Kichha, Uttarakhand 263148, India",
    "VenueCode": "ACXK",
    "VenueName": "Anupam Cineplex: Kichha"
  },
  "ADKM": {
    "AvailableFormats": "2D",
    "City": "Kamareddy",
    "Latitude": "18.3286",
    "Longitude": "78.3357",
    "RegionCode": "KMRD",
    "State": "Telangana",
    "SubRegionCode": "KMRD",
    "VenueAddress": "Aldoor Road, Near Panchamukhi Hanuman Temple, Kamareddy, Telangana 503111, India",
    "VenueCode": "ADKM",
    "VenueName": "Asian Darshan: Kamareddy"
  },
  "AICF": {
    "AvailableFormats": "2D",
    "City": "Guwahati",
    "Latitude": "26.1322",
    "Longitude": "91.8207",
    "RegionCode": "GUW",
    "State": "Assam",
    "SubRegionCode": "GUW",
    "VenueAddress": "2nd Floor, Asffdc Limited, Shilpgram Road, Panjabari, Guwahati, Assam 781037, India",
    "VenueCode": "AICF",
    "VenueName": "Aideo Cinema Hall: ASFFDC, Panjabari, Guwahati"
  },
  "AKMD": {
    "AvailableFormats": "2D|3D",
    "City": "Chhindwara",
    "Latitude": "22.0607",
    "Longitude": "78.9455",
    "RegionCode": "CHIN",
    "State": "Madhya Pradesh",
    "SubRegionCode": "CHIN",
    "VenueAddress": "Alka Multiplex Alka Cinema Compound, Bus Stand to Station Road, Chhindwara, Madhya Pradesh 480001, India",
    "VenueCode": "AKMD",
    "VenueName": "Alka Multiplex: Chhindwara"
  },
  "ALCS": {
    "AvailableFormats": "2D",
    "City": "Shirpur",
    "Latitude": "21.3442",
    "Longitude": "74.8805",
    "RegionCode": "SRUR",
    "State": "Maharashtra",
    "SubRegionCode": "SRUR",
    "VenueAddress": "Main Road, Krantinagar, Shirpur, Maharashtra 425405, India",
    "VenueCode": "ALCS",
    "VenueName": "Alankar Chitramandir: Shirpur"
  },
  "AMCB": {
    "AvailableFormats": "2D",
    "City": "Shahjahanpur",
    "Latitude": "27.8716",
    "Longitude": "79.9081",
    "RegionCode": "SHJH",
    "State": "Uttar Pradesh",
    "SubRegionCode": "SHJH",
    "VenueAddress": "Aligai, Chamkani, Loharo Wala Chauraha Road, Near Tabeer Resort, Shahjahanpur, Uttar Pradesh 242001, India",
    "VenueCode": "AMCB",
    "VenueName": "Amba Cineplex: Shahjahanpur"
  },
  "AMKN": {
    "AvailableFormats": "3D|2D",
    "City": "Nagpur",
    "Latitude": "21.2663",
    "Longitude": "79.0873",
    "RegionCode": "NAGP",
    "State": "Maharashtra",
    "SubRegionCode": "NAGP",
    "VenueAddress": "A M Cinema, Near Naivedhyam Cele, New Nanda, Koradi, Nagpur, Maharashtra 441111, India",
    "VenueCode": "AMKN",
    "VenueName": "AM Cinema: Koradi, Nagpur"
  },
  "AMST": {
    "AvailableFormats": "2D",
    "City": "Karimnagar",
    "Latitude": "18.4292",
    "Longitude": "79.1387",
    "RegionCode": "KARIM",
    "State": "Telangana",
    "SubRegionCode": "KARIM",
    "VenueAddress": "Srinivasa Theatre Road, Shasha Mahala, Ashoknagar, Near Kakatiya Techno School, Karimnagar, Telangana 505001, India",
    "VenueCode": "AMST",
    "VenueName": "Asian Mukta A2 Srinivasa Theatre: Karimnagar"
  },
  "ANCL": {
    "AvailableFormats": "2D",
    "City": "Lalgudi",
    "Latitude": "10.8747",
    "Longitude": "78.8186",
    "RegionCode": "LALG",
    "State": "Tamil Nadu",
    "SubRegionCode": "LALG",
    "VenueAddress": "No.79F, Main Road, Opposite IOB, Lalgudi, Tamil Nadu 621601, India",
    "VenueCode": "ANCL",
    "VenueName": "Anbu Cinemas A/C 7.1: Lalgudi"
  },
  "ANRS": {
    "AvailableFormats": "2D",
    "City": "Sircilla",
    "Latitude": "18.3863",
    "Longitude": "78.8129",
    "RegionCode": "SIRC",
    "State": "Telangana",
    "SubRegionCode": "SIRC",
    "VenueAddress": "Sircilla - Siddipet Road, Near Andhra Bank, Sircilla, Telangana 505301, India",
    "VenueCode": "ANRS",
    "VenueName": "Asian Natraj Deluxe Theatre A/c: Sircilla"
  },
  "APAP": {
    "AvailableFormats": "2D",
    "City": "Pattukkottai",
    "Latitude": "10.418",
    "Longitude": "79.3198",
    "RegionCode": "PATU",
    "State": "Tamil Nadu",
    "SubRegionCode": "PATU",
    "VenueAddress": "Nadimuthu Nagar, Pattukottai,Tamil Nadu, Near Komala vilas raju thirumana mahal, Pattukkottai, Tamil Nadu 614602, India",
    "VenueCode": "APAP",
    "VenueName": "Annapoorna Cinemas 4K Dolby 7.1: Pattukottai"
  },
  "APPZ": {
    "AvailableFormats": "2D",
    "City": "Vizag (Visakhapatnam)",
    "Latitude": "17.6638",
    "Longitude": "83.2051",
    "RegionCode": "VIZA",
    "State": "Andhra Pradesh",
    "SubRegionCode": "VIZA",
    "VenueAddress": "19-11-24-23, Pedagantyada, Vizag (Visakhapatnam), Andhra Pradesh 530044, India",
    "VenueCode": "APPZ",
    "VenueName": "Aruna Picture Palace 2K A/C PAM"
  },
  "APVZ": {
    "AvailableFormats": "2D",
    "City": "Vizag (Visakhapatnam)",
    "Latitude": "17.6866",
    "Longitude": "83.1663",
    "RegionCode": "VIZA",
    "State": "Andhra Pradesh",
    "SubRegionCode": "VIZA",
    "VenueAddress": "Askapalli - Aganampudi Road, Kurmannapalem, Vizag (Visakhapatnam), Andhra Pradesh 530046, India",
    "VenueCode": "APVZ",
    "VenueName": "Annapurna A/C 2KDolby Digital:Kurmananapalem,Vizag"
  },
  "ARJU": {
    "AvailableFormats": "2D",
    "City": "Hyderabad",
    "Latitude": "17.4968",
    "Longitude": "78.397",
    "RegionCode": "HYD",
    "State": "Telangana",
    "SubRegionCode": "HYD",
    "VenueAddress": "Plot No 2, Sr 178, National Highway 9, Kukatpally, Near KPHB Road, KPHB Phase III, Hyderabad, Telangana 500072, India",
    "VenueCode": "ARJU",
    "VenueName": "Arjun 70MM: Kukatpally"
  },
  "ARYH": {
    "AvailableFormats": "2D",
    "City": "Hyderabad",
    "Latitude": "17.3967",
    "Longitude": "78.5608",
    "RegionCode": "HYD",
    "State": "Telangana",
    "SubRegionCode": "HYD",
    "VenueAddress": "Raj Laxmi Theater, 2-1-40, Uppal Ring Road, Raj Nagar, Uppal, Near Indane Gas Service, Hyderabad, Telangana 500039, India",
    "VenueCode": "ARYH",
    "VenueName": "Asian Rajya Lakshmi: Uppal"
  },
  "ASHN": {
    "AvailableFormats": "2D",
    "City": "Hyderabad",
    "Latitude": "17.5107",
    "Longitude": "78.2952",
    "RegionCode": "HYD",
    "State": "Telangana",
    "SubRegionCode": "HYD",
    "VenueAddress": "Sy. No. 101AA, 101 E, 105 E, Ramchandra Puram, Hyderabad, Telangana 500133, India",
    "VenueCode": "ASHN",
    "VenueName": "Asian Cinemart: RC Puram"
  },
  "ASMW": {
    "AvailableFormats": "2D",
    "City": "Warangal",
    "Latitude": "18.0046",
    "Longitude": "79.5629",
    "RegionCode": "WAR",
    "State": "Telangana",
    "SubRegionCode": "WAR",
    "VenueAddress": "Asian Sridevi Mall, Bus Stand Road, Sai Nagar, Hanmakonda, Warangal, Telangana 506001, India",
    "VenueCode": "ASMW",
    "VenueName": "Asian Sridevi Multiplex: Hanumakonda"
  },
  "ASSR": {
    "AvailableFormats": "2D",
    "City": "Siddipet",
    "Latitude": "18.0987",
    "Longitude": "78.8522",
    "RegionCode": "SDDP",
    "State": "Telangana",
    "SubRegionCode": "SDDP",
    "VenueAddress": "Aphb Colony, Shivaji Nagar, Hyderabad Road, Siddipet, Telangana 502103, India",
    "VenueCode": "ASSR",
    "VenueName": "Asian Srinivasa Deluxe: Siddipet"
  },
  "ATAG": {
    "AvailableFormats": "2D",
    "City": "Angul",
    "Latitude": "20.8411",
    "Longitude": "85.2256",
    "RegionCode": "ANGL",
    "State": "Odisha",
    "SubRegionCode": "ANGL",
    "VenueAddress": "Nuahata, Banarpal, Near Tata Steel, Near SBI ATM, Angul, Odisha 759128, India",
    "VenueCode": "ATAG",
    "VenueName": "Asha Cine Palace: Banarpal"
  },
  "ATKT": {
    "AvailableFormats": "2D",
    "City": "Kottayam",
    "Latitude": "9.58708",
    "Longitude": "76.5226",
    "RegionCode": "ETTU",
    "State": "Kerala",
    "SubRegionCode": "ETTU",
    "VenueAddress": "Main Central Road, Tourist Bunglow Road, Near Big Bazaar, Kottayam, Kerala 686001, India",
    "VenueCode": "ATKT",
    "VenueName": "Anupama Theatre Dolby 7.1: Kottayam"
  },
  "ATVJ": {
    "AvailableFormats": "2D",
    "City": "Vijayawada",
    "Latitude": "16.516",
    "Longitude": "80.6268",
    "RegionCode": "KADU",
    "State": "Andhra Pradesh",
    "SubRegionCode": "KADU",
    "VenueAddress": "Samba Murthy Road, Gandhi Nagar, Near Ramakrishna Mission Ashrama, Vijayawada, Andhra Pradesh 520003, India",
    "VenueCode": "ATVJ",
    "VenueName": "Alankar A/C 4K Dolby Surround: Vijayawada"
  },
  "AVPS": {
    "AvailableFormats": "2D",
    "City": "Pathanapuram",
    "Latitude": "9.09231",
    "Longitude": "76.8557",
    "RegionCode": "PTPM",
    "State": "Kerala",
    "SubRegionCode": "PTPM",
    "VenueAddress": "3rd Floor,Town Center Mall, Near KSRTC Bus Stand, Pathanapuram, Kerala 689695, India",
    "VenueCode": "AVPS",
    "VenueName": "Aashirvad Cineplexx: Pathanapuram"
  },
  "AYCS": {
    "AvailableFormats": "2D",
    "City": "Shimla",
    "Latitude": "31.0979",
    "Longitude": "77.1513",
    "RegionCode": "SMLA",
    "State": "Himachal Pradesh",
    "SubRegionCode": "SMLA",
    "VenueAddress": "2nd Floor, C.K. Mall New, ISBT Tutikandi, Shimla, Himachal Pradesh 171004, India",
    "VenueCode": "AYCS",
    "VenueName": "Ayaan Cinemas: Shimla"
  },
  "BARA": {
    "AvailableFormats": "2D",
    "City": "Kolkata",
    "Latitude": "22.5794",
    "Longitude": "88.4595",
    "RegionCode": "KOLK",
    "State": "West Bengal",
    "SubRegionCode": "KOLK",
    "VenueAddress": "4TH Floor, Axis Mall, 1C, 11, CF Block(Newtown), Action Area 1C, CF-9 New Town, Rajarhat, Near Novotel Kolkata Hotel And Residences, Kolkata, West Bengal 700156, India",
    "VenueCode": "BARA",
    "VenueName": "Bioscope: Axis Mall, Rajarhat"
  },
  "BBTC": {
    "AvailableFormats": "2D",
    "City": "Channapatna",
    "Latitude": "12.6456",
    "Longitude": "77.1945",
    "RegionCode": "CPTN",
    "State": "Karnataka",
    "SubRegionCode": "CPTN",
    "VenueAddress": "16th Cross, Mangalavara Pete Road, Near Big Bazar, Channapatna, Karnataka 562160, India",
    "VenueCode": "BBTC",
    "VenueName": "Sri Balaji Talkies: Channapatna"
  },
  "BDCG": {
    "AvailableFormats": "2D",
    "City": "Bengaluru",
    "Latitude": "12.974",
    "Longitude": "77.5798",
    "RegionCode": "HOKT",
    "State": "Karnataka",
    "SubRegionCode": "HOKT",
    "VenueAddress": "23, Kempegowda Road, Mysore Bank Colony, Gandhi Nagar, Bengaluru, Karnataka 560009, India",
    "VenueCode": "BDCG",
    "VenueName": "Bhumika Digital 2K Cinema: Gandhinagar"
  },
  "BHCU": {
    "AvailableFormats": "2D",
    "City": "Udupi",
    "Latitude": "13.3426",
    "Longitude": "74.7488",
    "RegionCode": "MANI",
    "State": "Karnataka",
    "SubRegionCode": "MANI",
    "VenueAddress": "3Rd floor, Thenkpete, Maruthi Veethika, Udupi, Karnataka 576101, India",
    "VenueCode": "BHCU",
    "VenueName": "Bharath Cinemas: City Centre Mall, Udupi"
  },
  "BISW": {
    "AvailableFormats": "2D",
    "City": "Siliguri",
    "Latitude": "26.7286",
    "Longitude": "88.4139",
    "RegionCode": "SILI",
    "State": "West Bengal",
    "SubRegionCode": "SILI",
    "VenueAddress": "Hill Cart Road, Ward 2,  Sevoke Road, Pradhan Nagar, Siliguri, West Bengal 734001, India",
    "VenueCode": "BISW",
    "VenueName": "Biswadeep Talkies: Siliguri"
  },
  "BLJI": {
    "AvailableFormats": "2D",
    "City": "Vijayawada",
    "Latitude": "16.4726",
    "Longitude": "80.7163",
    "RegionCode": "KADU",
    "State": "Andhra Pradesh",
    "SubRegionCode": "KADU",
    "VenueAddress": "Bundar Road, Poranki, Near Priya Foods, Vijayawada, Andhra Pradesh 521137, India",
    "VenueCode": "BLJI",
    "VenueName": "Balaji Cine Villa: Vijayawada"
  },
  "BMXC": {
    "AvailableFormats": "2D",
    "City": "Navi Mumbai",
    "Latitude": "19.0308",
    "Longitude": "73.0666",
    "RegionCode": "KHAG",
    "State": "Maharashtra",
    "SubRegionCode": "KHAG",
    "VenueAddress": "Plot No 21, Pravesh Marg, Sector 2, Navi Mumbai, Maharashtra 410210, India",
    "VenueCode": "BMXC",
    "VenueName": "BMX Cinemas(BalajiMovieplex): Littleworld Kharghar"
  },
  "BRVP": {
    "AvailableFormats": "2D",
    "City": "Mumbai",
    "Latitude": "19.109",
    "Longitude": "72.8532",
    "RegionCode": "MUMBAI",
    "State": "Maharashtra",
    "SubRegionCode": "MWEST",
    "VenueAddress": "Wallace Towers, 139-140/B/1, Western Express Highway, Vile Parle (E), Mumbai, Maharashtra 400057, India",
    "VenueCode": "BRVP",
    "VenueName": "Bahar Cinema: Vile Parle (E)"
  },
  "BTCN": {
    "AvailableFormats": "2D",
    "City": "Nagpur",
    "Latitude": "21.1585",
    "Longitude": "79.0797",
    "RegionCode": "NAGP",
    "State": "Maharashtra",
    "SubRegionCode": "NAGP",
    "VenueAddress": "Mount Road Ext, Liberty Chowk Sadar, Nagpur, Maharashtra 440001, India",
    "VenueCode": "BTCN",
    "VenueName": "Buty Cineplex-Sadar: Nagpur"
  },
  "BWCB": {
    "AvailableFormats": "IMAX 2D|2D",
    "City": "Coimbatore",
    "Latitude": "11.0459",
    "Longitude": "77.0415",
    "RegionCode": "COIM",
    "State": "Tamil Nadu",
    "SubRegionCode": "COIM",
    "VenueAddress": "96, Broadway Square, Off Avinashi Road, Civil Aerodrome Post, Coimbatore, Tamil Nadu 641014, India",
    "VenueCode": "BWCB",
    "VenueName": "Broadway Cinemas: Coimbatore"
  },
  "CAML": {
    "AvailableFormats": "3D|2D",
    "City": "Kolkata",
    "Latitude": "22.5147",
    "Longitude": "88.3932",
    "RegionCode": "KOLK",
    "State": "West Bengal",
    "SubRegionCode": "KOLK",
    "VenueAddress": "3rd Floor, Acropolis Mall, 1858 Rajdanga Main Road, Beside Geetanjali stadium, Kolkata, West Bengal 700107, India",
    "VenueCode": "CAML",
    "VenueName": "Cinepolis: Acropolis Mall, Kolkata"
  },
  "CCAT": {
    "AvailableFormats": "2D",
    "City": "Coimbatore",
    "Latitude": "11.1121",
    "Longitude": "76.9355",
    "RegionCode": "COIM",
    "State": "Tamil Nadu",
    "SubRegionCode": "COIM",
    "VenueAddress": "2A/12, Padmalaya Nagar, Narasimhanaickenpalayam, Coimbatore, Tamil Nadu 641031, India",
    "VenueCode": "CCAT",
    "VenueName": "Cosmo Cinemas: NARASIMANAIKEN PALAYAM, AC 4k ATMOS"
  },
  "CCJD": {
    "AvailableFormats": "2D",
    "City": "Jind",
    "Latitude": "29.3152",
    "Longitude": "76.3186",
    "RegionCode": "JIND",
    "State": "Haryana",
    "SubRegionCode": "JIND",
    "VenueAddress": "CSR Cinemas, CSR Mall, Near Rani Talab, Jind, Haryana 126110, India",
    "VenueCode": "CCJD",
    "VenueName": "CSR Cinemas: Jind"
  },
  "CCMH": {
    "AvailableFormats": "2D",
    "City": "Bettiah",
    "Latitude": "26.7985",
    "Longitude": "84.5065",
    "RegionCode": "BETA",
    "State": "Bihar",
    "SubRegionCode": "BETA",
    "VenueAddress": "Citi Centre Mall, 4th Floor, Town Hall Road, Meena Bazar, Bettiah, Bihar 845438, India",
    "VenueCode": "CCMH",
    "VenueName": "Mukta A2 Cinemas: Citi Centre, Bettiah"
  },
  "CCPP": {
    "AvailableFormats": "2D",
    "City": "Phaltan",
    "Latitude": "17.9881",
    "Longitude": "74.4302",
    "RegionCode": "PHAL",
    "State": "Maharashtra",
    "SubRegionCode": "PHAL",
    "VenueAddress": "Namvaibhav Chitra mandir, Gajanan Chowk, Satara, Phaltan, Maharashtra 415523, India",
    "VenueCode": "CCPP",
    "VenueName": "Cinea City Pride: Phaltan"
  },
  "CCZC": {
    "AvailableFormats": "2D",
    "City": "Chikhli",
    "Latitude": "20.3177",
    "Longitude": "76.2555",
    "RegionCode": "CHIH",
    "State": "Maharashtra",
    "SubRegionCode": "CHIH",
    "VenueAddress": "Jalna Road, Plot No: 12, Survey No 190 Chikhli, District Buldana, Chikhli, Maharashtra 443201, India",
    "VenueCode": "CCZC",
    "VenueName": "Cine Magic Cinema: Chikhli"
  },
  "CECM": {
    "AvailableFormats": "2D",
    "City": "Mandi Dabwali",
    "Latitude": "29.9724",
    "Longitude": "74.7246",
    "RegionCode": "DABW",
    "State": "Haryana",
    "SubRegionCode": "DABW",
    "VenueAddress": "NH 54, Doomwali, Mandi Dabwali, Haryana 125104, India",
    "VenueCode": "CECM",
    "VenueName": "Century City Cinema: Mandi Dabwali"
  },
  "CGBO": {
    "AvailableFormats": "2D",
    "City": "Ahmedabad",
    "Latitude": "23.0288",
    "Longitude": "72.4785",
    "RegionCode": "AHD",
    "State": "Gujarat",
    "SubRegionCode": "AHD",
    "VenueAddress": "Behind Amrapali Shopping Complex, Bopal Junction,Sardar Patel Ring Road, Near Bharat Petroleum Petrol Pump, Ahmedabad, Gujarat 380058, India",
    "VenueCode": "CGBO",
    "VenueName": "City Gold: Bopal"
  },
  "CGMO": {
    "AvailableFormats": "2D",
    "City": "Ahmedabad",
    "Latitude": "23.0926",
    "Longitude": "72.5929",
    "RegionCode": "AHD",
    "State": "Gujarat",
    "SubRegionCode": "AHD",
    "VenueAddress": "Indira Nagar,Parvati Nagar, Motera Stadium Road, Motera, Opposite Motera Stadium, Ahmedabad, Gujarat 380005, India",
    "VenueCode": "CGMO",
    "VenueName": "City Gold: Motera"
  },
  "CHTI": {
    "AvailableFormats": "2D",
    "City": "Poovar",
    "Latitude": "8.31976",
    "Longitude": "77.0743",
    "RegionCode": "TRIV",
    "State": "Kerala",
    "SubRegionCode": "TRIV",
    "VenueAddress": "Cine Cafe Restaurant and Cineplex, Bridge Road, Opposite To Thuruthil Granite, Poovar, Kerala 695525, India",
    "VenueCode": "CHTI",
    "VenueName": "Chhotu Maharaj Cine Cafe: Poovar, Kerala"
  },
  "CIJA": {
    "AvailableFormats": "2D|3D",
    "City": "Delhi",
    "Latitude": "28.6109",
    "Longitude": "77.0938",
    "RegionCode": "NCR",
    "State": "NCR",
    "SubRegionCode": "DELHI",
    "VenueAddress": "Pankha Road, Block C 6A, Janakpuri, Delhi, NCR 110058, India",
    "VenueCode": "CIJA",
    "VenueName": "Cinepolis: Janak Cinema, New Delhi"
  },
  "CKMC": {
    "AvailableFormats": "2D",
    "City": "Palakkad",
    "Latitude": "10.7566",
    "Longitude": "76.5009",
    "RegionCode": "PLKK",
    "State": "Kerala",
    "SubRegionCode": "PLKK",
    "VenueAddress": "Kuzhalmannam mankara Road, Pilappulli, Peringottukurissi, Near Peringottukurissi Service Cooperative Bank, Palakkad, Kerala 678573, India",
    "VenueCode": "CKMC",
    "VenueName": "CKM Victory Cinemas: Peringottukurissi"
  },
  "CLKN": {
    "AvailableFormats": "2D",
    "City": "Gandhinagar",
    "Latitude": "23.1845",
    "Longitude": "72.6303",
    "RegionCode": "GNAGAR",
    "State": "Gujarat",
    "SubRegionCode": "GNAGAR",
    "VenueAddress": "6th Floor, F- Block, Pramukh Anand Mall, Gandhinagar, Gujarat 382421, India",
    "VenueCode": "CLKN",
    "VenueName": "Classic Cinema, Kudasan: Gandhinagar"
  },
  "CMAU": {
    "AvailableFormats": "2D",
    "City": "Abu Road",
    "Latitude": "24.4982",
    "Longitude": "72.766",
    "RegionCode": "ABRD",
    "State": "Rajasthan",
    "SubRegionCode": "ABRD",
    "VenueAddress": "New Town Housing, Revdar Road, Manpur Rural, Abu Road, Rajasthan 307026, India",
    "VenueCode": "CMAU",
    "VenueName": "Cineplus Multiplex: Abu Road"
  },
  "CMMA": {
    "AvailableFormats": "2D|3D",
    "City": "Hyderabad",
    "Latitude": "17.3538",
    "Longitude": "78.4206",
    "RegionCode": "HYD",
    "State": "Telangana",
    "SubRegionCode": "HYD",
    "VenueAddress": "Mantra Mall, Inner Ring Road, Royal Colony, Upparpally, Hyderabad, Telangana 500030, India",
    "VenueCode": "CMMA",
    "VenueName": "Cinepolis: Mantra Mall, Attapur"
  },
  "CMSA": {
    "AvailableFormats": "2D",
    "City": "Shrigonda",
    "Latitude": "18.6277",
    "Longitude": "74.6887",
    "RegionCode": "SHRI",
    "State": "Maharashtra",
    "SubRegionCode": "SHRI",
    "VenueAddress": "Pargaon, Ahmednagar Road, Shrigonda, Maharashtra 413701, India",
    "VenueCode": "CMSA",
    "VenueName": "Chhotu Maharaj Cine Cafe: Shrigonda"
  },
  "CMVS": {
    "AvailableFormats": "2D",
    "City": "Varachha",
    "Latitude": "21.2427",
    "Longitude": "72.8721",
    "RegionCode": "SURT",
    "State": "Gujarat",
    "SubRegionCode": "VACH",
    "VenueAddress": "Golden City Road, Mota Varachha, Near DMART, Varachha, Gujarat 394101, India",
    "VenueCode": "CMVS",
    "VenueName": "Cinezza Multiplex: Maharaja Farm, Mota Varachha"
  },
  "CNCS": {
    "AvailableFormats": "2D",
    "City": "Sangamner",
    "Latitude": "19.5948",
    "Longitude": "74.1942",
    "RegionCode": "SMNE",
    "State": "Maharashtra",
    "SubRegionCode": "SMNE",
    "VenueAddress": "2nd Floor, Malpani Multiplex Mall, Gunjalwadi, Sangamner, Maharashtra 422605, India",
    "VenueCode": "CNCS",
    "VenueName": "Connplex Cinemas: Sangamner"
  },
  "CNMS": {
    "AvailableFormats": "2D",
    "City": "Surat",
    "Latitude": "21.2299",
    "Longitude": "72.7786",
    "RegionCode": "SURT",
    "State": "Gujarat",
    "SubRegionCode": "SURT",
    "VenueAddress": "Prabhudarshan Society, Jahangirabad, Sima Nagar, Near DMart, Surat, Gujarat 395005, India",
    "VenueCode": "CNMS",
    "VenueName": "Cinezza Multiplex: Jahangirpura, Surat"
  },
  "CNTD": {
    "AvailableFormats": "2D",
    "City": "Tadepalligudem",
    "Latitude": "16.8194",
    "Longitude": "81.524",
    "RegionCode": "TADP",
    "State": "Andhra Pradesh",
    "SubRegionCode": "TADP",
    "VenueAddress": "Housing Board Colony, Sasi College Road, Tadepalligudem, Andhra Pradesh 534101, India",
    "VenueCode": "CNTD",
    "VenueName": "Connplex Cinemas (Signature): Sri Sri"
  },
  "CONN": {
    "AvailableFormats": "2D",
    "City": "Balotra",
    "Latitude": "25.7975",
    "Longitude": "72.1624",
    "RegionCode": "BALO",
    "State": "Rajasthan",
    "SubRegionCode": "BALO",
    "VenueAddress": "2nd Floor, Naresha Palace, Raj Resort, Nakoda Road, Near Rajendra Dham, Balotra, Rajasthan 344024, India",
    "VenueCode": "CONN",
    "VenueName": "Connplex Cinemas: Balotra"
  },
  "CPAR": {
    "AvailableFormats": "2D|3D",
    "City": "Pune",
    "Latitude": "18.4631",
    "Longitude": "73.8168",
    "RegionCode": "PUNE",
    "State": "Maharashtra",
    "SubRegionCode": "PUNE",
    "VenueAddress": "Near Flyover, Sinhagad Road, Vadgaon Budruk, Pune, Maharashtra 411041, India",
    "VenueCode": "CPAR",
    "VenueName": "Abhiruchi City Pride: Sinhagad Road"
  },
  "CPEM": {
    "AvailableFormats": "2D",
    "City": "Ahmedabad",
    "Latitude": "23.0233",
    "Longitude": "72.5682",
    "RegionCode": "AHD",
    "State": "Gujarat",
    "SubRegionCode": "AHD",
    "VenueAddress": "The Orient Club, Near - Gujarat College, Ahmedabad, Gujarat 380006, India",
    "VenueCode": "CPEM",
    "VenueName": "City Pulse: Orient Miniplex, Ellisbridge"
  },
  "CPKN": {
    "AvailableFormats": "2D",
    "City": "Katni",
    "Latitude": "23.8373",
    "Longitude": "80.3997",
    "RegionCode": "KATN",
    "State": "Madhya Pradesh",
    "SubRegionCode": "KATN",
    "VenueAddress": "3rd Floor, City Mall, Barhi Road, Gole Bazar, Katni, Madhya Pradesh 483501, India",
    "VenueCode": "CPKN",
    "VenueName": "City Pride: Katni"
  },
  "CPNL": {
    "AvailableFormats": "2D|3D",
    "City": "Ludhiana",
    "Latitude": "30.8826",
    "Longitude": "75.782",
    "RegionCode": "LUDH",
    "State": "Punjab",
    "SubRegionCode": "LUDH",
    "VenueAddress": "2nd Floor, MBD Neopolis Mall, Ferozepur Road, Ludhiana, Punjab 141004, India",
    "VenueCode": "CPNL",
    "VenueName": "Cinepolis: Nexus MBD, Ludhiana"
  },
  "CPSA": {
    "AvailableFormats": "2D",
    "City": "Solan",
    "Latitude": "30.92",
    "Longitude": "77.0961",
    "RegionCode": "SCO",
    "State": "Himachal Pradesh",
    "SubRegionCode": "SCO",
    "VenueAddress": "2nd floor, Center Prime Mall, Kalka - Shimla Road, Solan, Himachal Pradesh 173213, India",
    "VenueCode": "CPSA",
    "VenueName": "CP Cinemas (Haveli), Centre Prime Mall: Solan"
  },
  "CPVM": {
    "AvailableFormats": "3D|IMAX 2D|4DX|2D",
    "City": "Thane",
    "Latitude": "19.2088",
    "Longitude": "72.9709",
    "RegionCode": "MUMBAI",
    "State": "Maharashtra",
    "SubRegionCode": "THNE",
    "VenueAddress": "Viviana Mall, Eastern Express Highway, Laxmi Nagar, Thane (West), Thane, Maharashtra 400606, India",
    "VenueCode": "CPVM",
    "VenueName": "Cinepolis: Viviana Mall, Thane"
  },
  "CRXH": {
    "AvailableFormats": "2D",
    "City": "Halol",
    "Latitude": "22.4966",
    "Longitude": "73.4714",
    "RegionCode": "HALO",
    "State": "Gujarat",
    "SubRegionCode": "HALO",
    "VenueAddress": "Townsquare Mall, 3rd Floor Oppositie Fire Station, Halol, Gujarat 389350, India",
    "VenueCode": "CRXH",
    "VenueName": "Cinemera Multiplex: Halol"
  },
  "CSMP": {
    "AvailableFormats": "2D",
    "City": "Ahmedabad",
    "Latitude": "23.0116",
    "Longitude": "72.5078",
    "RegionCode": "AHD",
    "State": "Gujarat",
    "SubRegionCode": "AHD",
    "VenueAddress": "2, 3, 4th Floor, Campus Corner 2, 100 Feet Road, Prahlad Nagar Garden, Ahmedabad, Gujarat 380015, India",
    "VenueCode": "CSMP",
    "VenueName": "Connplex Cinemas: Prahladnagar"
  },
  "CSTM": {
    "AvailableFormats": "2D",
    "City": "Satana",
    "Latitude": "20.5959",
    "Longitude": "74.1976",
    "RegionCode": "STNA",
    "State": "Maharashtra",
    "SubRegionCode": "STNA",
    "VenueAddress": "Sonar Lane, Ambedkar Nagar, Satana, Maharashtra 423301, India",
    "VenueCode": "CSTM",
    "VenueName": "Chitra Cinema: Satana"
  },
  "CTMG": {
    "AvailableFormats": "2D",
    "City": "Mundargi",
    "Latitude": "15.199",
    "Longitude": "75.8778",
    "RegionCode": "MNDR",
    "State": "Karnataka",
    "SubRegionCode": "MNDR",
    "VenueAddress": "O Block No.27, No.22, Shrihatti Road, District Gadag, Mundargi, Karnataka 582118, India",
    "VenueCode": "CTMG",
    "VenueName": "Chhotu Maharaj CineCafe: Mundargi,Karnataka"
  },
  "CTRD": {
    "AvailableFormats": "2D",
    "City": "Pune",
    "Latitude": "18.5165",
    "Longitude": "73.8423",
    "RegionCode": "PUNE",
    "State": "Maharashtra",
    "SubRegionCode": "PUNE",
    "VenueAddress": "2nd Floor, R Deccan Mall, Jangli Maharaj Road, Opp Deccan Bus Stand, Pune, Maharashtra 411004, India",
    "VenueCode": "CTRD",
    "VenueName": "City Pride: R Deccan"
  },
  "CVDK": {
    "AvailableFormats": "2D|3D",
    "City": "Rajkot",
    "Latitude": "22.264",
    "Longitude": "70.7996",
    "RegionCode": "RAJK",
    "State": "Gujarat",
    "SubRegionCode": "RAJK",
    "VenueAddress": "Vandana Heritage 4th  and 5th Floor, Opposite Atika Railway Crossing, Gondal Road, Rajkot, Gujarat 360004, India",
    "VenueCode": "CVDK",
    "VenueName": "Cinepolis Vandana: Rajkot"
  },
  "CXBS": {
    "AvailableFormats": "2D",
    "City": "Bharuch",
    "Latitude": "21.719",
    "Longitude": "72.9784",
    "RegionCode": "BHAR",
    "State": "Gujarat",
    "SubRegionCode": "BHAR",
    "VenueAddress": "1st FloorShilpiMultiplex Building, ShilpiSquare, Dahej Bypass Road, Bharuch, Gujarat 392015, India",
    "VenueCode": "CXBS",
    "VenueName": "Connplex Cinemas: Bharuch Shilpi Square"
  },
  "CYKR": {
    "AvailableFormats": "2D|DOLBY CINEMA 2D|3D",
    "City": "Pune",
    "Latitude": "18.5502",
    "Longitude": "73.9379",
    "RegionCode": "PUNE",
    "State": "Maharashtra",
    "SubRegionCode": "PUNE",
    "VenueAddress": "Nyati Plaza, Thite Nagar, Kharadi, Pune, Maharashtra 411014, India",
    "VenueCode": "CYKR",
    "VenueName": "City Pride: Kharadi"
  },
  "DCCO": {
    "AvailableFormats": "2D|3D",
    "City": "Nashik",
    "Latitude": "19.9812",
    "Longitude": "73.756",
    "RegionCode": "NASK",
    "State": "Maharashtra",
    "SubRegionCode": "NASK",
    "VenueAddress": "Purab Paschim Plaza, Trimurti Chowk Cidco-9, Opposite Trimurti Chowk Post Office, Nashik, Maharashtra 422008, India",
    "VenueCode": "DCCO",
    "VenueName": "Divya Cinemas: Nashik"
  },
  "DCMJ": {
    "AvailableFormats": "2D",
    "City": "Manjeri",
    "Latitude": "11.1232",
    "Longitude": "76.1175",
    "RegionCode": "MAJR",
    "State": "Kerala",
    "SubRegionCode": "MAJR",
    "VenueAddress": "Rajiv Gandhi Bypass, Karuvambram, Manjeri, Kerala 676121, India",
    "VenueCode": "DCMJ",
    "VenueName": "Devaki Cinemax: Manjeri"
  },
  "DDCK": {
    "AvailableFormats": "2D|3D",
    "City": "Hajipur",
    "Latitude": "25.6943",
    "Longitude": "85.2116",
    "RegionCode": "HAJI",
    "State": "Bihar",
    "SubRegionCode": "HAJI",
    "VenueAddress": "Cine Krishna Mall ,1st Floor, Cinema Road, Hajipur, Bihar 844101, India",
    "VenueCode": "DDCK",
    "VenueName": "DD Cinemas: Cine Krishna Mall, Hajipur"
  },
  "DESB": {
    "AvailableFormats": "2D",
    "City": "Dhanbad",
    "Latitude": "23.7401",
    "Longitude": "86.4183",
    "RegionCode": "DHAN",
    "State": "Jharkhand",
    "SubRegionCode": "DHAN",
    "VenueAddress": "Nai Duniya Mohlla, Main Road, Jharia, Dhanbad, Jharkhand 828111, India",
    "VenueCode": "DESB",
    "VenueName": "Deshbandhu Cinema: Jharia, Dhanbad"
  },
  "DICI": {
    "AvailableFormats": "2D",
    "City": "Indore",
    "Latitude": "22.6273",
    "Longitude": "75.8388",
    "RegionCode": "IND",
    "State": "Madhya Pradesh",
    "SubRegionCode": "IND",
    "VenueAddress": "Windasa Theme Park, Near - State Institute of Hotel Management, Indore, Madhya Pradesh 453331, India",
    "VenueCode": "DICI",
    "VenueName": "Cine Wheels Drive in by Windasa: Indore"
  },
  "DLMT": {
    "AvailableFormats": "2D",
    "City": "Akaltara",
    "Latitude": "22.0352",
    "Longitude": "82.4273",
    "RegionCode": "AKAL",
    "State": "Chhattisgarh",
    "SubRegionCode": "AKAL",
    "VenueAddress": "Baloda Road, Beside DL Fuels, Akaltara, Chhattisgarh 495552, India",
    "VenueCode": "DLMT",
    "VenueName": "DL Multiplex: Akaltara"
  },
  "DNCS": {
    "AvailableFormats": "2D",
    "City": "Shirur",
    "Latitude": "18.818",
    "Longitude": "74.3666",
    "RegionCode": "SHRU",
    "State": "Maharashtra",
    "SubRegionCode": "SHRU",
    "VenueAddress": "2nd Floor, A Wing, Oxy Gold, Baburao Nagar, Shirur Bypass, Shirur, Maharashtra 412210, India",
    "VenueCode": "DNCS",
    "VenueName": "Digigold Nova Cinemaz: Shirur"
  },
  "DRCA": {
    "AvailableFormats": "2D",
    "City": "Durgapur",
    "Latitude": "23.5376",
    "Longitude": "87.3015",
    "RegionCode": "DURGA",
    "State": "West Bengal",
    "SubRegionCode": "DURGA",
    "VenueAddress": "Nazrul Sarani, Doctor`s Colony, City Center, Near Srijani Auditorium, Durgapur, West Bengal 713216, India",
    "VenueCode": "DRCA",
    "VenueName": "Durgapur Cinema: Durgapur"
  },
  "DTDT": {
    "AvailableFormats": "3D|2D",
    "City": "Indore",
    "Latitude": "22.7035",
    "Longitude": "75.9178",
    "RegionCode": "IND",
    "State": "Madhya Pradesh",
    "SubRegionCode": "IND",
    "VenueAddress": "5th Floor, The Zodiac Mall, Scheme No. 140, Pipliyahana, Indore, Madhya Pradesh 452016, India",
    "VenueCode": "DTDT",
    "VenueName": "Drama Factory Cinema, Zodiac Mall: Indore"
  },
  "DVCA": {
    "AvailableFormats": "2D",
    "City": "Dhamtari",
    "Latitude": "20.7086",
    "Longitude": "81.5462",
    "RegionCode": "DHMT",
    "State": "Chhattisgarh",
    "SubRegionCode": "DHMT",
    "VenueAddress": "C/O Vimal Talkies, Dhamtari H.O, Near Bhagwati Lodge and Dawat Restaurat, Dhamtari, Chhattisgarh 493773, India",
    "VenueCode": "DVCA",
    "VenueName": "Devshri Cinema: Dhamtari"
  },
  "DZCM": {
    "AvailableFormats": "2D",
    "City": "Gangtok",
    "Latitude": "27.3264",
    "Longitude": "88.6114",
    "RegionCode": "GANG",
    "State": "Sikkim",
    "SubRegionCode": "GANG",
    "VenueAddress": "Lal Bazar Road, Opposite to Taxi Stand, Near Denzong Inn Hotel, Gangtok, Sikkim 737101, India",
    "VenueCode": "DZCM",
    "VenueName": "Denzong Cinema: Gangtok"
  },
  "EDSR": {
    "AvailableFormats": "2D",
    "City": "Sattenapalle",
    "Latitude": "16.3953",
    "Longitude": "80.142",
    "RegionCode": "SATL",
    "State": "Andhra Pradesh",
    "SubRegionCode": "SATL",
    "VenueAddress": "Narasaraopet Sattenapalli Road, Near Santhoshini Earth Movers, Sattenapalle, Andhra Pradesh 522403, India",
    "VenueCode": "EDSR",
    "VenueName": "Eswarsai 4K Dolby Atmos: Sattenapalle"
  },
  "EMNC": {
    "AvailableFormats": "IMAX 2D",
    "City": "Mumbai",
    "Latitude": "18.9323",
    "Longitude": "72.8279",
    "RegionCode": "MUMBAI",
    "State": "Maharashtra",
    "SubRegionCode": "MCENT",
    "VenueAddress": "Cambata Building, 42, Maharshi Karve Road, Churchgate, Mumbai, Maharashtra 400020, India",
    "VenueCode": "EMNC",
    "VenueName": "EROS INOX IMAX Cinema: Churchgate"
  },
  "ESEM": {
    "AvailableFormats": "2D|3D",
    "City": "Pune",
    "Latitude": "18.5927",
    "Longitude": "73.7453",
    "RegionCode": "PUNE",
    "State": "Maharashtra",
    "SubRegionCode": "PUNE",
    "VenueAddress": "1st Floor, XION Mall, Hinjawadi Road, Wakad, Pune, Maharashtra 411057, India",
    "VenueCode": "ESEM",
    "VenueName": "E-SQUARE: Xion Mall, Hinjawadi"
  },
  "EVCK": {
    "AvailableFormats": "2D",
    "City": "Kumily",
    "Latitude": "9.60762",
    "Longitude": "77.1697",
    "RegionCode": "KUMI",
    "State": "Kerala",
    "SubRegionCode": "KUMI",
    "VenueAddress": "Mar Thoma Church Road, Thekkady, Kumily, Kumily, Kerala 685509, India",
    "VenueCode": "EVCK",
    "VenueName": "EVM Cinemas: Kumily"
  },
  "FCCT": {
    "AvailableFormats": "2D",
    "City": "Talwandi Bhai",
    "Latitude": "30.8429",
    "Longitude": "74.9334",
    "RegionCode": "TALW",
    "State": "Punjab",
    "SubRegionCode": "TALW",
    "VenueAddress": "Talwandi Bhai Moga Road, Near Fun Island, Talwandi Bhai, Punjab 142050, India",
    "VenueCode": "FCCT",
    "VenueName": "FunIsland Cinemas: Talwandi Bhai"
  },
  "FLMB": {
    "AvailableFormats": "2D|3D",
    "City": "Ranchi",
    "Latitude": "23.3331",
    "Longitude": "85.3171",
    "RegionCode": "RANC",
    "State": "Jharkhand",
    "SubRegionCode": "RANC",
    "VenueAddress": "Spring City Mall, Hinoo Main Road, Beside Hinoo Bridge, Ranchi, Jharkhand 834002, India",
    "VenueCode": "FLMB",
    "VenueName": "Fun Cinemas: Springcity, Ranchi"
  },
  "FMLB": {
    "AvailableFormats": "2D",
    "City": "Bengaluru",
    "Latitude": "12.9732",
    "Longitude": "77.6213",
    "RegionCode": "HOKT",
    "State": "Karnataka",
    "SubRegionCode": "HOKT",
    "VenueAddress": "2nd Floor - Lido Mall, Swamy Vivekananda Road, Halasuru, Next to Hyatt Hotel, Bengaluru, Karnataka 560008, India",
    "VenueCode": "FMLB",
    "VenueName": "INOX Lido: Off MG Road, Ulsoor"
  },
  "FNBH": {
    "AvailableFormats": "2D|3D",
    "City": "Bathinda",
    "Latitude": "30.2311",
    "Longitude": "74.9356",
    "RegionCode": "BHAT",
    "State": "Punjab",
    "SubRegionCode": "BHAT",
    "VenueAddress": "Goniana, Goniana Road, Bathinda, Punjab 132103, India",
    "VenueCode": "FNBH",
    "VenueName": "Cinepolis: Mittal City, Bathinda"
  },
  "FNKT": {
    "AvailableFormats": "2D|3D",
    "City": "Kota",
    "Latitude": "25.1384",
    "Longitude": "75.8554",
    "RegionCode": "KOTA",
    "State": "Rajasthan",
    "SubRegionCode": "KOTA",
    "VenueAddress": "City Mall, A,47, Indraprastha Industrial Area, Jhalawar Road, Kota, Rajasthan 324005, India",
    "VenueCode": "FNKT",
    "VenueName": "Fun Cinemas: City Mall, Kota"
  },
  "FRCJ": {
    "AvailableFormats": "2D",
    "City": "Jaipur",
    "Latitude": "26.8403",
    "Longitude": "75.7942",
    "RegionCode": "JAIP",
    "State": "Rajasthan",
    "SubRegionCode": "JAIP",
    "VenueAddress": "1, Ashram Marg, Tonk Road Junction, Tonk Road, Near First Cineplex Bus Stop, Jaipur, Rajasthan 302018, India",
    "VenueCode": "FRCJ",
    "VenueName": "First Cinema: Jaipur"
  },
  "FTDP": {
    "AvailableFormats": "2D",
    "City": "Pune",
    "Latitude": "18.6199",
    "Longitude": "73.8012",
    "RegionCode": "PUNE",
    "State": "Maharashtra",
    "SubRegionCode": "PUNE",
    "VenueAddress": "Deluxe Fortune Mall, Shastri Nagar, Pimpri Colony, Pimpri-Chinchwad, Pune, Maharashtra 411017, India",
    "VenueCode": "FTDP",
    "VenueName": "Funtime Deluxe: Pimpri, Pune"
  },
  "GAGJ": {
    "AvailableFormats": "2D",
    "City": "Gajapathinagaram",
    "Latitude": "18.284",
    "Longitude": "83.337",
    "RegionCode": "GJPT",
    "State": "Andhra Pradesh",
    "SubRegionCode": "GJPT",
    "VenueAddress": "Jayanthi Colony, Near Canara Bank, Gajapathinagaram, Andhra Pradesh 535270, India",
    "VenueCode": "GAGJ",
    "VenueName": "Gangaraju Kalamandhir Dolby7.1: Gajapathinagaram"
  },
  "GATY": {
    "AvailableFormats": "2D",
    "City": "Mumbai",
    "Latitude": "19.0615",
    "Longitude": "72.8387",
    "RegionCode": "MUMBAI",
    "State": "Maharashtra",
    "SubRegionCode": "MWEST",
    "VenueAddress": "Swami Vivekanand Marg, Tata Blocks, 30th Cross Road, Near Tata Blocks, Bandra West, Mumbai, Maharashtra 400050, India",
    "VenueCode": "GATY",
    "VenueName": "G7 Multiplex: Bandra (W)"
  },
  "GCCA": {
    "AvailableFormats": "2D|3D",
    "City": "Gondia",
    "Latitude": "21.4531",
    "Longitude": "80.1912",
    "RegionCode": "GNDA",
    "State": "Maharashtra",
    "SubRegionCode": "GNDA",
    "VenueAddress": "City Mall, Opposite - Circus Ground, Ganesh Nagar, Main Road, Gondia, Maharashtra 441601, India",
    "VenueCode": "GCCA",
    "VenueName": "Gold Cinema: City Mall, Gondia"
  },
  "GCGA": {
    "AvailableFormats": "3D|2D",
    "City": "Gondia",
    "Latitude": "21.4534",
    "Longitude": "80.2038",
    "RegionCode": "AMGN",
    "State": "Maharashtra",
    "SubRegionCode": "AMGN",
    "VenueAddress": "P. A. Mills Compound, Govindpur Road, Bajaj Nagar, Gondia, Maharashtra 441601, India",
    "VenueCode": "GCGA",
    "VenueName": "Gold Cinema, Govindpur Road: Gondia"
  },
  "GCMG": {
    "AvailableFormats": "2D",
    "City": "Mumbai",
    "Latitude": "19.1917",
    "Longitude": "72.8204",
    "RegionCode": "MUMBAI",
    "State": "Maharashtra",
    "SubRegionCode": "MWEST",
    "VenueAddress": "Savera Heights, Gate No.5, Bank of India Building, Abdul Hamid Marg, Malvani Road, Opposite Malvani Police Station, Mumbai, Maharashtra 400095, India",
    "VenueCode": "GCMG",
    "VenueName": "Gold Cinema: Malad Malvani"
  },
  "GCSD": {
    "AvailableFormats": "2D",
    "City": "Sardulgarh",
    "Latitude": "29.721",
    "Longitude": "75.2455",
    "RegionCode": "SARD",
    "State": "Punjab",
    "SubRegionCode": "SARD",
    "VenueAddress": "Rori Road, Near Bus Stand, Sardulewala, Sardulgarh, Punjab 125201, India",
    "VenueCode": "GCSD",
    "VenueName": "Golden Cinemas: Sardulgarh"
  },
  "GDAN": {
    "AvailableFormats": "2D|3D",
    "City": "Anand",
    "Latitude": "22.5523",
    "Longitude": "72.9399",
    "RegionCode": "PETL",
    "State": "Gujarat",
    "SubRegionCode": "PETL",
    "VenueAddress": "Block A, 3rd Floor, Opp. Dena Parivar, Anand Vidya Nagar Road, Near Giny and Jony, Anand, Gujarat 388001, India",
    "VenueCode": "GDAN",
    "VenueName": "Gold Cinema: Anand"
  },
  "GDDR": {
    "AvailableFormats": "2D",
    "City": "Dausa",
    "Latitude": "26.9013",
    "Longitude": "76.34",
    "RegionCode": "DAUS",
    "State": "Rajasthan",
    "SubRegionCode": "DAUS",
    "VenueAddress": "Sunshine Complex, 1st Tower, Agra - Jaipur Road, Opposite P.G. College, Near Pinky Hotel, Dausa, Rajasthan 303303, India",
    "VenueCode": "GDDR",
    "VenueName": "Gold Cinema: Dausa"
  },
  "GEKR": {
    "AvailableFormats": "2D",
    "City": "Tumakuru (Tumkur)",
    "Latitude": "13.3375",
    "Longitude": "77.1039",
    "RegionCode": "TUMK",
    "State": "Karnataka",
    "SubRegionCode": "TUMK",
    "VenueAddress": "B.H. Road, CSI Layout, Near Shiva Agencies, Tumakuru (Tumkur), Karnataka 572101, India",
    "VenueCode": "GEKR",
    "VenueName": "Gayatri Theater 2K Digital A/C Dolby: Tumakuru"
  },
  "GGGZ": {
    "AvailableFormats": "2D",
    "City": "Jalore",
    "Latitude": "25.339",
    "Longitude": "72.6284",
    "RegionCode": "LALO",
    "State": "Rajasthan",
    "SubRegionCode": "LALO",
    "VenueAddress": "RSS Entertainments, Graveet Tower, Bhinmal by Pass Road, Jalore, Rajasthan 343001, India",
    "VenueCode": "GGGZ",
    "VenueName": "Glitz Cinemas: Jalore"
  },
  "GKDN": {
    "AvailableFormats": "2D",
    "City": "Kondamallepally",
    "Latitude": "16.7125",
    "Longitude": "78.9814",
    "RegionCode": "NALK",
    "State": "Telangana",
    "SubRegionCode": "NALK",
    "VenueAddress": "3rd Floor, Vishnu Shopping Mall, MLG Road, Near AMC, Kondamallepally, Telangana 508243, India",
    "VenueCode": "GKDN",
    "VenueName": "GK Cineplex Dolby Atmos: Kondamallepally"
  },
  "GMDH": {
    "AvailableFormats": "2D",
    "City": "Dharmapuri",
    "Latitude": "12.1229",
    "Longitude": "78.1593",
    "RegionCode": "DMPI",
    "State": "Tamil Nadu",
    "SubRegionCode": "DMPI",
    "VenueAddress": "Dharmapuri-Harur Road, Indhira Nagar, Dharmapuri, Tamil Nadu 636701, India",
    "VenueCode": "GMDH",
    "VenueName": "GM Theatre: Dharmapuri"
  },
  "GOST": {
    "AvailableFormats": "2D",
    "City": "Varadaiahpalem",
    "Latitude": "13.6011",
    "Longitude": "79.9331",
    "RegionCode": "VARA",
    "State": "Andhra Pradesh",
    "SubRegionCode": "VARA",
    "VenueAddress": "Tranku Road, Near APSRTC Bus Stand, Varadaiahpalem, Andhra Pradesh 517541, India",
    "VenueCode": "GOST",
    "VenueName": "Sri Gowrisankar Cinema`s A/C 4K Dolby 7.1 Surround"
  },
  "GPRH": {
    "AvailableFormats": "2D|3D",
    "City": "Hyderabad",
    "Latitude": "17.4993",
    "Longitude": "78.3907",
    "RegionCode": "HYD",
    "State": "Telangana",
    "SubRegionCode": "HYD",
    "VenueAddress": "Nizampet X Roads, Kukatpally, Hyderabad, Telangana 500072, India",
    "VenueCode": "GPRH",
    "VenueName": "GPR Multiplex: Nizampet, Hyderabad"
  },
  "GSTV": {
    "AvailableFormats": "2D",
    "City": "Vizag (Visakhapatnam)",
    "Latitude": "17.9308",
    "Longitude": "83.429",
    "RegionCode": "SABB",
    "State": "Andhra Pradesh",
    "SubRegionCode": "SABB",
    "VenueAddress": "Ganesh Theatre Road, Chittivalasa, Thagarapuvalasa, Vizag, Andhra Pradesh 531162, India",
    "VenueCode": "GSTV",
    "VenueName": "Ganesh A/C 2K Dolby: Tagarapuvalasa"
  },
  "GTEM": {
    "AvailableFormats": "2D",
    "City": "Mandya",
    "Latitude": "12.5279",
    "Longitude": "76.8884",
    "RegionCode": "MND",
    "State": "Karnataka",
    "SubRegionCode": "MND",
    "VenueAddress": "National Highway 275, BM Road, Mandya, Karnataka 571401, India",
    "VenueCode": "GTEM",
    "VenueName": "Theatre Gurushree 2K: Mandya"
  },
  "GTWH": {
    "AvailableFormats": "2D|3D",
    "City": "Wardha",
    "Latitude": "20.7372",
    "Longitude": "78.6028",
    "RegionCode": "WARD",
    "State": "Maharashtra",
    "SubRegionCode": "WARD",
    "VenueAddress": "Sevagram Road, Mahadevpura, Near District General Hospital, Wardha, Maharashtra 442001, India",
    "VenueCode": "GTWH",
    "VenueName": "Ganesh Talkies: Wardha"
  },
  "HAMC": {
    "AvailableFormats": "2D",
    "City": "Shikarpur",
    "Latitude": "28.2792",
    "Longitude": "78.0104",
    "RegionCode": "SHIP",
    "State": "Uttar Pradesh",
    "SubRegionCode": "SHIP",
    "VenueAddress": "HEM Palace Cinema, 100 Kot Shar Khan, Bulandshahr, Shikarpur, Uttar Pradesh 203129, India",
    "VenueCode": "HAMC",
    "VenueName": "Hem Cineplex: Shikarpur"
  },
  "HFSA": {
    "AvailableFormats": "2D",
    "City": "Panaji",
    "Latitude": "15.497",
    "Longitude": "73.8239",
    "RegionCode": "PANA",
    "State": "Goa",
    "SubRegionCode": "PANA",
    "VenueAddress": "Samrat Ashok Theatre Complex, 2nd Floor, 18th June Road, Hotel Ashok Plaza, Panaji, Goa 403001, India",
    "VenueCode": "HFSA",
    "VenueName": "Z Square Cine Samrat Ashok: Panaji"
  },
  "HOUT": {
    "AvailableFormats": "2D",
    "City": "Moranhat",
    "Latitude": "27.1869",
    "Longitude": "94.9144",
    "RegionCode": "MORH",
    "State": "Assam",
    "SubRegionCode": "MORH",
    "VenueAddress": "Peoli Nagar, AT Road, Near State Bank Of India, Moranhat, Assam 785670, India",
    "VenueCode": "HOUT",
    "VenueName": "Houseful Talkies: Moranhat"
  },
  "IBYG": {
    "AvailableFormats": "2D",
    "City": "Gurugram (Gurgaon)",
    "Latitude": "28.4038",
    "Longitude": "76.948",
    "RegionCode": "NCR",
    "State": "NCR",
    "SubRegionCode": "GURG",
    "VenueAddress": "2nd Floor, IRIS Broadway, Sector 85, Gurugram (Gurgaon), NCR 122004, India",
    "VenueCode": "IBYG",
    "VenueName": "INOX: IRIS Broadway Gurugram"
  },
  "IFRM": {
    "AvailableFormats": "2D|3D",
    "City": "Kolkata",
    "Latitude": "22.6242",
    "Longitude": "88.3537",
    "RegionCode": "KOLK",
    "State": "West Bengal",
    "SubRegionCode": "KOLK",
    "VenueAddress": "212, Girish Ghosh Road, Belur, Howrah, Kolkata, West Bengal 711202, India",
    "VenueCode": "IFRM",
    "VenueName": "INOX: Forum Rangoli Mall, Belur"
  },
  "IMCH": {
    "AvailableFormats": "2D",
    "City": "Namchi",
    "Latitude": "27.164",
    "Longitude": "88.3619",
    "RegionCode": "NAMI",
    "State": "Sikkim",
    "SubRegionCode": "NAMI",
    "VenueAddress": "NMC Museum Building, Singithang, Shaheed Sanjog Chettri Marg, Namchi, Sikkim 737126, India",
    "VenueCode": "IMCH",
    "VenueName": "Imperial Talkies: Namchi"
  },
  "IMSH": {
    "AvailableFormats": "3D|2D",
    "City": "Shajapur",
    "Latitude": "23.4188",
    "Longitude": "76.2637",
    "RegionCode": "SJUR",
    "State": "Madhya Pradesh",
    "SubRegionCode": "SJUR",
    "VenueAddress": "1st floor, Seva Shree Mall, Dupada Road, Near Vyas Hospital, Shajapur, Madhya Pradesh 465001, India",
    "VenueCode": "IMSH",
    "VenueName": "Imusica Cinema: Shajapur"
  },
  "INBC": {
    "AvailableFormats": "2D",
    "City": "Bengaluru",
    "Latitude": "12.9166",
    "Longitude": "77.5923",
    "RegionCode": "HOKT",
    "State": "Karnataka",
    "SubRegionCode": "HOKT",
    "VenueAddress": "5th Floor Central, 45th Cross, J P Nagar 2nd Phase, Marenhalli Road, Bengaluru, Karnataka 560069, India",
    "VenueCode": "INBC",
    "VenueName": "INOX: Central, JP Nagar, Mantri Junction"
  },
  "INCH": {
    "AvailableFormats": "2D",
    "City": "Chennai",
    "Latitude": "13.0432",
    "Longitude": "80.2738",
    "RegionCode": "CHEN",
    "State": "Tamil Nadu",
    "SubRegionCode": "CHEN",
    "VenueAddress": "3rd Floor, Chennai Citi Center, Doctor Radha Krishnan Salai, Chennai, Tamil Nadu 600004, India",
    "VenueCode": "INCH",
    "VenueName": "INOX: Chennai Citi Centre, Dr. RK Salai"
  },
  "INGA": {
    "AvailableFormats": "2D",
    "City": "Gandhinagar",
    "Latitude": "23.1803",
    "Longitude": "72.5653",
    "RegionCode": "GNAGAR",
    "State": "Gujarat",
    "SubRegionCode": "GNAGAR",
    "VenueAddress": "Near Adalaj, Gandhinagar Sarkhej Highway, Near Tri Mandir, Gandhinagar, Gujarat 380055, India",
    "VenueCode": "INGA",
    "VenueName": "INOX: Gandhinagar, Adalaj"
  },
  "INKM": {
    "AvailableFormats": "2D",
    "City": "Hyderabad",
    "Latitude": "17.3453",
    "Longitude": "78.5316",
    "RegionCode": "HYD",
    "State": "Telangana",
    "SubRegionCode": "HYD",
    "VenueAddress": "10-1-99/7A, Karmanghat Road, Thapovan Colony, Lingojiguda, Saroor Nagar East, Hyderabad, Telangana 500035, India",
    "VenueCode": "INKM",
    "VenueName": "Cine Town Indra Nagendra: Karmanghat"
  },
  "INNP": {
    "AvailableFormats": "3D|2D",
    "City": "Mumbai",
    "Latitude": "18.9266",
    "Longitude": "72.8229",
    "RegionCode": "MUMBAI",
    "State": "Maharashtra",
    "SubRegionCode": "MCENT",
    "VenueAddress": "CR 2 Mall, 2nd Floor, Barrister Rajni Patel Marg, Nariman Point, Opposite Bajaj Bhavan, Mumbai, Maharashtra 400021, India",
    "VenueCode": "INNP",
    "VenueName": "INOX Laserplex: CR2, Nariman Point"
  },
  "INPO": {
    "AvailableFormats": "2D|3D",
    "City": "Goa",
    "Latitude": "15.5259",
    "Longitude": "73.8269",
    "RegionCode": "GOA",
    "State": "Goa",
    "SubRegionCode": "GOA",
    "VenueAddress": "Mall De Goa,Edapally, Nova Cidade Commercial Complex, Alto Porvorim, Bardez, Goa, Goa 403521, India",
    "VenueCode": "INPO",
    "VenueName": "INOX: Porvorim, Goa"
  },
  "INRK": {
    "AvailableFormats": "2D|3D",
    "City": "Kolkata",
    "Latitude": "22.623",
    "Longitude": "88.4505",
    "RegionCode": "KOLK",
    "State": "West Bengal",
    "SubRegionCode": "KOLK",
    "VenueAddress": "3rd Floor,City Center 2 Mall, New Town, Rajarhat, Hatiara, Near Chinar Park, Kolkata, West Bengal 700157, India",
    "VenueCode": "INRK",
    "VenueName": "INOX: City Centre II, Rajarhat"
  },
  "INSO": {
    "AvailableFormats": "2D|3D",
    "City": "Siliguri",
    "Latitude": "26.7523",
    "Longitude": "88.4388",
    "RegionCode": "SILI",
    "State": "West Bengal",
    "SubRegionCode": "SILI",
    "VenueAddress": "Near Jai Service Petrol Pump, Near Bhakti Nagar Thana, Salugara, Sevoke Road, Orbit Mall, Siliguri, West Bengal 734001, India",
    "VenueCode": "INSO",
    "VenueName": "INOX: Vega Circle Mall, Siliguri"
  },
  "INVC": {
    "AvailableFormats": "2D",
    "City": "Vizag (Visakhapatnam)",
    "Latitude": "17.7125",
    "Longitude": "83.3013",
    "RegionCode": "VIZA",
    "State": "Andhra Pradesh",
    "SubRegionCode": "VIZA",
    "VenueAddress": "4th Floor, Chitralayaa, Suryabagh, Chitralaya Road, Vizag, Andhra Pradesh 530020, India",
    "VenueCode": "INVC",
    "VenueName": "INOX: Vizag Chitralaya Mall"
  },
  "INXR": {
    "AvailableFormats": "2D",
    "City": "Surat",
    "Latitude": "21.2293",
    "Longitude": "72.8967",
    "RegionCode": "SURT",
    "State": "Gujarat",
    "SubRegionCode": "SURT",
    "VenueAddress": "RAJ Imperial, 3rd Floor, Deepkamal Mall And Multiplex, Varachha Road, Sarthana Jakat Naka, Near Sarthana Zoo, Surat, Gujarat 395006, India",
    "VenueCode": "INXR",
    "VenueName": "Raj Imperial, INOX: Varachha Road, Surat"
  },
  "IOTG": {
    "AvailableFormats": "3D|2D",
    "City": "Ghaziabad",
    "Latitude": "28.6539",
    "Longitude": "77.4373",
    "RegionCode": "MRDG",
    "State": "NCR",
    "SubRegionCode": "MRDG",
    "VenueAddress": "The Opulent Mall, Grand Trunk Road, New Gandhi Nagar, Nehru Nagar III, Ghaziabad, NCR 201001, India",
    "VenueCode": "IOTG",
    "VenueName": "PVR: Opulent, Ghaziabad"
  },
  "IPSG": {
    "AvailableFormats": "2D",
    "City": "Varanasi",
    "Latitude": "25.3167",
    "Longitude": "82.9901",
    "RegionCode": "VAR",
    "State": "Uttar Pradesh",
    "SubRegionCode": "VAR",
    "VenueAddress": "IP SIGRA Shopping Mall, Vidyapeeth Road, Sigra, Shastri Nagar, Guru Nanak Nagar Colony, IP Mall, Varanasi, Uttar Pradesh 221002, India",
    "VenueCode": "IPSG",
    "VenueName": "IP Cinemas: IP Sigra Mall, Varanasi"
  },
  "ISRM": {
    "AvailableFormats": "2D",
    "City": "Surat",
    "Latitude": "21.1817",
    "Longitude": "72.8313",
    "RegionCode": "SURT",
    "State": "Gujarat",
    "SubRegionCode": "SURT",
    "VenueAddress": "4th Floor, Reliance Mega Mall, Udhna, Nearby Reliance Smart, Surat, Gujarat 395002, India",
    "VenueCode": "ISRM",
    "VenueName": "INOX: Reliance Mall, Surat"
  },
  "JACS": {
    "AvailableFormats": "2D",
    "City": "Madurai",
    "Latitude": "9.92872",
    "Longitude": "78.1488",
    "RegionCode": "MADU",
    "State": "Tamil Nadu",
    "SubRegionCode": "MADU",
    "VenueAddress": "5, 80 Feet Road, Deputy Collector Colony, k.k.Nagar, Madurai, Tamil Nadu 625020, India",
    "VenueCode": "JACS",
    "VenueName": "Jazz And Arsh Cinemas A/C Sony 4K: Madurai"
  },
  "JCCB": {
    "AvailableFormats": "2D|3D",
    "City": "Cooch Behar",
    "Latitude": "26.3451",
    "Longitude": "89.4559",
    "RegionCode": "COBE",
    "State": "West Bengal",
    "SubRegionCode": "COBE",
    "VenueAddress": "City Mall, Near 133 KVA Electric Substation, East Khagrabari, New Cooch Behar Road, Cooch Behar, West Bengal 736179, India",
    "VenueCode": "JCCB",
    "VenueName": "Jaya Cinemas, City Mall: Cooch Behar"
  },
  "JCRJ": {
    "AvailableFormats": "2D",
    "City": "Jamnagar",
    "Latitude": "22.4451",
    "Longitude": "70.1166",
    "RegionCode": "JAM",
    "State": "Gujarat",
    "SubRegionCode": "JAM",
    "VenueAddress": "JCR Drive-In Cinema, Theba Chokdi, Jamnagar-Dwarka Bypass Road, Jamnagar, Gujarat 361120, India",
    "VenueCode": "JCRJ",
    "VenueName": "JCR Drive-In Cinema: Jamnagar, Gujarat"
  },
  "JHOL": {
    "AvailableFormats": "2D",
    "City": "Bongaigaon",
    "Latitude": "26.4884",
    "Longitude": "90.5517",
    "RegionCode": "BONG",
    "State": "Assam",
    "SubRegionCode": "BONG",
    "VenueAddress": "3rd Floor Enajori Complex, Bir Chilarai Road, Near Bazar INDIA, Bongaigaon, Assam 783380, India",
    "VenueCode": "JHOL",
    "VenueName": "Jolly Max Cinema: Bongaigaon"
  },
  "JLSL": {
    "AvailableFormats": "2D",
    "City": "Peddapuram",
    "Latitude": "17.0801",
    "Longitude": "82.1326",
    "RegionCode": "PEDP",
    "State": "Andhra Pradesh",
    "SubRegionCode": "PEDP",
    "VenueAddress": "7, Peddapuram Rajahmundry Main Road, Chadalada, Near Main Mosque, Peddapuram, Andhra Pradesh 533437, India",
    "VenueCode": "JLSL",
    "VenueName": "Lalitha Sri Lalitha Theatre: Peddapuram"
  },
  "JMRC": {
    "AvailableFormats": "2D",
    "City": "Vellampalli",
    "Latitude": "15.6382",
    "Longitude": "80.0137",
    "RegionCode": "VMPL",
    "State": "Andhra Pradesh",
    "SubRegionCode": "VMPL",
    "VenueAddress": "Vellampalli - Tallur Road, Near Panchayathi Office, Vellampalli, Andhra Pradesh 523211, India",
    "VenueCode": "JMRC",
    "VenueName": "JMR Cinemas: Vellampalli"
  },
  "JSRS": {
    "AvailableFormats": "2D",
    "City": "Thrissur",
    "Latitude": "10.5224",
    "Longitude": "76.2155",
    "RegionCode": "THSR",
    "State": "Kerala",
    "SubRegionCode": "THSR",
    "VenueAddress": "Kuruppam, Round South, Near Municipal Stand, Thrissur, Kerala 680001, India",
    "VenueCode": "JSRS",
    "VenueName": "Jos Theatre 4K RGB Laser Atmos: Thrissur"
  },
  "JTKZ": {
    "AvailableFormats": "2D",
    "City": "Kozhikode",
    "Latitude": "11.1781",
    "Longitude": "75.8658",
    "RegionCode": "KOZH",
    "State": "Kerala",
    "SubRegionCode": "KOZH",
    "VenueAddress": "3rd Floor, Surabhi Mall, Kozhikode-Palakkad Highway, Ramanattukara, Kozhikode, Kerala 673633, India",
    "VenueCode": "JTKZ",
    "VenueName": "Surabhi Cinemas 4K Dolby Atmos: Kozhikode"
  },
  "JTPC": {
    "AvailableFormats": "2D",
    "City": "Coimbatore",
    "Latitude": "11.1508",
    "Longitude": "76.9435",
    "RegionCode": "COIM",
    "State": "Tamil Nadu",
    "SubRegionCode": "COIM",
    "VenueAddress": "NH67, Periyanaickenpalayam, Near Nellai Periya Lala Sweets, Coimbatore, Tamil Nadu 641020, India",
    "VenueCode": "JTPC",
    "VenueName": "Jayanthi Cinemas A/C 4K LASER ATMOS: P.N Palayam"
  },
  "JTST": {
    "AvailableFormats": "2D",
    "City": "Kovur (Nellore)",
    "Latitude": "14.5019",
    "Longitude": "79.986",
    "RegionCode": "KOVR",
    "State": "Andhra Pradesh",
    "SubRegionCode": "KOVR",
    "VenueAddress": "Chinnapadugupadu, Srinivasa Theatre Road, Near State Bank ATM, Kovur (Nellore), Andhra Pradesh 524137, India",
    "VenueCode": "JTST",
    "VenueName": "Srinivas Theatre: Kovur"
  },
  "JVRC": {
    "AvailableFormats": "2D",
    "City": "Jaggampeta",
    "Latitude": "17.1769",
    "Longitude": "82.0616",
    "RegionCode": "JAGG",
    "State": "Andhra Pradesh",
    "SubRegionCode": "JAGG",
    "VenueAddress": "Gollalagunta Road, Near by Ravulamma Talli Temple, Jaggampeta, Andhra Pradesh 533435, India",
    "VenueCode": "JVRC",
    "VenueName": "JVR Cinemas: Jaggampeta"
  },
  "KACC": {
    "AvailableFormats": "2D",
    "City": "Coimbatore",
    "Latitude": "10.8806",
    "Longitude": "76.9057",
    "RegionCode": "COIM",
    "State": "Tamil Nadu",
    "SubRegionCode": "COIM",
    "VenueAddress": "K.G.Chavadi Bypass Road, Kandhe Gounden Chavadi, Coimbatore, Tamil Nadu 641105, India",
    "VenueCode": "KACC",
    "VenueName": "Kavitha Cinemas 4K Dolby Atmos: K.G. Chavadi"
  },
  "KATK": {
    "AvailableFormats": "2D",
    "City": "Karunagapally",
    "Latitude": "9.05599",
    "Longitude": "76.5378",
    "RegionCode": "KARG",
    "State": "Kerala",
    "SubRegionCode": "KARG",
    "VenueAddress": "Kottarakkara Road, Karunagappalli, Near Padanayaar Mahadeva Temple, Karunagapally, Kerala 690518, India",
    "VenueCode": "KATK",
    "VenueName": "Krishna A/C 2K Dolby 7.1Karunagappally"
  },
  "KCCG": {
    "AvailableFormats": "2D",
    "City": "Gwalior",
    "Latitude": "26.2045",
    "Longitude": "78.1555",
    "RegionCode": "GWAL",
    "State": "Madhya Pradesh",
    "SubRegionCode": "GWAL",
    "VenueAddress": "Lashkar, Gangwal Bhawan Marg, Gwalior, Madhya Pradesh 474001, India",
    "VenueCode": "KCCG",
    "VenueName": "Kailash Cineplex Dolby Digital: Gwalior"
  },
  "KCPM": {
    "AvailableFormats": "2D",
    "City": "Pattambi",
    "Latitude": "10.8016",
    "Longitude": "76.1664",
    "RegionCode": "PTMB",
    "State": "Kerala",
    "SubRegionCode": "PTMB",
    "VenueAddress": "Puthiya Gate, Koppam - Muthuthala Road, Perumudiyur P.O, Pattambi, Kerala 679303, India",
    "VenueCode": "KCPM",
    "VenueName": "Krishna Cineplex: 4K RGB Laser 3D Dolby Atmos"
  },
  "KFMT": {
    "AvailableFormats": "2D",
    "City": "Thalikulam",
    "Latitude": "10.4413",
    "Longitude": "76.0938",
    "RegionCode": "THAI",
    "State": "Kerala",
    "SubRegionCode": "THAI",
    "VenueAddress": "Karthika Movies, National Highway 66, Thalikulam, Kerala 680569, India",
    "VenueCode": "KFMT",
    "VenueName": "Karthika Fun Movies Thalikulam RGB 4K Laser Atmos"
  },
  "KKMA": {
    "AvailableFormats": "2D",
    "City": "Silvassa",
    "Latitude": "20.2716",
    "Longitude": "72.9916",
    "RegionCode": "SILV",
    "State": "Gujarat",
    "SubRegionCode": "SILV",
    "VenueAddress": "Prithviraj Chauhan Marg, Gujarat State Highway 185p, ,Opposite Yatri Niwas Hotel, Silvassa, Gujarat 396230, India",
    "VenueCode": "KKMA",
    "VenueName": "The Cine Station: Silvassa"
  },
  "KLMS": {
    "AvailableFormats": "2D",
    "City": "Kim",
    "Latitude": "21.4049",
    "Longitude": "72.9148",
    "RegionCode": "SURT",
    "State": "Gujarat",
    "SubRegionCode": "SURT",
    "VenueAddress": "3rd Floor, Laxmi Arcade, Kim Olpad Road, Mulad Village, Near Laxmi Bungalow, Kim, Gujarat 394110, India",
    "VenueCode": "KLMS",
    "VenueName": "KD Laxmi Multiplex (Dolby 7.1): Kim, Surat"
  },
  "KMRM": {
    "AvailableFormats": "2D",
    "City": "Chennai",
    "Latitude": "12.9718",
    "Longitude": "80.1922",
    "RegionCode": "CHEN",
    "State": "Tamil Nadu",
    "SubRegionCode": "CHEN",
    "VenueAddress": "No 364, Mount - Madipakkam Road, Ullagaram, Puzhuthivakkam, Opposite to Muthoot Finance, Chennai, Tamil Nadu 600091, India",
    "VenueCode": "KMRM",
    "VenueName": "Kumaran Theatre PROVA 4K DOLBY ATMOS: Madipakkam"
  },
  "KRBC": {
    "AvailableFormats": "2D|3D",
    "City": "Bahadurgarh",
    "Latitude": "28.6779",
    "Longitude": "76.8975",
    "RegionCode": "BAHD",
    "State": "Haryana",
    "SubRegionCode": "BAHD",
    "VenueAddress": "2nd Floor, Minervas West Side Mall, Sector 14, Jhajjar Road, Jhajjar, Bahadurgarh, Haryana 124507, India",
    "VenueCode": "KRBC",
    "VenueName": "KRB Cineplex: Bahadurgarh"
  },
  "KRRC": {
    "AvailableFormats": "2D",
    "City": "Palakonda",
    "Latitude": "18.603",
    "Longitude": "83.7585",
    "RegionCode": "PALK",
    "State": "Andhra Pradesh",
    "SubRegionCode": "PALK",
    "VenueAddress": "Government Hospital Road, Near Ramakalamandir Sachivalayam, Palakonda, Andhra Pradesh 532440, India",
    "VenueCode": "KRRC",
    "VenueName": "Sri Rama and Sai Kalamandir A/c DTS: Palakonda"
  },
  "KSNP": {
    "AvailableFormats": "2D",
    "City": "Kochi",
    "Latitude": "10.1449",
    "Longitude": "76.2355",
    "RegionCode": "PALY",
    "State": "Kerala",
    "SubRegionCode": "PALY",
    "VenueAddress": "North Paravur, Pullomkulam, Near Dr Ambedkar Park, Kochi, Kerala 683513, India",
    "VenueCode": "KSNP",
    "VenueName": "Kairali Sree Theater: North Parvur"
  },
  "KTBH": {
    "AvailableFormats": "2D",
    "City": "Bhubaneswar",
    "Latitude": "20.2752",
    "Longitude": "85.8349",
    "RegionCode": "JATN",
    "State": "Odisha",
    "SubRegionCode": "JATN",
    "VenueAddress": "98, Unit-3, Sachivalaya Marg, OPTCL Colony, Anand Bazar, Kharbela Nagar, Bhubaneswar, Odisha 751001, India",
    "VenueCode": "KTBH",
    "VenueName": "Keshari Talkies (BARCO 4K LASER DOLBY ATMOS)"
  },
  "KVCS": {
    "AvailableFormats": "2D",
    "City": "Chennai",
    "Latitude": "13.0345",
    "Longitude": "80.2306",
    "RegionCode": "CHEN",
    "State": "Tamil Nadu",
    "SubRegionCode": "CHEN",
    "VenueAddress": "No 3 Usman Road, T. Nagar, Chennai, Near Mehta Hospitals Pvt Ltd, Chennai, Tamil Nadu 600017, India",
    "VenueCode": "KVCS",
    "VenueName": "KC(KrishnaveniCinemas) RG3 LASER DOLBYATMOS TNAGAR"
  },
  "LBDL": {
    "AvailableFormats": "2D",
    "City": "Delhi",
    "Latitude": "28.6592",
    "Longitude": "77.1897",
    "RegionCode": "NCR",
    "State": "NCR",
    "SubRegionCode": "DELHI",
    "VenueAddress": "19-B, New Rohtak Road Karol Bagh, Near Indian Oil Petrol Pump, Delhi, NCR 110005, India",
    "VenueCode": "LBDL",
    "VenueName": "Liberty Cinema: Karol Bagh"
  },
  "LCSH": {
    "AvailableFormats": "2D|3D",
    "City": "Surat",
    "Latitude": "21.1529",
    "Longitude": "72.7761",
    "RegionCode": "SURT",
    "State": "Gujarat",
    "SubRegionCode": "SURT",
    "VenueAddress": "Second floor, Homeland City, Sai Kutir Society, Piplod, Surat, Gujarat 395007, India",
    "VenueCode": "LCSH",
    "VenueName": "Loop Cinemas Homeland City: Vesu"
  },
  "LICL": {
    "AvailableFormats": "2D",
    "City": "Kolkata",
    "Latitude": "22.3431",
    "Longitude": "88.4554",
    "RegionCode": "KOLK",
    "State": "West Bengal",
    "SubRegionCode": "KOLK",
    "VenueAddress": "Baruipur - Champahati - Ghatakpukur Road, Phooltala Gate No.2, West Road South Par, Santoshpur, Baruipur - Canning Road, Kolkata, West Bengal 743387, India",
    "VenueCode": "LICL",
    "VenueName": "Lila Cinema: Baruipur"
  },
  "LKRT": {
    "AvailableFormats": "2D",
    "City": "Korutla",
    "Latitude": "18.8266",
    "Longitude": "78.7124",
    "RegionCode": "KCKA",
    "State": "Telangana",
    "SubRegionCode": "KCKA",
    "VenueAddress": "Indira Road, Raheempura, Korutla, Telangana 505326, India",
    "VenueCode": "LKRT",
    "VenueName": "Laxmi AC Deluxe Theatre: Korutla"
  },
  "LMCR": {
    "AvailableFormats": "2D",
    "City": "Rohtak",
    "Latitude": "28.8906",
    "Longitude": "76.6042",
    "RegionCode": "ROH",
    "State": "Haryana",
    "SubRegionCode": "ROH",
    "VenueAddress": "Liberty Theatre, Delhi Road, Rohtak, Haryana 124001, India",
    "VenueCode": "LMCR",
    "VenueName": "Liberty Mycinemas: Rohtak"
  },
  "LRCP": {
    "AvailableFormats": "2D",
    "City": "Rampachodavaram",
    "Latitude": "17.439",
    "Longitude": "81.7737",
    "RegionCode": "RACD",
    "State": "Andhra Pradesh",
    "SubRegionCode": "RACD",
    "VenueAddress": "Rajahmundry - Bhadrachalam Highway, Near Tea Turn, Rampachodavaram, Andhra Pradesh 533288, India",
    "VenueCode": "LRCP",
    "VenueName": "Lalitha Talkies 2K A/C DTS: Rampachodavaram"
  },
  "LXCY": {
    "AvailableFormats": "2D",
    "City": "Yeola",
    "Latitude": "20.0442",
    "Longitude": "74.4859",
    "RegionCode": "YEOL",
    "State": "Maharashtra",
    "SubRegionCode": "YEOL",
    "VenueAddress": "Pardeshi Complex, Shani Patangan, Near Bus Stand, Yeola, Maharashtra 423401, India",
    "VenueCode": "LXCY",
    "VenueName": "Laxmi Cineplex: Yeola"
  },
  "MABI": {
    "AvailableFormats": "2D|3D",
    "City": "Bhilai",
    "Latitude": "21.2125",
    "Longitude": "81.4321",
    "RegionCode": "BHILAI",
    "State": "Chhattisgarh",
    "SubRegionCode": "BHILAI",
    "VenueAddress": "Nagar Palika Road, Shanti Nagar, Charoda, Near Jila Sahakari Kendriya Bank Maryadit Bank, Bhilai, Chhattisgarh 490021, India",
    "VenueCode": "MABI",
    "VenueName": "Mukta A2 Cinema, Babyloon (Bhilai 3): Bhilai"
  },
  "MAFC": {
    "AvailableFormats": "2D",
    "City": "Sangli",
    "Latitude": "16.8603",
    "Longitude": "74.5698",
    "RegionCode": "SANG",
    "State": "Maharashtra",
    "SubRegionCode": "SANG",
    "VenueAddress": "3rd Floor, SFC Mega Mall, Station Road, Sangli, Maharashtra 416416, India",
    "VenueCode": "MAFC",
    "VenueName": "Mukta A2 Cinemas: SFC Mega Mall, Sangli"
  },
  "MAJU": {
    "AvailableFormats": "2D",
    "City": "Bhusawal",
    "Latitude": "21.0482",
    "Longitude": "75.7777",
    "RegionCode": "BHUS",
    "State": "Maharashtra",
    "SubRegionCode": "BHUS",
    "VenueAddress": "Juna Satara, Mahatma Fule Nagar, Mamaji Talkies Road, Bhusawal, Maharashtra 425201, India",
    "VenueCode": "MAJU",
    "VenueName": "Shree Mamaji Talkies: Bhusawal"
  },
  "MAVC": {
    "AvailableFormats": "3D|2D",
    "City": "Vizag (Visakhapatnam)",
    "Latitude": "17.7088",
    "Longitude": "83.3002",
    "RegionCode": "SABB",
    "State": "Andhra Pradesh",
    "SubRegionCode": "SABB",
    "VenueAddress": "4th Floor,Town Main Road, Next Super Bazaar, Vizag, Andhra Pradesh 530002, India",
    "VenueCode": "MAVC",
    "VenueName": "Mukta A2 Cinemas: Vizag (ONLY RECLINERS AND SOFAS)"
  },
  "MBKR": {
    "AvailableFormats": "2D",
    "City": "Khariar Road",
    "Latitude": "20.8599",
    "Longitude": "82.5139",
    "RegionCode": "KHRR",
    "State": "Odisha",
    "SubRegionCode": "KHRR",
    "VenueAddress": "Dumerpani, Nandapur, Khariar Road, Odisha 766104, India",
    "VenueCode": "MBKR",
    "VenueName": "MB Cinema: Khariar Road"
  },
  "MCCR": {
    "AvailableFormats": "3D|2D",
    "City": "Chandrapur",
    "Latitude": "19.9774",
    "Longitude": "79.2829",
    "RegionCode": "CHAN",
    "State": "Maharashtra",
    "SubRegionCode": "CHAN",
    "VenueAddress": "MDR Mall and Multiplex, Survey No.-59, Wadgaon Bapat Nagar, Chandrapur, Maharashtra 442401, India",
    "VenueCode": "MCCR",
    "VenueName": "Miraj Cinema: Chandrapur"
  },
  "MCGS": {
    "AvailableFormats": "2D",
    "City": "Gadhinglaj",
    "Latitude": "16.2176",
    "Longitude": "74.351",
    "RegionCode": "KOLH",
    "State": "Maharashtra",
    "SubRegionCode": "KOLH",
    "VenueAddress": "Doctor`s Colony, Gadinglaj Chandgad Road, Gadhinglaj, Maharashtra 416502, India",
    "VenueCode": "MCGS",
    "VenueName": "Maratha Chitra Mandir: Gadhinglaj"
  },
  "MCMJ": {
    "AvailableFormats": "2D",
    "City": "Rajkot",
    "Latitude": "22.2795",
    "Longitude": "70.7632",
    "RegionCode": "RAJK",
    "State": "Gujarat",
    "SubRegionCode": "RAJK",
    "VenueAddress": "2nd Floor, Crystal Mall, Kalawad Road, Rajkot, Gujarat 360005, India",
    "VenueCode": "MCMJ",
    "VenueName": "MOVIE TIME: Crystal Mall"
  },
  "MCSA": {
    "AvailableFormats": "2D",
    "City": "Atpadi",
    "Latitude": "17.4277",
    "Longitude": "74.9392",
    "RegionCode": "ATPA",
    "State": "Maharashtra",
    "SubRegionCode": "ATPA",
    "VenueAddress": "Theater Chowk, Pandharpur Road, Opposite Parvati Lodge, Atpadi, Maharashtra 415301, India",
    "VenueCode": "MCSA",
    "VenueName": "Shri Siddanath Chitra Mandir: Atpadi"
  },
  "MCTY": {
    "AvailableFormats": "2D|3D",
    "City": "Indore",
    "Latitude": "22.7451",
    "Longitude": "75.9038",
    "RegionCode": "IND",
    "State": "Madhya Pradesh",
    "SubRegionCode": "IND",
    "VenueAddress": "Miraj Velocity Multiplex, Scheme 94C, Ring Road Indore, Near Radisson Hotel, Indore, Madhya Pradesh 452010, India",
    "VenueCode": "MCTY",
    "VenueName": "Velocity III: Miraj Cinemas, Indore"
  },
  "MEDM": {
    "AvailableFormats": "7D",
    "City": "Ghaziabad",
    "Latitude": "28.6412",
    "Longitude": "77.3172",
    "RegionCode": "NCR",
    "State": "NCR",
    "SubRegionCode": "GHAZ",
    "VenueAddress": "East Delhi Mall, Opposite Anand Vihar, Kaushambi, Near Big Bazaar, Ghaziabad, NCR 201001, India",
    "VenueCode": "MEDM",
    "VenueName": "7D Masti: EDM Mall, Ghaziabad"
  },
  "MENO": {
    "AvailableFormats": "2D",
    "City": "Kolkata",
    "Latitude": "22.5112",
    "Longitude": "88.3507",
    "RegionCode": "KOLK",
    "State": "West Bengal",
    "SubRegionCode": "KOLK",
    "VenueAddress": "5, Sarat Chatterjee Avenue, Sarat Bose Road, , Kalighat, Near Deshopriya Park, Kolkata, West Bengal 700029, India",
    "VenueCode": "MENO",
    "VenueName": "Menoka Cinema: Kolkata"
  },
  "MHCK": {
    "AvailableFormats": "2D|3D",
    "City": "Koraput",
    "Latitude": "18.8263",
    "Longitude": "82.7004",
    "RegionCode": "KOPT",
    "State": "Odisha",
    "SubRegionCode": "KOPT",
    "VenueAddress": "Megha Township, Manabar, Unnamed Road, Koraput, Odisha 764020, India",
    "VenueCode": "MHCK",
    "VenueName": "Meghraj Cinemaz: Koraput"
  },
  "MIFU": {
    "AvailableFormats": "3D|2D",
    "City": "Ulhasnagar",
    "Latitude": "19.226",
    "Longitude": "73.1657",
    "RegionCode": "MUMBAI",
    "State": "Maharashtra",
    "SubRegionCode": "ULHA",
    "VenueAddress": "Plot no.93, Sector 6A Ambarnath Road, Victory Ice Factory Compound, Press Bazaar, Ulhasnagar, Maharashtra 421003, India",
    "VenueCode": "MIFU",
    "VenueName": "Funcity Big Cinemas: Ulhasnagar"
  },
  "MJDG": {
    "AvailableFormats": "2D",
    "City": "Shivamogga",
    "Latitude": "13.9239",
    "Longitude": "75.5756",
    "RegionCode": "SHIA",
    "State": "Karnataka",
    "SubRegionCode": "SHIA",
    "VenueAddress": "K.R.Puram, Mahakavi Kalidasa Road, Gandhi Bazar, Shivamogga, Karnataka 577202, India",
    "VenueCode": "MJDG",
    "VenueName": "Manjunatha Digital 2K Cinema: Shivamogga"
  },
  "MKSB": {
    "AvailableFormats": "3D|2D",
    "City": "Surat",
    "Latitude": "21.1504",
    "Longitude": "72.822",
    "RegionCode": "SURT",
    "State": "Gujarat",
    "SubRegionCode": "SURT",
    "VenueAddress": "KSB Olympia Mall, Block No 171 Kailash Chowkdi, Near D-mart,  Althan-Bamroli BRTS Road, Bamroli, Surat, Gujarat 394221, India",
    "VenueCode": "MKSB",
    "VenueName": "Miraj Cinemas: KSB Olympia, Surat"
  },
  "MMAA": {
    "AvailableFormats": "2D",
    "City": "Mumbai",
    "Latitude": "19.1165",
    "Longitude": "72.8565",
    "RegionCode": "MUMBAI",
    "State": "Maharashtra",
    "SubRegionCode": "MWEST",
    "VenueAddress": "MovieMax, Andheri-Kurla Road, Andheri(E), Behind Gurunanak Petrol Pump, Mumbai, Maharashtra 400059, India",
    "VenueCode": "MMAA",
    "VenueName": "MovieMax: Andheri (E)"
  },
  "MMEF": {
    "AvailableFormats": "2D",
    "City": "Jamnagar",
    "Latitude": "22.462",
    "Longitude": "70.0369",
    "RegionCode": "JAM",
    "State": "Gujarat",
    "SubRegionCode": "JAM",
    "VenueAddress": "15, Street No.4, Shivam Park, Ajanta Society, Near - Hotel Vishal International, Jamnagar, Gujarat 361006, India",
    "VenueCode": "MMEF",
    "VenueName": "Mehul Cinemax: Jamnagar"
  },
  "MMMX": {
    "AvailableFormats": "2D",
    "City": "Ajmer",
    "Latitude": "26.4832",
    "Longitude": "74.665",
    "RegionCode": "AJMER",
    "State": "Rajasthan",
    "SubRegionCode": "AJMER",
    "VenueAddress": "Opposite Forest Department, Jaipur Road, Near Hyundai Showroom, Ajmer, Rajasthan 305001, India",
    "VenueCode": "MMMX",
    "VenueName": "MayaMandir Multiplex (Dolby Atmos Sound): Ajmer"
  },
  "MMXA": {
    "AvailableFormats": "3D|2D",
    "City": "Pune",
    "Latitude": "18.5189",
    "Longitude": "73.9357",
    "RegionCode": "PUNE",
    "State": "Maharashtra",
    "SubRegionCode": "PUNE",
    "VenueAddress": "MovieMax, Amanora Town Centre, Amanora Park Town, Hadapsar, Pune, Maharashtra 411028, India",
    "VenueCode": "MMXA",
    "VenueName": "MovieMax Edition (Luxe): Amanora Town Center, Pune"
  },
  "MNKC": {
    "AvailableFormats": "2D",
    "City": "Akola",
    "Latitude": "20.7143",
    "Longitude": "76.9974",
    "RegionCode": "AKOL",
    "State": "Maharashtra",
    "SubRegionCode": "AKOL",
    "VenueAddress": "Manek Talkies, Tilak Road, Near Akot Bus Stand, Akola, Maharashtra 444001, India",
    "VenueCode": "MNKC",
    "VenueName": "Manek Cinema: Akola"
  },
  "MPTT": {
    "AvailableFormats": "2D",
    "City": "Tirupati",
    "Latitude": "13.6302",
    "Longitude": "79.4239",
    "RegionCode": "TIRU",
    "State": "Andhra Pradesh",
    "SubRegionCode": "TIRU",
    "VenueAddress": "Jayasam Road, Tata Nagar, Tirupati, Andhra Pradesh 517501, India",
    "VenueCode": "MPTT",
    "VenueName": "Pratap Delux A/c 2k Dolby Atmos: Tirupati"
  },
  "MRJH": {
    "AvailableFormats": "3D|2D",
    "City": "Howrah",
    "Latitude": "22.6017",
    "Longitude": "88.3452",
    "RegionCode": "HWRH",
    "State": "West Bengal",
    "SubRegionCode": "HWRH",
    "VenueAddress": "Aurobino Mall,3rd Floor, Sri Arabinda Road, Babudanga, Bandhaghat, Howrah, West Bengal 711106, India",
    "VenueCode": "MRJH",
    "VenueName": "Miraj Cinemas: Howrah"
  },
  "MSCN": {
    "AvailableFormats": "3D|2D",
    "City": "Pen",
    "Latitude": "18.7349",
    "Longitude": "73.0919",
    "RegionCode": "PEN",
    "State": "Maharashtra",
    "SubRegionCode": "PEN",
    "VenueAddress": "M.G.Road, Khopoli Road, Chincpada, Raigad, Pen, Near S.T. Bus Depot, Near L.I.C Office, Pen, Maharashtra 402107, India",
    "VenueCode": "MSCN",
    "VenueName": "Moreshwar Chitramandir: Pen"
  },
  "MTBR": {
    "AvailableFormats": "3D|2D",
    "City": "Bahadurgarh",
    "Latitude": "28.6907",
    "Longitude": "76.9411",
    "RegionCode": "BAHD",
    "State": "Haryana",
    "SubRegionCode": "BAHD",
    "VenueAddress": "3rd Floor, Ammrta Arcade Mall, Rohtak Road, NH 10, Near Bahadurgarh Metro Station Pillar No. 816, Ram Nagar, Bahadurgarh, Haryana 124507, India",
    "VenueCode": "MTBR",
    "VenueName": "Movietime Cinemas: Bahadurgarh"
  },
  "MTHY": {
    "AvailableFormats": "2D",
    "City": "Hyderabad",
    "Latitude": "17.452",
    "Longitude": "78.3628",
    "RegionCode": "HYD",
    "State": "Telangana",
    "SubRegionCode": "HYD",
    "VenueAddress": "3rd Floor, SLN Terminus, Gachibowli - Miyapur Road, Jayabheri Enclave, Hyderabad, Telangana 500032, India",
    "VenueCode": "MTHY",
    "VenueName": "Platinum Movietime Cinema: Gachibowli SLN Terminus"
  },
  "MTPK": {
    "AvailableFormats": "2D",
    "City": "Palakollu",
    "Latitude": "16.514",
    "Longitude": "81.731",
    "RegionCode": "PLKL",
    "State": "Andhra Pradesh",
    "SubRegionCode": "PLKL",
    "VenueAddress": "Penumadam Road, Near Market Yard, Palakollu, Andhra Pradesh 534260, India",
    "VenueCode": "MTPK",
    "VenueName": "Maruthi Theatre: Palakollu"
  },
  "MUCH": {
    "AvailableFormats": "2D",
    "City": "Champa",
    "Latitude": "22.0317",
    "Longitude": "82.6428",
    "RegionCode": "CHAM",
    "State": "Chhattisgarh",
    "SubRegionCode": "CHAM",
    "VenueAddress": "Near Post Office, Anicut Road, Champa Basti, Champa, Chhattisgarh 495671, India",
    "VenueCode": "MUCH",
    "VenueName": "Mukund`s Multiplex: Champa"
  },
  "MVRP": {
    "AvailableFormats": "2D",
    "City": "Rudrapur",
    "Latitude": "28.9757",
    "Longitude": "79.3866",
    "RegionCode": "RUDP",
    "State": "Uttarakhand",
    "SubRegionCode": "RUDP",
    "VenueAddress": "Ground Floor, Old Chawla Cinema, Gaba Chowk, Near Essar Petrol Pump, Rudrapur, Uttarakhand 263153, India",
    "VenueCode": "MVRP",
    "VenueName": "Movietime Cinemas: Rudrapur"
  },
  "MXSN": {
    "AvailableFormats": "2D",
    "City": "Mumbai",
    "Latitude": "19.0934",
    "Longitude": "72.8838",
    "RegionCode": "MUMBAI",
    "State": "Maharashtra",
    "SubRegionCode": "MWEST",
    "VenueAddress": "90 Feet Road, Sakinaka Andheri(East), Opposite Jarimari Bus Stop, Mumbai, Maharashtra 400072, India",
    "VenueCode": "MXSN",
    "VenueName": "Maxus Cinemas: Saki Naka"
  },
  "MYHJ": {
    "AvailableFormats": "2D",
    "City": "Karunagapally",
    "Latitude": "9.04943",
    "Longitude": "76.5355",
    "RegionCode": "KARG",
    "State": "Kerala",
    "SubRegionCode": "KARG",
    "VenueAddress": "Level 3, H and J Complex Mall, Lalaji Junction, Kollam, Near Municipal Office, Karunagapally, Kerala 690518, India",
    "VenueCode": "MYHJ",
    "VenueName": "MY Cinemas, H&J Complex: Karunagapally"
  },
  "NAGO": {
    "AvailableFormats": "2D",
    "City": "Nagaur",
    "Latitude": "27.1957",
    "Longitude": "73.7501",
    "RegionCode": "NAGR",
    "State": "Rajasthan",
    "SubRegionCode": "NAGR",
    "VenueAddress": "NH 65, Hanuman Bagh Colony,Bassi Mohalla, Nagaur, Rajasthan 341001, India",
    "VenueCode": "NAGO",
    "VenueName": "Laxmi Tara Cinema: Nagaur"
  },
  "NCHJ": {
    "AvailableFormats": "2D",
    "City": "Hajipur",
    "Latitude": "25.6942",
    "Longitude": "85.215",
    "RegionCode": "HAJI",
    "State": "Bihar",
    "SubRegionCode": "HAJI",
    "VenueAddress": "Ram Balak Chowk, Naveen Cinema Road, JP Colony, Yadav Nagar, Near Commmunity Hall, Hajipur, Bihar 844101, India",
    "VenueCode": "NCHJ",
    "VenueName": "Navin Cinema: Hajipur"
  },
  "NCSQ": {
    "AvailableFormats": "3D|2D",
    "City": "Guwahati",
    "Latitude": "26.1584",
    "Longitude": "91.6804",
    "RegionCode": "GUW",
    "State": "Assam",
    "SubRegionCode": "GUW",
    "VenueAddress": "PVR Limited, NCS Square Mall, A.T Road, Adabari, Guwahati, Assam 781012, India",
    "VenueCode": "NCSQ",
    "VenueName": "INOX: NCS Square, Guwahati"
  },
  "NEWS": {
    "AvailableFormats": "2D",
    "City": "Bhawanipatna",
    "Latitude": "19.9265",
    "Longitude": "83.1518",
    "RegionCode": "BHAW",
    "State": "Odisha",
    "SubRegionCode": "BHAW",
    "VenueAddress": "Bhawanipatna - Raipur Highway, Parmanandapur, Opposite of OMFED Dairy, Bhawanipatna, Odisha 766002, India",
    "VenueCode": "NEWS",
    "VenueName": "New Star Cineplex: Bhawanipatna"
  },
  "NLTC": {
    "AvailableFormats": "2D",
    "City": "Chennai",
    "Latitude": "12.9291",
    "Longitude": "80.1147",
    "RegionCode": "CHEN",
    "State": "Tamil Nadu",
    "SubRegionCode": "CHEN",
    "VenueAddress": "Rajaji Road, West Tambaram, Near Lenovo Store, Chennai, Tamil Nadu 600045, India",
    "VenueCode": "NLTC",
    "VenueName": "National Theatre 4K Dolby Atmos: Tambaram"
  },
  "NNNX": {
    "AvailableFormats": "2D",
    "City": "Thane",
    "Latitude": "19.3042",
    "Longitude": "73.0581",
    "RegionCode": "MUMBAI",
    "State": "Maharashtra",
    "SubRegionCode": "THNE",
    "VenueAddress": "267, Bazaar Peth Road, Nazarana Compound, Gokul Nagar, Bhiwandi, Thane, Maharashtra 421302, India",
    "VenueCode": "NNNX",
    "VenueName": "Nazrana Cinema: Bhiwandi"
  },
  "NSBR": {
    "AvailableFormats": "2D|3D",
    "City": "Bengaluru",
    "Latitude": "13.0183",
    "Longitude": "77.7625",
    "RegionCode": "HOKT",
    "State": "Karnataka",
    "SubRegionCode": "HOKT",
    "VenueAddress": "Inox Leisure Ltd., Leisure Ltd., 2nd Floor, SBR Horizon, Seegehalli, Whitefield-Hoskote Road, Bengaluru, Karnataka 560067, India",
    "VenueCode": "NSBR",
    "VenueName": "INOX:SBR Horizon, Seegehalli Whitefield-Hoskote Rd"
  },
  "NTHS": {
    "AvailableFormats": "2D",
    "City": "Sirsi",
    "Latitude": "14.6172",
    "Longitude": "74.8333",
    "RegionCode": "SRSI",
    "State": "Karnataka",
    "SubRegionCode": "SRSI",
    "VenueAddress": "SH 93, CP Bazar, Sirsi, Karnataka 581401, India",
    "VenueCode": "NTHS",
    "VenueName": "Nataraj Talkies: Sirsi, Karnataka"
  },
  "NVKH": {
    "AvailableFormats": "2D",
    "City": "Khajuraho",
    "Latitude": "24.8707",
    "Longitude": "79.9194",
    "RegionCode": "KHRH",
    "State": "Madhya Pradesh",
    "SubRegionCode": "KHRH",
    "VenueAddress": "Opp. Mata Mandir, Rajnagar, Khajuraho, Madhya Pradesh 471606, India",
    "VenueCode": "NVKH",
    "VenueName": "NVR Cinemas: Khajuraho"
  },
  "NWCS": {
    "AvailableFormats": "2D",
    "City": "Himmatnagar",
    "Latitude": "23.5734",
    "Longitude": "72.9576",
    "RegionCode": "HIMM",
    "State": "Gujarat",
    "SubRegionCode": "HIMM",
    "VenueAddress": "Plot No: 21 to 33 and 53-B, GIDC Motipura, NH48, Near Hotel Khana Khazana, Himmatnagar, Gujarat 383001, India",
    "VenueCode": "NWCS",
    "VenueName": "New Star City Multiplex: Himmatnagar"
  },
  "NYRG": {
    "AvailableFormats": "2D|3D",
    "City": "Guwahati",
    "Latitude": "26.1662",
    "Longitude": "91.7678",
    "RegionCode": "GUW",
    "State": "Assam",
    "SubRegionCode": "GUW",
    "VenueAddress": "3rd Floor, GHY 5, Roodraksh Mall, GS Road, Bhangagarh, Kamrup Metropolitan, Guwahati, Assam 781003, India",
    "VenueCode": "NYRG",
    "VenueName": "Ajay Devgn`s NY Cinemas: Roodraksh Mall, Guwahati"
  },
  "OMCM": {
    "AvailableFormats": "2D",
    "City": "Gandhidham",
    "Latitude": "23.076",
    "Longitude": "70.1075",
    "RegionCode": "KTCH",
    "State": "Gujarat",
    "SubRegionCode": "KTCH",
    "VenueAddress": "Om Cineplex, M/s Naren Enterprise, Plot No - A, WARD NO. 6  (COMMERCIAL) Ram Baugh Crossways,Gandhidham, Gujarat 370201, India",
    "VenueCode": "OMCM",
    "VenueName": "Om Cineplex: Gandhidham"
  },
  "PAAD": {
    "AvailableFormats": "2D",
    "City": "Shadnagar",
    "Latitude": "17.0714",
    "Longitude": "78.2094",
    "RegionCode": "SHAD",
    "State": "Telangana",
    "SubRegionCode": "SHAD",
    "VenueAddress": "Christian Colony, Near Shadnagar Registration Office, Shadnagar, Telangana 509216, India",
    "VenueCode": "PAAD",
    "VenueName": "Parameswara 70MM: Shadnagar"
  },
  "PASD": {
    "AvailableFormats": "2D|3D",
    "City": "Bhopal",
    "Latitude": "23.1889",
    "Longitude": "77.434",
    "RegionCode": "BHOP",
    "State": "Madhya Pradesh",
    "SubRegionCode": "BHOP",
    "VenueAddress": "AURA Mall, E/8, Trilanga Colony, Trilanga Main Road, Gulmohar, Shahpura, Opposite Rajeev Gandhi Higher Secondary School, Bhopal, Madhya Pradesh 462039, India",
    "VenueCode": "PASD",
    "VenueName": "PVR: Aura Mall, Bhopal"
  },
  "PBMM": {
    "AvailableFormats": "2D|4DX|3D",
    "City": "Bengaluru",
    "Latitude": "13.0828",
    "Longitude": "77.6435",
    "RegionCode": "BANG",
    "State": "Karnataka",
    "SubRegionCode": "BANG",
    "VenueAddress": "PVR Bhartiya Mall of Bengaluru, 2nd Floor, Thanisandra Main Road, Kannuru, Bengaluru, Karnataka 560064, India",
    "VenueCode": "PBMM",
    "VenueName": "PVR: Bhartiya Mall of Bengaluru"
  },
  "PCBO": {
    "AvailableFormats": "2D",
    "City": "Balod",
    "Latitude": "20.7212",
    "Longitude": "81.2133",
    "RegionCode": "BALD",
    "State": "Chhattisgarh",
    "SubRegionCode": "BALD",
    "VenueAddress": "Akansha Tower, Durg Road, Beside Gurudev Dharamkanta, Balod, Chhattisgarh 491226, India",
    "VenueCode": "PCBO",
    "VenueName": "RLR Pachi Cinema: Balod"
  },
  "PCJL": {
    "AvailableFormats": "2D|3D",
    "City": "Jalandhar",
    "Latitude": "31.2823",
    "Longitude": "75.5873",
    "RegionCode": "JALA",
    "State": "Punjab",
    "SubRegionCode": "JALA",
    "VenueAddress": "Curo High Street, 66 Feet Road, Punjabi Bagh Extention, IsharPuri Colony, Mithapur, Near Dulhan Palace, Jalandhar, Punjab 144022, India",
    "VenueCode": "PCJL",
    "VenueName": "PVR: Curo, Jalandhar"
  },
  "PCMZ": {
    "AvailableFormats": "2D|3D|4DX",
    "City": "Pune",
    "Latitude": "18.5613",
    "Longitude": "73.917",
    "RegionCode": "PUNE",
    "State": "Maharashtra",
    "SubRegionCode": "PUNE",
    "VenueAddress": "2nd Floor, Phoenix Market City, Nagar Road, Viman Nagar, Near Baker Gauges, Pune, Maharashtra 411014, India",
    "VenueCode": "PCMZ",
    "VenueName": "PVR: Phoenix Market City, Pune"
  },
  "PCSE": {
    "AvailableFormats": "2D",
    "City": "Satmile",
    "Latitude": "21.8109",
    "Longitude": "87.6466",
    "RegionCode": "SATI",
    "State": "West Bengal",
    "SubRegionCode": "SATI",
    "VenueAddress": "Contai Road, Kholanashwari, Satmile, West Bengal 721452, India",
    "VenueCode": "PCSE",
    "VenueName": "Prafulla Cinema: Satmile"
  },
  "PDCK": {
    "AvailableFormats": "2D",
    "City": "Kolhapur",
    "Latitude": "16.6981",
    "Longitude": "74.2277",
    "RegionCode": "KOLH",
    "State": "Maharashtra",
    "SubRegionCode": "KOLH",
    "VenueAddress": "1550, C Ward, Laxmipuri, Near Jain Mandir, Opposite K M C College, Kolhapur, Maharashtra 416002, India",
    "VenueCode": "PDCK",
    "VenueName": "Padma Cinema: Kolhapur"
  },
  "PDME": {
    "AvailableFormats": "2D",
    "City": "Solapur",
    "Latitude": "17.6779",
    "Longitude": "75.9135",
    "RegionCode": "SOLA",
    "State": "Maharashtra",
    "SubRegionCode": "SOLA",
    "VenueAddress": "168b, Shaniwar Peth, Ganesh Peth, Sakhar Peth, Solapur, Maharashtra 413005, India",
    "VenueCode": "PDME",
    "VenueName": "Padma Cinema: Solapur"
  },
  "PETA": {
    "AvailableFormats": "2D|3D",
    "City": "Gurugram (Gurgaon)",
    "Latitude": "28.3846",
    "Longitude": "77.0536",
    "RegionCode": "NCR",
    "State": "NCR",
    "SubRegionCode": "GURG",
    "VenueAddress": "4rd Floor Elan Town Centre, Main Sohna Road, Sector 67, Badshapur, Opposite Airia Mall, Gurugram (Gurgaon), NCR 122101, India",
    "VenueCode": "PETA",
    "VenueName": "PVR: Elan Town Centre, Sec 67, Gurugram"
  },
  "PGDA": {
    "AvailableFormats": "2D",
    "City": "Penugonda",
    "Latitude": "16.6563",
    "Longitude": "81.7447",
    "RegionCode": "PDDG",
    "State": "Andhra Pradesh",
    "SubRegionCode": "PDDG",
    "VenueAddress": "Near Sai Ganesh Moblies And Xerox, Pekeru- Penugonda Road, Penugonda, Andhra Pradesh 534320, India",
    "VenueCode": "PGDA",
    "VenueName": "G7 Minerva Theatre: Penugonda"
  },
  "PGWB": {
    "AvailableFormats": "2D",
    "City": "Bengaluru",
    "Latitude": "12.9742",
    "Longitude": "77.552",
    "RegionCode": "HOKT",
    "State": "Karnataka",
    "SubRegionCode": "HOKT",
    "VenueAddress": "92, Magadi Road Tollgate, Magadi Road, Next to Prasanna Theatre, Bengaluru, Karnataka 560023, India",
    "VenueCode": "PGWB",
    "VenueName": "PVR: GT World Mall, Magadi Road"
  },
  "PIPO": {
    "AvailableFormats": "2D|3D",
    "City": "Pune",
    "Latitude": "18.5339",
    "Longitude": "73.83",
    "RegionCode": "PUNE",
    "State": "Maharashtra",
    "SubRegionCode": "PUNE",
    "VenueAddress": "Pavillion Mall, 3rd Floor, Senapati Bapat Road No.30, Laxmi Society, Model Colony, Shivajinagar, Pune, Maharashtra 411016, India",
    "VenueCode": "PIPO",
    "VenueName": "PVR: Icon, The Pavillion Pune"
  },
  "PJPM": {
    "AvailableFormats": "2D|3D",
    "City": "Muzaffarpur",
    "Latitude": "26.1019",
    "Longitude": "85.4079",
    "RegionCode": "MUZA",
    "State": "Bihar",
    "SubRegionCode": "MUZA",
    "VenueAddress": "3rd Floor, P and M Mall, Bela Road, Opposite - RK Ashram, Beside Industrial Area, BIADA complex, Muzaffarpur, Bihar 842001, India",
    "VenueCode": "PJPM",
    "VenueName": "PJP Cinemas: Muzaffarpur"
  },
  "PKPU": {
    "AvailableFormats": "3D|2D",
    "City": "Pune",
    "Latitude": "18.5013",
    "Longitude": "73.873",
    "RegionCode": "PUNE",
    "State": "Maharashtra",
    "SubRegionCode": "PUNE",
    "VenueAddress": "PVR Kumar Pacific Mall, 4th Floor S-42/43, Plot No. 387, NR7 LOV Shankar Seth Road, Swar Gate, Pune, Maharashtra 411002, India",
    "VenueCode": "PKPU",
    "VenueName": "PVR: Kumar Pacific, Pune"
  },
  "PLXP": {
    "AvailableFormats": "2D|3D",
    "City": "Mumbai",
    "Latitude": "19.1649",
    "Longitude": "73.0748",
    "RegionCode": "MUMBAI",
    "State": "Maharashtra",
    "SubRegionCode": "MCENT",
    "VenueAddress": "3rd Floor, Xperia Mall, Kalyan-Shilphata Road, Opposit Lodha World School, Dombivali (E), Mumbai, Maharashtra 421204, India",
    "VenueCode": "PLXP",
    "VenueName": "PVR: Lodha Xperia, Palava"
  },
  "PMCE": {
    "AvailableFormats": "2D",
    "City": "Kochi",
    "Latitude": "9.98176",
    "Longitude": "76.2826",
    "RegionCode": "PALY",
    "State": "Kerala",
    "SubRegionCode": "PALY",
    "VenueAddress": "Shenoy Cinemax, Level 1, MG Road, Kacheripady, Padma Bus Stop, Kochi, Kerala 682011, India",
    "VenueCode": "PMCE",
    "VenueName": "Padma Cinema: Kochi"
  },
  "PMOD": {
    "AvailableFormats": "3D|2D",
    "City": "Dehradun",
    "Latitude": "30.2668",
    "Longitude": "78.0819",
    "RegionCode": "DEH",
    "State": "Uttarakhand",
    "SubRegionCode": "DEH",
    "VenueAddress": "2nd Floor, Mall of Dehradun, Mohkam Pur Khurd, Dehradun, Uttarakhand 248005, India",
    "VenueCode": "PMOD",
    "VenueName": "PVR: Mall Of Dehradun"
  },
  "PMTT": {
    "AvailableFormats": "2D",
    "City": "Budhana",
    "Latitude": "29.2771",
    "Longitude": "77.471",
    "RegionCode": "MUZ",
    "State": "Uttar Pradesh",
    "SubRegionCode": "MUZ",
    "VenueAddress": "Charan Singh Tihara, Budhana Barut Road, Budhana, Uttar Pradesh 251309, India",
    "VenueCode": "PMTT",
    "VenueName": "Tyagi Theme Park Multiplex: Budhana"
  },
  "POLM": {
    "AvailableFormats": "2D|3D",
    "City": "Mumbai",
    "Latitude": "19.0795",
    "Longitude": "72.9108",
    "RegionCode": "MUMBAI",
    "State": "Maharashtra",
    "SubRegionCode": "MCENT",
    "VenueAddress": "Plot No 194, Vallabh Baug Lane, Garodia Nagar, Near 90 Feet Road, Ghatkopar (East), Mumbai, Maharashtra 400077, India",
    "VenueCode": "POLM",
    "VenueName": "PVR: Odeon Mall, Ghatkopar"
  },
  "PPCC": {
    "AvailableFormats": "2D",
    "City": "Theni",
    "Latitude": "10.1135",
    "Longitude": "77.5464",
    "RegionCode": "THEN",
    "State": "Tamil Nadu",
    "SubRegionCode": "THEN",
    "VenueAddress": "Pavalam Theatre, Theni Highway, Periyakulam, Theni, Tamil Nadu 625601, India",
    "VenueCode": "PPCC",
    "VenueName": "Pavalam Theatre A/C 4K 7.1 Dolby 3D: Periyakulam"
  },
  "PPNT": {
    "AvailableFormats": "2D",
    "City": "Nawalgarh",
    "Latitude": "27.8504",
    "Longitude": "75.2675",
    "RegionCode": "NANA",
    "State": "Rajasthan",
    "SubRegionCode": "NANA",
    "VenueAddress": "Bank of Baroda, Near Police Station, Nawalgarh, Rajasthan 333042, India",
    "VenueCode": "PPNT",
    "VenueName": "Prem Prakash Talkies: Nawalgarh"
  },
  "PRCC": {
    "AvailableFormats": "2D",
    "City": "Alappuzha",
    "Latitude": "9.6853",
    "Longitude": "76.3357",
    "RegionCode": "CRTL",
    "State": "Kerala",
    "SubRegionCode": "CRTL",
    "VenueAddress": "Nedumbrakkad, Muttathu Church Road, Near M.A Bake Mart, Alappuzha, Kerala 688524, India",
    "VenueCode": "PRCC",
    "VenueName": "Paradise Cinema: Cherthala"
  },
  "PRFI": {
    "AvailableFormats": "2D",
    "City": "Indore",
    "Latitude": "22.7143",
    "Longitude": "75.8324",
    "RegionCode": "IND",
    "State": "Madhya Pradesh",
    "SubRegionCode": "IND",
    "VenueAddress": "265, 266, Indra Nagar, Opposite Gyan Acadmy, Indore, Madhya Pradesh 452002, India",
    "VenueCode": "PRFI",
    "VenueName": "Prafull RK Deluxe Cinema: Indore"
  },
  "PRTB": {
    "AvailableFormats": "2D",
    "City": "Lucknow",
    "Latitude": "26.8417",
    "Longitude": "80.9434",
    "RegionCode": "LUCK",
    "State": "Uttar Pradesh",
    "SubRegionCode": "LUCK",
    "VenueAddress": "38, Darbari Lal Sharma Marg, Major Banks Road, Near Secretariat Bapu Bhawan, Lucknow, Uttar Pradesh 226001, India",
    "VenueCode": "PRTB",
    "VenueName": "Pratibha Cinema: Lucknow"
  },
  "PSDD": {
    "AvailableFormats": "2D|3D",
    "City": "Delhi",
    "Latitude": "28.5724",
    "Longitude": "77.1734",
    "RegionCode": "NCR",
    "State": "NCR",
    "SubRegionCode": "DELHI",
    "VenueAddress": "PVR Sangam Theatre Complex, R K Puram Major Somnath Marg, Near Post Office, Delhi, NCR 110022, India",
    "VenueCode": "PSDD",
    "VenueName": "PVR: Sangam, Delhi"
  },
  "PSML": {
    "AvailableFormats": "2D|3D",
    "City": "Lucknow",
    "Latitude": "26.855",
    "Longitude": "80.9469",
    "RegionCode": "LUCK",
    "State": "Uttar Pradesh",
    "SubRegionCode": "LUCK",
    "VenueAddress": "4th floor, Saharaganj Mall, Shahnajaf Road, Hazratganj, Lucknow, Uttar Pradesh 226001, India",
    "VenueCode": "PSML",
    "VenueName": "PVR: Saharaganj Mall, Lucknow"
  },
  "PTAI": {
    "AvailableFormats": "2D",
    "City": "Ichalkaranji",
    "Latitude": "16.6898",
    "Longitude": "74.4536",
    "RegionCode": "ICHL",
    "State": "Maharashtra",
    "SubRegionCode": "ICHL",
    "VenueAddress": "Tambe Mala, Panchvati Talkies Road, Near Dr. Bankar Hospital, Ichalkaranji, Maharashtra 416115, India",
    "VenueCode": "PTAI",
    "VenueName": "Panchvati Cinema: Ichalkaranji"
  },
  "PTDT": {
    "AvailableFormats": "2D",
    "City": "Tirupati",
    "Latitude": "13.6302",
    "Longitude": "79.4239",
    "RegionCode": "TIRU",
    "State": "Andhra Pradesh",
    "SubRegionCode": "TIRU",
    "VenueAddress": "Jayasam Road, Tata Nagar, Tirupati, Andhra Pradesh 517501, India",
    "VenueCode": "PTDT",
    "VenueName": "Pratap Theater A/c 4K Dolby Atmos: Tirupati"
  },
  "PTPU": {
    "AvailableFormats": "2D",
    "City": "Madurai",
    "Latitude": "10.1074",
    "Longitude": "78.1116",
    "RegionCode": "MADU",
    "State": "Tamil Nadu",
    "SubRegionCode": "MADU",
    "VenueAddress": "8-29/1, Palamedu, Madurai, Tamil Nadu 625503, India",
    "VenueCode": "PTPU",
    "VenueName": "Pathrakaliamman Theatre: Palamedu"
  },
  "PUVB": {
    "AvailableFormats": "2D|3D",
    "City": "Pune",
    "Latitude": "18.5192",
    "Longitude": "73.9297",
    "RegionCode": "PUNE",
    "State": "Maharashtra",
    "SubRegionCode": "PUNE",
    "VenueAddress": "Magarpatta Police Station Road, Hadapsar, Pune, Maharashtra 411028, India",
    "VenueCode": "PUVB",
    "VenueName": "Cinepolis: VIP Seasons Mall, Pune"
  },
  "PVDN": {
    "AvailableFormats": "2D",
    "City": "Pondicherry",
    "Latitude": "11.9289",
    "Longitude": "79.82",
    "RegionCode": "POND",
    "State": "Tamil Nadu",
    "SubRegionCode": "POND",
    "VenueAddress": "No-7, Providence Mall, 4th and 5th Floor, Venkatasubba Reddiyar Salai, Via Cuddalore Road, Near Malai Malar, Pondicherry, Tamil Nadu 605001, India",
    "VenueCode": "PVDN",
    "VenueName": "PVR: Providence Mall, Pondicherry"
  },
  "PVJM": {
    "AvailableFormats": "2D|3D|4DX",
    "City": "Jaipur",
    "Latitude": "26.9062",
    "Longitude": "75.7344",
    "RegionCode": "JAIP",
    "State": "Rajasthan",
    "SubRegionCode": "JAIP",
    "VenueAddress": "3rd Floor Mall Of Jaipur, Gandhi Path W, B Block, Vaishali Nagar, Jaipur, Rajasthan 302021, India",
    "VenueCode": "PVJM",
    "VenueName": "PVR: Mall of Jaipur"
  },
  "PVMS": {
    "AvailableFormats": "2D|3D",
    "City": "Gurugram (Gurgaon)",
    "Latitude": "28.3768",
    "Longitude": "76.9598",
    "RegionCode": "NCR",
    "State": "NCR",
    "SubRegionCode": "GURG",
    "VenueAddress": "Elan Mercado, Sector-80, Gurugram (Gurgaon), NCR 122052, India",
    "VenueCode": "PVMS",
    "VenueName": "PVR: Elan Mercado, Sec 80, Gurugram"
  },
  "PVSY": {
    "AvailableFormats": "2D",
    "City": "Mysuru (Mysore)",
    "Latitude": "12.3092",
    "Longitude": "76.6538",
    "RegionCode": "MYS",
    "State": "Karnataka",
    "SubRegionCode": "MYS",
    "VenueAddress": "3rd Floor, Garuda Mall, Albert Victor Road, Agrahara, Mysuru (Mysore), Karnataka 570001, India",
    "VenueCode": "PVSY",
    "VenueName": "PVR: Garuda Mall, Albert Victor Road, Mysuru"
  },
  "PVWJ": {
    "AvailableFormats": "2D|3D",
    "City": "Mumbai",
    "Latitude": "19.0541",
    "Longitude": "72.8494",
    "RegionCode": "MUMBAI",
    "State": "Maharashtra",
    "SubRegionCode": "MWEST",
    "VenueAddress": "PVR LTD, Jio World Drive, BKC, Mumbai, Maharashtra 400051, India",
    "VenueCode": "PVWJ",
    "VenueName": "Maison PVR: Jio World Drive, Mumbai"
  },
  "PZCD": {
    "AvailableFormats": "2D",
    "City": "Mumbai",
    "Latitude": "19.0219",
    "Longitude": "72.8429",
    "RegionCode": "MUMBAI",
    "State": "Maharashtra",
    "SubRegionCode": "MCENT",
    "VenueAddress": "Near Tilak Bridge, NC Kelkar Rd, Dadar West, Opp Veer Kotwal Udyan, Mumbai, Maharashtra 400028, India",
    "VenueCode": "PZCD",
    "VenueName": "Plaza Cinema: Dadar"
  },
  "RAHT": {
    "AvailableFormats": "2D",
    "City": "Ramanathapuram",
    "Latitude": "9.36289",
    "Longitude": "78.8369",
    "RegionCode": "RAPU",
    "State": "Tamil Nadu",
    "SubRegionCode": "RAPU",
    "VenueAddress": "Railway Feeder Road, Ganthi Nagar Ramanathapuram, Near Haja Mahal A/C, Ramanathapuram, Tamil Nadu 623504, India",
    "VenueCode": "RAHT",
    "VenueName": "Ramesh Theatre A/C Sony 4K 3D 7.1: Ramanathapuram"
  },
  "RASA": {
    "AvailableFormats": "2D",
    "City": "Salem",
    "Latitude": "11.6431",
    "Longitude": "78.1534",
    "RegionCode": "SALM",
    "State": "Tamil Nadu",
    "SubRegionCode": "SALM",
    "VenueAddress": "No. 38-40, Trichy Main Road, Karungalpatty, Gugai, Near HDFC Bank, Salem, Tamil Nadu 636006, India",
    "VenueCode": "RASA",
    "VenueName": "Sree Raja Sabari: Salem"
  },