{
  "AACK": {
    "AvailableFormats": "",
    "City": "Kasdol",
    "FirstTracked": "2026-07-14",
    "Latitude": "21.621115",
    "Longitude": "82.424225",
    "RegionCode": "KASD",
    "State": "Chhattisgarh",
    "SubRegionCode": "KASD",
    "VenueAddress": "89/3,State Highway 14, Opposite Metro Studio, Kasdol, Chhattisgarh 493335, India",
    "VenueCode": "AACK",
    "VenueName": "Shri Balaji Cinema (Airconditioned): Kasdol"
  },
  "AAME": {
    "AvailableFormats": "2D",
    "City": "Deesa",
    "Latitude": "24.2421",
    "Longitude": "72.1826",
    "RegionCode": "DEES",
    "State": "Gujarat",
    "SubRegionCode": "DEES",
    "VenueAddress": "Multiplex Entertainment Complex, Patan Cross Road, Deesa, Gujarat 385535, India",
    "VenueCode": "AAME",
    "VenueName": "Shree Ram Multiplex: Deesa"
  },
  "AAVB": {
    "AvailableFormats": "2D",
    "City": "Vijayapura (Bijapur)",
    "Latitude": "16.8338",
    "Longitude": "75.7151",
    "RegionCode": "VJPR",
    "State": "Karnataka",
    "SubRegionCode": "VJPR",
    "VenueAddress": "Ram Mandir Road, Behind Sideshwara Gudi, Sholapur, Vijayapura (Bijapur), Karnataka 586101, India",
    "VenueCode": "AAVB",
    "VenueName": "Amir Talkies: Vijayapura (Bijapur)"
  },
  "ABMP": {
    "AvailableFormats": "2D",
    "City": "Ahmedabad",
    "Latitude": "23.025",
    "Longitude": "72.5295",
    "RegionCode": "AHD",
    "State": "Gujarat",
    "SubRegionCode": "AHD",
    "VenueAddress": "Sheetal Varsha 5, 512 A, Suryapooja Block B, Satellite Road, Ahmedabad, Gujarat 380013, India",
    "VenueCode": "ABMP",
    "VenueName": "AB Miniplex: Shivranjini Cross Road, Satellite"
  },
  "ACAT": {
    "AvailableFormats": "2D",
    "City": "Ashta",
    "Latitude": "23.021",
    "Longitude": "76.726",
    "RegionCode": "ASTA",
    "State": "Madhya Pradesh",
    "SubRegionCode": "ASTA",
    "VenueAddress": "Sai Colony, Ashta, Ashta, Madhya Pradesh 466116, India",
    "VenueCode": "ACAT",
    "VenueName": "Anshay Chitralay: Ashta"
  },
  "ACHI": {
    "AvailableFormats": "2D",
    "City": "Hyderabad",
    "Latitude": "17.4923",
    "Longitude": "78.452",
    "RegionCode": "HYD",
    "State": "Telangana",
    "SubRegionCode": "HYD",
    "VenueAddress": "Jeedimetla Main Road, Ganesh Nagar, Jeedimetla, Dee Nagar, Balanagar, Hyderabad, Telangana 500037, India",
    "VenueCode": "ACHI",
    "VenueName": "Asian Sha & Shahensha: Chintal"
  },
  "ACKB": {
    "AvailableFormats": "2D",
    "City": "Bengaluru",
    "Latitude": "12.977726",
    "Longitude": "77.575961",
    "RegionCode": "BANG",
    "State": "Karnataka",
    "SubRegionCode": "BANG",
    "VenueAddress": "No-300/1, S.C.Road, Gandhinagar, Next To Movieland Theatre, Bengaluru, Karnataka 560009, India",
    "VenueCode": "ACKB",
    "VenueName": "AMB Cinemas Kapali: Bengaluru"
  },
  "ACMR": {
    "AvailableFormats": "2D",
    "City": "Mattannur",
    "Latitude": "11.9289",
    "Longitude": "75.5724",
    "RegionCode": "MATT",
    "State": "Kerala",
    "SubRegionCode": "MATT",
    "VenueAddress": "Indira Nagar, Mattannur,Kerala, Near Links Mall, Mattannur, Kerala 670702, India",
    "VenueCode": "ACMR",
    "VenueName": "Aura Cinemas: Mattannur"
  },
  "ACPV": {
    "AvailableFormats": "",
    "City": "Piravom",
    "Latitude": "9.8722",
    "Longitude": "76.4866",
    "RegionCode": "KOCH",
    "State": "Kerala",
    "SubRegionCode": "KOCH",
    "VenueAddress": "Kaduthuruthy Road, Kochi, Piravom, Kerala 686664, India",
    "VenueCode": "ACPV",
    "VenueName": "Aashirvad Cineplexx: Piravom"
  },
  "ACVM": {
    "AvailableFormats": "2D",
    "City": "Chennai",
    "Latitude": "13.1047",
    "Longitude": "80.209",
    "RegionCode": "PONE",
    "State": "Tamil Nadu",
    "SubRegionCode": "PONE",
    "VenueAddress": "No. 1/1, Mettu Street Villivakkam, Behind, Villivakkam Bus Depot, Chennai, Tamil Nadu 600049, India",
    "VenueCode": "ACVM",
    "VenueName": "AGS Cinemas: Villivakkam"
  },
  "ADCR": {
    "AvailableFormats": "2D",
    "City": "Bengaluru",
    "Latitude": "13.0145",
    "Longitude": "77.516",
    "RegionCode": "HOKT",
    "State": "Karnataka",
    "SubRegionCode": "HOKT",
    "VenueAddress": "Bldg No 135/3, Rajeshwari Theatre Road, Laggere, Near Friends Circle, Bengaluru, Karnataka 560058, India",
    "VenueCode": "ADCR",
    "VenueName": "Akash Cinemas: Laggere"
  },
  "AECE": {
    "AvailableFormats": "",
    "City": "Alappuzha",
    "FirstTracked": "2026-07-14",
    "Latitude": "9.498583",
    "Longitude": "76.3431",
    "RegionCode": "ALPZ",
    "State": "Kerala",
    "SubRegionCode": "ALPZ",
    "VenueAddress": "AVJ Junction, Erezha, Mullakkal, Alappuzha, Kerala 688011, India",
    "VenueCode": "AECE",
    "VenueName": "AEC Cinemas: Alappuzha"
  },
  "AHMH": {
    "AvailableFormats": "",
    "City": "Hyderabad",
    "FirstTracked": "2026-07-14",
    "Latitude": "17.402218",
    "Longitude": "78.57199",
    "RegionCode": "AUSH",
    "State": "Telangana",
    "SubRegionCode": "AUSH",
    "VenueAddress": "Survey No. 99, Asian Cine Square Mall, Shanthi Nagar, Warangal Road, Besides Indian Oil Petrol Pump, Uppal, Hyderabad, Telangana 500039, India",
    "VenueCode": "AHMH",
    "VenueName": "Asian CineSquare Multiplex: Uppal"
  },
  "AKFC": {
    "AvailableFormats": "2D",
    "City": "Alakode",
    "Latitude": "12.1785",
    "Longitude": "75.4649",
    "RegionCode": "ALAK",
    "State": "Kerala",
    "SubRegionCode": "ALAK",
    "VenueAddress": "Kottayadu Kavala, Malabar Hill Highway, Near St.Marys Forane Church, Alakode, Kerala 670571, India",
    "VenueCode": "AKFC",
    "VenueName": "Alakode Film City 4K Dolby Atmos"
  },
  "ALAN": {
    "AvailableFormats": "",
    "City": "Gajendragarh",
    "FirstTracked": "2026-07-14",
    "Latitude": "15.735611",
    "Longitude": "75.96569",
    "RegionCode": "GJGH",
    "State": "Karnataka",
    "SubRegionCode": "GJGH",
    "VenueAddress": "SH 30, Near Shree Guru Sevalal Temple, Gajendragarh, Karnataka 582114, India",
    "VenueCode": "ALAN",
    "VenueName": "Alankar Theatre: Gajendragarh"
  },
  "ALUC": {
    "AvailableFormats": "2D",
    "City": "Hyderabad",
    "Latitude": "17.3896272",
    "Longitude": "78.3438856",
    "RegionCode": "HYD",
    "State": "Telangana",
    "SubRegionCode": "HYD",
    "VenueAddress": "Plot 20, Adjacent to Allu Studios, Power Welfare Society, Narsingi, Hyderabad, Telangana 500075, India",
    "VenueCode": "ALUC",
    "VenueName": "ALLU Cinemas: Kokapet"
  },
  "AMCJ": {
    "AvailableFormats": "",
    "City": "Jamnagar",
    "FirstTracked": "2026-07-14",
    "Latitude": "22.47459",
    "Longitude": "70.06799",
    "RegionCode": "JAM",
    "State": "Gujarat",
    "SubRegionCode": "JAM",
    "VenueAddress": "Near Modern Market, Pandit Nehru Road, Opposite Hotel Foliage, Jamnagar, Gujarat 361008, India",
    "VenueCode": "AMCJ",
    "VenueName": "Amber Cinema: Jamnagar"
  },
  "AMLC": {
    "AvailableFormats": "2D",
    "City": "Barrackpore",
    "Latitude": "22.7672",
    "Longitude": "88.3832",
    "RegionCode": "BARR",
    "State": "West Bengal",
    "SubRegionCode": "BARR",
    "VenueAddress": "82, Barrackpore - Barasat Road, Barrackpore, Barrackpore, West Bengal 700122, India",
    "VenueCode": "AMLC",
    "VenueName": "Amala Cinema: Barrackpore"
  },
  "AMST": {
    "AvailableFormats": "2D",
    "City": "Karimnagar",
    "Latitude": "18.4292",
    "Longitude": "79.1387",
    "RegionCode": "KARIM",
    "State": "Telangana",
    "SubRegionCode": "KARIM",
    "VenueAddress": "Srinivasa Theatre Road, Shasha Mahala, Ashoknagar, Near Kakatiya Techno School, Karimnagar, Telangana 505001, India",
    "VenueCode": "AMST",
    "VenueName": "Asian Mukta A2 Srinivasa Theatre: Karimnagar"
  },
  "ANCG": {
    "AvailableFormats": "2D",
    "City": "Gondal",
    "Latitude": "21.9615",
    "Longitude": "70.7716",
    "RegionCode": "GONA",
    "State": "Gujarat",
    "SubRegionCode": "GONA",
    "VenueAddress": "2nd Floor, Balaji Mall, Gundala Road, Gondal, Gujarat 360311, India",
    "VenueCode": "ANCG",
    "VenueName": "Auston Cinemas: Gondal"
  },
  "ANNK": {
    "AvailableFormats": "2D",
    "City": "Kothamangalam",
    "Latitude": "10.063",
    "Longitude": "76.6202",
    "RegionCode": "KTMM",
    "State": "Kerala",
    "SubRegionCode": "KTMM",
    "VenueAddress": "Dhanushkodi Rd, Kothamangalam, Near Kothamangalam Bus Stand, Kothamangalam, Kerala 686666, India",
    "VenueCode": "ANNK",
    "VenueName": "ANN Cinema Complex 4K 3D Dolby Atmos RGB LASER"
  },
  "ANTP": {
    "AvailableFormats": "2D",
    "City": "Ramachandrapuram",
    "Latitude": "16.83799",
    "Longitude": "82.02889",
    "RegionCode": "RCPR",
    "State": "Andhra Pradesh",
    "SubRegionCode": "RCPR",
    "VenueAddress": "Ramachandrapuram Road, Ramachandrapuram, Andhra Pradesh 533255, India",
    "VenueCode": "ANTP",
    "VenueName": "Annapurna A/C 2K Dolby 7.1 : Ramachandrapuram"
  },
  "APCO": {
    "AvailableFormats": "2D",
    "City": "Orai",
    "Latitude": "25.9978",
    "Longitude": "79.4623",
    "RegionCode": "ORAI",
    "State": "Uttar Pradesh",
    "SubRegionCode": "ORAI",
    "VenueAddress": "NH 25, New Patel Nagar, Near Busy Beans Cafe, Orai, Uttar Pradesh 285001, India",
    "VenueCode": "APCO",
    "VenueName": "Archana Palace Cinemall: Orai"
  },
  "APPZ": {
    "AvailableFormats": "2D",
    "City": "Vizag (Visakhapatnam)",
    "Latitude": "17.6638",
    "Longitude": "83.2051",
    "RegionCode": "VIZA",
    "State": "Andhra Pradesh",
    "SubRegionCode": "VIZA",
    "VenueAddress": "19-11-24-23, Pedagantyada, Vizag (Visakhapatnam), Andhra Pradesh 530044, India",
    "VenueCode": "APPZ",
    "VenueName": "Aruna Picture Palace 2K A/C PAM"
  },
  "APVE": {
    "AvailableFormats": "2D",
    "City": "Vellore",
    "Latitude": "12.911",
    "Longitude": "79.1317",
    "RegionCode": "RANI",
    "State": "Tamil Nadu",
    "SubRegionCode": "RANI",
    "VenueAddress": "Anna Salai, Vasantapuram, Kosapet, Vellore, Near Sri Vinayaga Temple, Vellore, Tamil Nadu 632001, India",
    "VenueCode": "APVE",
    "VenueName": "Apsara Cinemas 4K AC 7.1 Dolby: Vellore"
  },
  "ARDD": {
    "AvailableFormats": "2D",
    "City": "Veraval",
    "Latitude": "20.91",
    "Longitude": "70.3689",
    "RegionCode": "VRAL",
    "State": "Gujarat",
    "SubRegionCode": "VRAL",
    "VenueAddress": "Railway Station Area, Jobanpura, Near Aradhana Complex, Veraval, Gujarat 362265, India",
    "VenueCode": "ARDD",
    "VenueName": "FUN Cinemas Aradhana Cinema: Veraval"
  },
  "ARTS": {
    "AvailableFormats": "2D",
    "City": "Bengaluru",
    "Latitude": "12.9868",
    "Longitude": "77.5672",
    "RegionCode": "HOKT",
    "State": "Karnataka",
    "SubRegionCode": "HOKT",
    "VenueAddress": "98, Nagendra Gardens, Ramachandrapura, Srirampuram, Near R.R.R.Kalyana Mantapa, Bengaluru, Karnataka 560021, India",
    "VenueCode": "ARTS",
    "VenueName": "Aruna Theatre A/C 4K 7.1 Dolby 3D: Srirampuram"
  },
  "ASCX": {
    "AvailableFormats": "2D",
    "City": "Thiruvalla",
    "Latitude": "9.34101",
    "Longitude": "76.5341",
    "RegionCode": "THVL",
    "State": "Kerala",
    "SubRegionCode": "THVL",
    "VenueAddress": "Mall Grand, Thiruvalla Mavelikkara Road, Thiruvalla, Kerala 689621, India",
    "VenueCode": "ASCX",
    "VenueName": "Aashirvad Cineplexx: Kadappra"
  },
  "ASLC": {
    "AvailableFormats": "2D",
    "City": "Trivandrum",
    "Latitude": "8.48853",
    "Longitude": "76.9461",
    "RegionCode": "VKAL",
    "State": "Kerala",
    "SubRegionCode": "VKAL",
    "VenueAddress": "Sahodara Samajam Road, near OverBridge, Thampanoor, Thiruvananthapuram, Trivandrum, Kerala 695035, India",
    "VenueCode": "ASLC",
    "VenueName": "Ariesplex SL Cinemas Cinionic Dolby Atmos"
  },
  "ASRG": {
    "AvailableFormats": "2D",
    "City": "Patna",
    "Latitude": "25.6186",
    "Longitude": "85.0469",
    "RegionCode": "PATN",
    "State": "Bihar",
    "SubRegionCode": "PATN",
    "VenueAddress": "6th Floor, Ambition Business Park, Bailey Road, Saguna More, Patna, Bihar 801503, India",
    "VenueCode": "ASRG",
    "VenueName": "ASR Cinemas, RPS More: Patna"
  },
  "ASTB": {
    "AvailableFormats": "2D",
    "City": "Bengaluru",
    "Latitude": "13.0807",
    "Longitude": "77.5011",
    "RegionCode": "HOKT",
    "State": "Karnataka",
    "SubRegionCode": "HOKT",
    "VenueAddress": "23, Chikkabanavara, Hesarghatta Main Rd, Near Chikkabanavara Circle, Bengaluru, Karnataka 560090, India",
    "VenueCode": "ASTB",
    "VenueName": "Ashoka Cinemas - Dolby Laser: Chikkabanavara"
  },
  "ATAM": {
    "AvailableFormats": "",
    "City": "Batlagundu",
    "FirstTracked": "2026-07-14",
    "Latitude": "10.2275",
    "Longitude": "77.7483",
    "RegionCode": "BTGD",
    "State": "Tamil Nadu",
    "SubRegionCode": "BTGD",
    "VenueAddress": "Ayyampalayam, Dindugal Road, Near State Bank of India, Batlagundu, Tamil Nadu 624204, India",
    "VenueCode": "ATAM",
    "VenueName": "Alagesan Theatre: Ayyampalayam"
  },
  "ATJA": {
    "AvailableFormats": "2D|3D",
    "City": "Kolkata",
    "Latitude": "22.5081",
    "Longitude": "88.3203",
    "RegionCode": "BARR",
    "State": "West Bengal",
    "SubRegionCode": "BARR",
    "VenueAddress": "No.30, Diamond Harbour Road, Barabagan, Naskarpur, Behala, Kolkata, West Bengal 700038, India",
    "VenueCode": "ATJA",
    "VenueName": "SSR Ajanta Cinema: Behala"
  },
  "ATRT": {
    "AvailableFormats": "2D",
    "City": "Rayagada",
    "Latitude": "19.1759",
    "Longitude": "83.4137",
    "RegionCode": "RADA",
    "State": "Odisha",
    "SubRegionCode": "RADA",
    "VenueAddress": "College Road, Gandhi Nagar, Rayagada, Odisha 765001, India",
    "VenueCode": "ATRT",
    "VenueName": "Ashok Talkies: Rayagada"
  },
  "AUCS": {
    "AvailableFormats": "",
    "City": "Sangli",
    "FirstTracked": "2026-07-14",
    "Latitude": "16.843864",
    "Longitude": "74.60997",
    "RegionCode": "ASMA",
    "State": "Maharashtra",
    "SubRegionCode": "ASMA",
    "VenueAddress": "Center-1, Vijaynagar Chowk, Near SBI, Vijaynagar and Aroma Premium Cafe, Sangli, Maharashtra 416416, India",
    "VenueCode": "AUCS",
    "VenueName": "Aurum Cinemas: Centre 1 Mall, Sangli"
  },
  "AVPS": {
    "AvailableFormats": "2D",
    "City": "Pathanapuram",
    "Latitude": "9.09231",
    "Longitude": "76.8557",
    "RegionCode": "PTPM",
    "State": "Kerala",
    "SubRegionCode": "PTPM",
    "VenueAddress": "3rd Floor,Town Center Mall, Near KSRTC Bus Stand, Pathanapuram, Kerala 689695, India",
    "VenueCode": "AVPS",
    "VenueName": "Aashirvad Cineplexx: Pathanapuram"
  },
  "AYAA": {
    "AvailableFormats": "2D",
    "City": "Solan",
    "Latitude": "30.9058",
    "Longitude": "77.1071",
    "RegionCode": "SCO",
    "State": "Himachal Pradesh",
    "SubRegionCode": "SCO",
    "VenueAddress": "2nd Floor, G Square Mall, Kotla Nala, Solan, Himachal Pradesh 173212, India",
    "VenueCode": "AYAA",
    "VenueName": "Ayaan Cinemas: Solan (G Square Mall)"
  },
  "BAKM": {
    "AvailableFormats": "2D",
    "City": "Mulugu",
    "Latitude": "18.1934",
    "Longitude": "79.9478",
    "RegionCode": "KMLA",
    "State": "Telangana",
    "SubRegionCode": "KMLA",
    "VenueAddress": "Theatre Road, Ambedkar Colony, Near Borra Honda, Mulugu, Telangana 506343, India",
    "VenueCode": "BAKM",
    "VenueName": "Balaji Air Conditioned: Mulugu"
  },
  "BBCL": {
    "AvailableFormats": "3D|2D",
    "City": "Solapur",
    "Latitude": "17.677",
    "Longitude": "75.8986",
    "RegionCode": "SOLA",
    "State": "Maharashtra",
    "SubRegionCode": "SOLA",
    "VenueAddress": "Bhagwat Kala Chaya 8, Old Police Line, Murarji Peth, Solapur, Maharashtra 413001, India",
    "VenueCode": "BBCL",
    "VenueName": "Bhagwat Cinemas (A.C): Solapur"
  },
  "BCCR": {
    "AvailableFormats": "3D|2D",
    "City": "Cooch Behar",
    "Latitude": "26.3296",
    "Longitude": "89.4426",
    "RegionCode": "COBE",
    "State": "West Bengal",
    "SubRegionCode": "COBE",
    "VenueAddress": "Bhavani Cinema, Keshav Road, Cooch Behar, West Bengal 736101, India",
    "VenueCode": "BCCR",
    "VenueName": "Bhavani Cinema: Cooch Behar"
  },
  "BGGM": {
    "AvailableFormats": "2D",
    "City": "Asansol",
    "Latitude": "23.6847",
    "Longitude": "86.9416",
    "RegionCode": "ASANSOL",
    "State": "West Bengal",
    "SubRegionCode": "ASANSOL",
    "VenueAddress": "Burnpur Road, Chitra More, Mouja  Santa, P.O  Hirapur, District  West Burdwan, Asansol, West Bengal 713325, India",
    "VenueCode": "BGGM",
    "VenueName": "Bioscope: Galaxy Mall, Asansol"
  },
  "BHTT": {
    "AvailableFormats": "",
    "City": "Thanipadi",
    "FirstTracked": "2026-07-14",
    "Latitude": "12.106016",
    "Longitude": "78.83783",
    "RegionCode": "THPD",
    "State": "Tamil Nadu",
    "SubRegionCode": "THPD",
    "VenueAddress": "Pilliyarkovil Street, Thandrampattu, Thanipadi, Tamil Nadu 606708, India",
    "VenueCode": "BHTT",
    "VenueName": "Bharath Theatre: Thanipadi"
  },
  "BJLC": {
    "AvailableFormats": "2D",
    "City": "Kolkata",
    "Latitude": "22.5269",
    "Longitude": "88.3459",
    "RegionCode": "KOLK",
    "State": "West Bengal",
    "SubRegionCode": "KOLK",
    "VenueAddress": "No.39, Shyama Prasad Mukherjee Road, Jatin Das Park, Patuapara, Bhawanipur, Kolkata, West Bengal 700025, India",
    "VenueCode": "BJLC",
    "VenueName": "Bijoli Cinema: Kolkata"
  },
  "BLBR": {
    "AvailableFormats": "2D",
    "City": "Burhar",
    "Latitude": "23.202",
    "Longitude": "81.535",
    "RegionCode": "BRHR",
    "State": "Madhya Pradesh",
    "SubRegionCode": "BRHR",
    "VenueAddress": "Shree Shraja Mall, Shree Shraja Mall, Burhar, Madhya Pradesh 484110, India",
    "VenueCode": "BLBR",
    "VenueName": "Bliss Multiplex: Burhar"
  },
  "BMCA": {
    "AvailableFormats": "",
    "City": "Ajmer",
    "FirstTracked": "2026-07-14",
    "Latitude": "26.48096",
    "Longitude": "74.6313",
    "RegionCode": "AJMER",
    "State": "Rajasthan",
    "SubRegionCode": "AJMER",
    "VenueAddress": "CineMall Soni Colony, ASC Road, Near Ana Sagar Lake, Ajmer, Rajasthan 305001, India",
    "VenueCode": "BMCA",
    "VenueName": "Miraj Bioscope Cinemas: Ajmer"
  },
  "BOCK": {
    "AvailableFormats": "2D",
    "City": "Kuravilangad",
    "Latitude": "9.75721",
    "Longitude": "76.561",
    "RegionCode": "KURA",
    "State": "Kerala",
    "SubRegionCode": "KURA",
    "VenueAddress": "State Highway 1, Kurishupally, Kuravilangad, Near Global Collections, Kuravilangad, Kerala 686633, India",
    "VenueCode": "BOCK",
    "VenueName": "Bosco Cinemas: Kuravilangad"
  },
  "BRVP": {
    "AvailableFormats": "2D",
    "City": "Mumbai",
    "Latitude": "19.109",
    "Longitude": "72.8532",
    "RegionCode": "MUMBAI",
    "State": "Maharashtra",
    "SubRegionCode": "MWEST",
    "VenueAddress": "Wallace Towers, 139-140/B/1, Western Express Highway, Vile Parle (E), Mumbai, Maharashtra 400057, India",
    "VenueCode": "BRVP",
    "VenueName": "Bahar Cinema: Vile Parle (E)"
  },
  "BTBJ": {
    "AvailableFormats": "",
    "City": "Jajpur Town (Odisha)",
    "FirstTracked": "2026-07-14",
    "Latitude": "20.849524",
    "Longitude": "86.33777",
    "RegionCode": "JTTT",
    "State": "Odisha",
    "SubRegionCode": "JTTT",
    "VenueAddress": "Jajpur Singhpur Road, Near Hotel Kapila, Jajpur Town (Odisha), Odisha 755001, India",
    "VenueCode": "BTBJ",
    "VenueName": "Biraja Talkies: Jajpur Town, Odisha"
  },
  "BTMV": {
    "AvailableFormats": "2D",
    "City": "Vadodara",
    "Latitude": "22.267",
    "Longitude": "73.2227",
    "RegionCode": "VAD",
    "State": "Gujarat",
    "SubRegionCode": "VAD",
    "VenueAddress": "Amar Shraddha Society, Danteshwar, Tarsali, Vadodara, Gujarat 390004, India",
    "VenueCode": "BTMV",
    "VenueName": "Bansal Movieplex: Tarsali, Vadodara"
  },
  "CACP": {
    "AvailableFormats": "",
    "City": "Pulwama",
    "FirstTracked": "2026-07-14",
    "Latitude": "33.860493",
    "Longitude": "74.89726",
    "RegionCode": "PULW",
    "State": "Jammu and Kashmir",
    "SubRegionCode": "PULW",
    "VenueAddress": "District Employment, Counselling Centre, Pulwama, Jammu and Kashmir 192303, India",
    "VenueCode": "CACP",
    "VenueName": "Citara Cinemas: Pulwama"
  },
  "CBSM": {
    "AvailableFormats": "2D|3D",
    "City": "Chandigarh",
    "Latitude": "30.6734",
    "Longitude": "76.7398",
    "RegionCode": "CHD",
    "State": "Punjab",
    "SubRegionCode": "CHD",
    "VenueAddress": "Bestech Square Mall, Sector 66, Sahibzada Ajit Singh Nagar (Mohali), Chandigarh, Punjab 160062, India",
    "VenueCode": "CBSM",
    "VenueName": "Cinepolis: Bestech Square, Mohali"
  },
  "CCBZ": {
    "AvailableFormats": "",
    "City": "Bathinda",
    "FirstTracked": "2026-07-14",
    "Latitude": "30.2049",
    "Longitude": "74.95",
    "RegionCode": "BHAT",
    "State": "Punjab",
    "SubRegionCode": "BHAT",
    "VenueAddress": "3rd Floor, City Center Mall, Opposite Children Park, Civil Lines, Bathinda, Punjab 151001, India",
    "VenueCode": "CCBZ",
    "VenueName": "Cinemore Cinemas: DREAMz City Centre, Bathinda"
  },
  "CCJD": {
    "AvailableFormats": "2D",
    "City": "Jind",
    "Latitude": "29.3152",
    "Longitude": "76.3186",
    "RegionCode": "JIND",
    "State": "Haryana",
    "SubRegionCode": "JIND",
    "VenueAddress": "CSR Cinemas, CSR Mall, Near Rani Talab, Jind, Haryana 126110, India",
    "VenueCode": "CCJD",
    "VenueName": "CSR Cinemas: Jind"
  },
  "CCMH": {
    "AvailableFormats": "2D",
    "City": "Bettiah",
    "Latitude": "26.7985",
    "Longitude": "84.5065",
    "RegionCode": "BETA",
    "State": "Bihar",
    "SubRegionCode": "BETA",
    "VenueAddress": "Citi Centre Mall, 4th Floor, Town Hall Road, Meena Bazar, Bettiah, Bihar 845438, India",
    "VenueCode": "CCMH",
    "VenueName": "Mukta A2 Cinemas: Citi Centre, Bettiah"
  },
  "CCPC": {
    "AvailableFormats": "2D",
    "City": "Raisinghnagar",
    "Latitude": "29.5374",
    "Longitude": "73.4503",
    "RegionCode": "RSNG",
    "State": "Rajasthan",
    "SubRegionCode": "RSNG",
    "VenueAddress": "22 PS Road, Near - Raisingnagar railway station, Raisinghnagar, Rajasthan 335051, India",
    "VenueCode": "CCPC",
    "VenueName": "Cosmo Palace Cinema: Raisinghnagar"
  },
  "CCSH": {
    "AvailableFormats": "",
    "City": "Sarangarh",
    "FirstTracked": "2026-07-14",
    "Latitude": "21.58825",
    "Longitude": "83.08008",
    "RegionCode": "SARH",
    "State": "Chhattisgarh",
    "SubRegionCode": "SARH",
    "VenueAddress": "Behind Turki Talab, Near Durga Mandir, Sarangarh, Chhattisgarh 496445, India",
    "VenueCode": "CCSH",
    "VenueName": "City Cinema: Sarangarh"
  },
  "CDCA": {
    "AvailableFormats": "2D",
    "City": "Prayagraj (Allahabad)",
    "Latitude": "25.438",
    "Longitude": "81.8442",
    "RegionCode": "ALLH",
    "State": "Uttar Pradesh",
    "SubRegionCode": "ALLH",
    "VenueAddress": "26, Sammelan Marg, Prayagraj, Uttar Pradesh 211003, India",
    "VenueCode": "CDCA",
    "VenueName": "Chandralok Cineplex: Prayagraj"
  },
  "CECM": {
    "AvailableFormats": "2D",
    "City": "Mandi Dabwali",
    "Latitude": "29.9724",
    "Longitude": "74.7246",
    "RegionCode": "DABW",
    "State": "Haryana",
    "SubRegionCode": "DABW",
    "VenueAddress": "NH 54, Doomwali, Mandi Dabwali, Haryana 125104, India",
    "VenueCode": "CECM",
    "VenueName": "Century City Cinema: Mandi Dabwali"
  },
  "CGAR": {
    "AvailableFormats": "2D",
    "City": "Ahmedabad",
    "Latitude": "23.0319",
    "Longitude": "72.5699",
    "RegionCode": "AHD",
    "State": "Gujarat",
    "SubRegionCode": "AHD",
    "VenueAddress": "Ellis Bridge,Muslim Society, Ashram Road,Navrangpura, Near Dena Bank, Ahmedabad, Gujarat 380009, India",
    "VenueCode": "CGAR",
    "VenueName": "City Gold: Ashram Road"
  },
  "CGKD": {
    "AvailableFormats": "2D",
    "City": "Kadi",
    "Latitude": "23.2914",
    "Longitude": "72.3363",
    "RegionCode": "KADI",
    "State": "Gujarat",
    "SubRegionCode": "KADI",
    "VenueAddress": "City Park Road, Bhaupura, Near Kadi Fire Station, Kadi, Gujarat 382715, India",
    "VenueCode": "CGKD",
    "VenueName": "City Gold: Kadi"
  },
  "CHAL": {
    "AvailableFormats": "",
    "City": "Tadepalligudem",
    "Latitude": "16.8128",
    "Longitude": "81.5303",
    "RegionCode": "TANK",
    "State": "Andhra Pradesh",
    "SubRegionCode": "TANK",
    "VenueAddress": "Sheshamahal Road, Karri Satyavathi Nagar, Tadepalligudem, Andhra Pradesh 534101, India",
    "VenueCode": "CHAL",
    "VenueName": "Star Cinemas Chalapathi Theatre: Tadepalligudem"
  },
  "CHTL": {
    "AvailableFormats": "2D",
    "City": "Loni",
    "Latitude": "19.5775",
    "Longitude": "74.471",
    "RegionCode": "LONI",
    "State": "Maharashtra",
    "SubRegionCode": "LONI",
    "VenueAddress": "Rahuri, Sangmner Road, Near HP petrol Pump, Loni, Maharashtra 413713, India",
    "VenueCode": "CHTL",
    "VenueName": "Chitralay Cinema: Loni (Newly Renovated)"
  },
  "CIJA": {
    "AvailableFormats": "2D|3D",
    "City": "Delhi",
    "Latitude": "28.6109",
    "Longitude": "77.0938",
    "RegionCode": "NCR",
    "State": "NCR",
    "SubRegionCode": "DELHI",
    "VenueAddress": "Pankha Road, Block C 6A, Janakpuri, Delhi, NCR 110058, India",
    "VenueCode": "CIJA",
    "VenueName": "Cinepolis: Janak Cinema, New Delhi"
  },
  "CIXH": {
    "AvailableFormats": "",
    "City": "Ahmedabad",
    "FirstTracked": "2026-07-14",
    "Latitude": "23.0902",
    "Longitude": "72.5297",
    "RegionCode": "AHD",
    "State": "Gujarat",
    "SubRegionCode": "AHD",
    "VenueAddress": "310/11/12 Silver Radiance 4, Near Silver Oak College SG Highway, Gota, Ahmedabad, Gujarat 382481, India",
    "VenueCode": "CIXH",
    "VenueName": "CINELUX Cinema:Sola SG Highway (Newly Premium JBL)"
  },
  "CLCF": {
    "AvailableFormats": "",
    "City": "Narayanpur (Assam)",
    "FirstTracked": "2026-07-14",
    "Latitude": "26.948164",
    "Longitude": "93.85002",
    "RegionCode": "NSAZ",
    "State": "Assam",
    "SubRegionCode": "NSAZ",
    "VenueAddress": "Crazy Movie 0, Ward No.2, Narayanpur, National Highway 15, Narayanpur (Assam), Assam 784164, India",
    "VenueCode": "CLCF",
    "VenueName": "Chhotu Maharaj CineCafe: Narayanpur, Assam"
  },
  "CLLP": {
    "AvailableFormats": "2D",
    "City": "Varachha",
    "Latitude": "21.2387",
    "Longitude": "72.8794",
    "RegionCode": "SURT",
    "State": "Gujarat",
    "SubRegionCode": "VACH",
    "VenueAddress": "Atlanta Mall, Sudama chowk, Mota Varachha Main Road, Varachha, Gujarat 394101, India",
    "VenueCode": "CLLP",
    "VenueName": "The Friday Cinema: Mota Varaccha, Surat"
  },
  "CMBS": {
    "AvailableFormats": "",
    "City": "Bihar Sharif",
    "FirstTracked": "2026-07-14",
    "Latitude": "25.2034",
    "Longitude": "85.5006",
    "RegionCode": "BIHS",
    "State": "Bihar",
    "SubRegionCode": "BIHS",
    "VenueAddress": "Bardi Pahardi To Biyawani Road, Near Bardi Pahardi, Bihar Sharif, Bihar 803118, India",
    "VenueCode": "CMBS",
    "VenueName": "Chhotu Maharaj Cine Cafe: Bihar Sharif"
  },
  "CMKR": {
    "AvailableFormats": "2D",
    "City": "Sikar",
    "Latitude": "27.6219",
    "Longitude": "75.1464",
    "RegionCode": "SIKR",
    "State": "Rajasthan",
    "SubRegionCode": "SIKR",
    "VenueAddress": "04th Floor, Shiv Mandir Cinemall, Fatehpur Road, Sikar, Rajasthan 332001, India",
    "VenueCode": "CMKR",
    "VenueName": "Cine Square Cinemas: Sikar"
  },
  "CMMS": {
    "AvailableFormats": "2D",
    "City": "Sahibganj",
    "Latitude": "25.2343",
    "Longitude": "87.6339",
    "RegionCode": "SBBB",
    "State": "Jharkhand",
    "SubRegionCode": "SBBB",
    "VenueAddress": "Celebration Palace Chhotu Maharaj, Bus stand, Stadium Road, Sahibganj, Jharkhand 816109, India",
    "VenueCode": "CMMS",
    "VenueName": "Chhotu Maharaj Cine Cafe : Sahibganj, Jharkhand"
  },
  "CMTU": {
    "AvailableFormats": "2D",
    "City": "Khatima",
    "Latitude": "28.924",
    "Longitude": "79.9753",
    "RegionCode": "KHTM",
    "State": "Uttarakhand",
    "SubRegionCode": "KHTM",
    "VenueAddress": "Mj Market, Tankapur Road, Opposite -  Prayas Hospital, Khatima, Uttarakhand 262308, India",
    "VenueCode": "CMTU",
    "VenueName": "Chhotu Maharaj Cine Cafe: Khatima,Uttarakhand"
  },
  "CMXN": {
    "AvailableFormats": "2D",
    "City": "Nimbahera",
    "Latitude": "24.6251",
    "Longitude": "74.6928",
    "RegionCode": "NIPA",
    "State": "Rajasthan",
    "SubRegionCode": "NIPA",
    "VenueAddress": "Chittorgarh Road, Mahesh Nagar, Kamdhaz Nagar, Nimbahera, Rajasthan 312601, India",
    "VenueCode": "CMXN",
    "VenueName": "Crazy Multiplex: Nimbahera"
  },
  "CNCY": {
    "AvailableFormats": "2D",
    "City": "Sagar",
    "Latitude": "23.8526",
    "Longitude": "78.7808",
    "RegionCode": "SAMP",
    "State": "Madhya Pradesh",
    "SubRegionCode": "SAMP",
    "VenueAddress": "National Highway No 26, Jhansi Road, Makronia Camp, Above Parinay Banquet Hall, Sagar, Madhya Pradesh 470004, India",
    "VenueCode": "CNCY",
    "VenueName": "Cine City: Sagar"
  },
  "CNPD": {
    "AvailableFormats": "2D",
    "City": "Chintalapudi",
    "Latitude": "17.0655",
    "Longitude": "80.983",
    "RegionCode": "CHPD",
    "State": "Andhra Pradesh",
    "SubRegionCode": "CHPD",
    "VenueAddress": "Chintalapudi - Eluru Road, Near Old Bus Stand, Chintalapudi, Andhra Pradesh 534460, India",
    "VenueCode": "CNPD",
    "VenueName": "Sarada Mini A/C Theatre: Chintalapudi"
  },
  "CNTC": {
    "AvailableFormats": "",
    "City": "Coimbatore",
    "FirstTracked": "2026-07-14",
    "Latitude": "10.993464",
    "Longitude": "76.96422",
    "RegionCode": "COIM",
    "State": "Tamil Nadu",
    "SubRegionCode": "COIM",
    "VenueAddress": "191, Big Bazar Street, Town Hall, Near Railway Station, Near Koniammam Temple, Coimbatore, Tamil Nadu 641001, India",
    "VenueCode": "CNTC",
    "VenueName": "Carnatic Cinema: Coimbatore"
  },
  "COLV": {
    "AvailableFormats": "2D|3D",
    "City": "Vadodara",
    "Latitude": "22.3108",
    "Longitude": "73.1688",
    "RegionCode": "VAD",
    "State": "Gujarat",
    "SubRegionCode": "VAD",
    "VenueAddress": "Kanha Center, 2nd Floor, RC Dutt Road, Alkapuri, Opposite Hotel Express Ardhana Society, Vadodara, Gujarat 390020, India",
    "VenueCode": "COLV",
    "VenueName": "Connplex Cinemas (Luxuriance): Vadodara"
  },
  "CPAO": {
    "AvailableFormats": "3D|2D",
    "City": "Ahmedabad",
    "Latitude": "23.0378",
    "Longitude": "72.5283",
    "RegionCode": "AHD",
    "State": "Gujarat",
    "SubRegionCode": "AHD",
    "VenueAddress": "3rd Floor, Alpha One Mall, Opp Vastrapur Lake, Ahmedabad, Gujarat 380015, India",
    "VenueCode": "CPAO",
    "VenueName": "Cinepolis: Nexus Ahmedabad One"
  },
  "CPEC": {
    "AvailableFormats": "2D",
    "City": "Ahmedabad",
    "Latitude": "23.0464",
    "Longitude": "72.6737",
    "RegionCode": "AHD",
    "State": "Gujarat",
    "SubRegionCode": "AHD",
    "VenueAddress": "4th Floor, Hiltown Square, MG Road, Ahmedabad, Gujarat 382350, India",
    "VenueCode": "CPEC",
    "VenueName": "Cineprime Cinema: Nikol"
  },
  "CPKC": {
    "AvailableFormats": "2D|3D",
    "City": "Vapi",
    "Latitude": "20.3954",
    "Longitude": "72.8928",
    "RegionCode": "VAPI",
    "State": "Gujarat",
    "SubRegionCode": "VAPI",
    "VenueAddress": "Fortune Square-1, 4th Floor, Vapi -Daman Road, Chala, Vapi, Gujarat 396191, India",
    "VenueCode": "CPKC",
    "VenueName": "Cine Park: Chala, Vapi"
  },
  "CPMH": {
    "AvailableFormats": "2D|3D",
    "City": "Hyderabad",
    "Latitude": "17.4901",
    "Longitude": "78.3933",
    "RegionCode": "HYD",
    "State": "Telangana",
    "SubRegionCode": "HYD",
    "VenueAddress": "3rd Floor, Survey No.1050, KPBH Colony Phase-3, LuLu Mall,Opposite - JNTU Hi-Tech Road, Kukatpally, Kukatpally, Hyderabad, Telangana 500072, India",
    "VenueCode": "CPMH",
    "VenueName": "Cinepolis: Lulu Mall, Hyderabad"
  },
  "CPOV": {
    "AvailableFormats": "2D|3D",
    "City": "Vijayawada",
    "Latitude": "16.4888",
    "Longitude": "80.6752",
    "RegionCode": "KADU",
    "State": "Andhra Pradesh",
    "SubRegionCode": "KADU",
    "VenueAddress": "Cinepolis India Pvt Ltd, 3rd Floor, Power One Mall, Survery no -220/4 Kanuru gram, Bunder Road, District- Krishna, Vijayawada, Andhra Pradesh 520007, India",
    "VenueCode": "CPOV",
    "VenueName": "Cinepolis: Power One Mall, Vijayawada"
  },
  "CPSM": {
    "AvailableFormats": "2D",
    "City": "Ahmedabad",
    "Latitude": "23.1045",
    "Longitude": "72.5494",
    "RegionCode": "AHD",
    "State": "Gujarat",
    "SubRegionCode": "AHD",
    "VenueAddress": "Savvy Sawaraj Sports Club, 5th Floor, Vandematram Road, Near Godrej Garden City Road, Ahmedabad, Gujarat 382481, India",
    "VenueCode": "CPSM",
    "VenueName": "Savvy Swaraaj Miniplex: Gota, Ahmedabad"
  },
  "CRGM": {
    "AvailableFormats": "3D|2D",
    "City": "Gurugram (Gurgaon)",
    "Latitude": "28.3833",
    "Longitude": "77.0522",
    "RegionCode": "NCR",
    "State": "NCR",
    "SubRegionCode": "GURG",
    "VenueAddress": "Reach Airia Mall, 3rd Floor Sohna Road, Sector 68, Gurugram (Gurgaon), NCR 122103, India",
    "VenueCode": "CRGM",
    "VenueName": "Cinepolis: Airia Mall, Sohna Road, Gurgaon"
  },
  "CSCI": {
    "AvailableFormats": "2D",
    "City": "Indore",
    "Latitude": "22.7229",
    "Longitude": "75.8304",
    "RegionCode": "IND",
    "State": "Madhya Pradesh",
    "SubRegionCode": "IND",
    "VenueAddress": "2nd Floor, Space Tower, Airport Road, Above Croma, Near Surjeet Hyundai Showroom, Indore, Madhya Pradesh 452005, India",
    "VenueCode": "CSCI",
    "VenueName": "Cine Square Cinemas: Airport Road, Indore"
  },
  "CSMP": {
    "AvailableFormats": "2D",
    "City": "Ahmedabad",
    "Latitude": "23.0116",
    "Longitude": "72.5078",
    "RegionCode": "AHD",
    "State": "Gujarat",
    "SubRegionCode": "AHD",
    "VenueAddress": "2, 3, 4th Floor, Campus Corner 2, 100 Feet Road, Prahlad Nagar Garden, Ahmedabad, Gujarat 380015, India",
    "VenueCode": "CSMP",
    "VenueName": "Connplex Cinemas: Prahladnagar"
  },
  "CSTL": {
    "AvailableFormats": "2D|3D",
    "City": "Nawada",
    "Latitude": "24.8877",
    "Longitude": "85.5392",
    "RegionCode": "NAWD",
    "State": "Bihar",
    "SubRegionCode": "NAWD",
    "VenueAddress": "Natraj Picture Palace, New Area, Nawada, Nawada, Bihar 805110, India",
    "VenueCode": "CSTL",
    "VenueName": "Connplex Cinemas (Natraj): Nawada"
  },
  "CTCT": {
    "AvailableFormats": "",
    "City": "Gorantla",
    "FirstTracked": "2026-07-14",
    "Latitude": "13.984417",
    "Longitude": "77.767624",
    "RegionCode": "GORA",
    "State": "Andhra Pradesh",
    "SubRegionCode": "GORA",
    "VenueAddress": "Hindupur - Kadiri Highway, Near Sri Vinayaka Swamy Temple, Gorantla, Andhra Pradesh 515231, India",
    "VenueCode": "CTCT",
    "VenueName": "CTC Theatre: Gorantla"
  },
  "CTMP": {
    "AvailableFormats": "2D|3D",
    "City": "Pune",
    "Latitude": "18.5247",
    "Longitude": "73.8546",
    "RegionCode": "PUNE",
    "State": "Maharashtra",
    "SubRegionCode": "PUNE",
    "VenueAddress": "111, Behind Pune Muncipal Corporation Building, Shivaji Road, Shivaji Nagar, Pune, Maharashtra 411005, India",
    "VenueCode": "CTMP",
    "VenueName": "City Pride: Mangala Cinema"
  },
  "CTSR": {
    "AvailableFormats": "2D|3D",
    "City": "Pune",
    "Latitude": "18.4887",
    "Longitude": "73.8579",
    "RegionCode": "PUNE",
    "State": "Maharashtra",
    "SubRegionCode": "PUNE",
    "VenueAddress": "Market Yard, Pune Satara Road, Pune, Maharashtra 411037, India",
    "VenueCode": "CTSR",
    "VenueName": "City Pride: Satara Road"
  },
  "CVDK": {
    "AvailableFormats": "2D|3D",
    "City": "Rajkot",
    "Latitude": "22.264",
    "Longitude": "70.7996",
    "RegionCode": "RAJK",
    "State": "Gujarat",
    "SubRegionCode": "RAJK",
    "VenueAddress": "Vandana Heritage 4th  and 5th Floor, Opposite Atika Railway Crossing, Gondal Road, Rajkot, Gujarat 360004, India",
    "VenueCode": "CVDK",
    "VenueName": "Cinepolis Vandana: Rajkot"
  },
  "CWTB": {
    "AvailableFormats": "",
    "City": "Buhari",
    "FirstTracked": "2026-07-14",
    "Latitude": "20.974022",
    "Longitude": "73.30542",
    "RegionCode": "BUHA",
    "State": "Gujarat",
    "SubRegionCode": "BUHA",
    "VenueAddress": "Amrut shopping center, Plot no 162/A Buhari, Dist-Valod, Buhari, Gujarat 394630, India",
    "VenueCode": "CWTB",
    "VenueName": "Cineworld Theater: Buhari"
  },
  "CXST": {
    "AvailableFormats": "2D",
    "City": "Ahmedabad",
    "Latitude": "23.0295",
    "Longitude": "72.4662",
    "RegionCode": "AHD",
    "State": "Gujarat",
    "SubRegionCode": "AHD",
    "VenueAddress": "2nd Floor, Turquoise 3, Gala Gymkhana Road, South Bopal, Ahmedabad, Gujarat 380058, India",
    "VenueCode": "CXST",
    "VenueName": "Connplex Cinemas: South Bopal"
  },
  "DAMD": {
    "AvailableFormats": "2D",
    "City": "Tirupur",
    "Latitude": "11.0991",
    "Longitude": "77.3444",
    "RegionCode": "AVII",
    "State": "Tamil Nadu",
    "SubRegionCode": "AVII",
    "VenueAddress": "State Highway 169, Puliyamara Thottam, Katapalayam, Near Arulmigu Sri Pattathaarasi Amman Thirukovil, Tirupur, Tamil Nadu 641604, India",
    "VenueCode": "DAMD",
    "VenueName": "Diamond Cinemas A/C 4K Dolby: Tirupur"
  },
  "DCCT": {
    "AvailableFormats": "2D",
    "City": "Thrissur",
    "Latitude": "10.5616",
    "Longitude": "76.2174",
    "RegionCode": "THSR",
    "State": "Kerala",
    "SubRegionCode": "THSR",
    "VenueAddress": "Thrissur - Shoranur Road, Padukad, Keltron Nagar, Kolazhy, Thrissur, Kerala 680010, India",
    "VenueCode": "DCCT",
    "VenueName": "Deepa Cinema 4K RGB Laser DTS X: Viyyur"
  },
  "DCMJ": {
    "AvailableFormats": "2D",
    "City": "Manjeri",
    "Latitude": "11.1232",
    "Longitude": "76.1175",
    "RegionCode": "MAJR",
    "State": "Kerala",
    "SubRegionCode": "MAJR",
    "VenueAddress": "Rajiv Gandhi Bypass, Karuvambram, Manjeri, Kerala 676121, India",
    "VenueCode": "DCMJ",
    "VenueName": "Devaki Cinemax: Manjeri"
  },
  "DDCK": {
    "AvailableFormats": "2D|3D",
    "City": "Hajipur",
    "Latitude": "25.6943",
    "Longitude": "85.2116",
    "RegionCode": "HAJI",
    "State": "Bihar",
    "SubRegionCode": "HAJI",
    "VenueAddress": "Cine Krishna Mall ,1st Floor, Cinema Road, Hajipur, Bihar 844101, India",
    "VenueCode": "DDCK",
    "VenueName": "DD Cinemas: Cine Krishna Mall, Hajipur"
  },
  "DESA": {
    "AvailableFormats": "2D",
    "City": "Porumamilla",
    "Latitude": "15.0024",
    "Longitude": "78.9905",
    "RegionCode": "PORU",
    "State": "Andhra Pradesh",
    "SubRegionCode": "PORU",
    "VenueAddress": "Reddy Nagar, Main Road, Near Andhra Pragathi Gramina Bank, Porumamilla, Andhra Pradesh 516193, India",
    "VenueCode": "DESA",
    "VenueName": "Desai Mahal A/C 2K Dolby 7.1: Porumamilla"
  },
  "DHCB": {
    "AvailableFormats": "",
    "City": "Basti",
    "FirstTracked": "2026-07-14",
    "Latitude": "26.805424",
    "Longitude": "82.725296",
    "RegionCode": "BAST",
    "State": "Uttar Pradesh",
    "SubRegionCode": "BAST",
    "VenueAddress": "Badevan Over Bridge, Gorakhpur to Lucknow Highway Road, Near Toll Plaza, Basti, Uttar Pradesh 272002, India",
    "VenueCode": "DHCB",
    "VenueName": "Darsh Cinema: Basti"
  },
  "DLCD": {
    "AvailableFormats": "2D",
    "City": "Itanagar",
    "Latitude": "27.1018",
    "Longitude": "93.6297",
    "RegionCode": "ITNG",
    "State": "Arunachal Pradesh",
    "SubRegionCode": "ITNG",
    "VenueAddress": "AAB Arcade Building, NH 415, Zero Point, Itanagar, Arunachal Pradesh 791111, India",
    "VenueCode": "DLCD",
    "VenueName": "Drodel Cineworld, Zero point: Itanagar"
  },
  "DMHA": {
    "AvailableFormats": "2D",
    "City": "Kalyani",
    "Latitude": "22.9673",
    "Longitude": "88.539",
    "RegionCode": "KALY",
    "State": "West Bengal",
    "SubRegionCode": "KALY",
    "VenueAddress": "2nd, Ward No 6 Balindi, Kalyani Road, Haringhata, Nadia, Kalyani, West Bengal 741246, India",
    "VenueCode": "DMHA",
    "VenueName": "Dolphin Multiplex: Haringhata (Dolby 7.1)"
  },
  "DNRP": {
    "AvailableFormats": "2D",
    "City": "Pathanamthitta",
    "Latitude": "9.26514",
    "Longitude": "76.7891",
    "RegionCode": "PTNM",
    "State": "Kerala",
    "SubRegionCode": "PTNM",
    "VenueAddress": "NH 183A Valanchuzhy, Pathanamthitta - Kadammanitta Road, Near Aananda Bavan Vegetarian Restaurant, Pathanamthitta, Kerala 689645, India",
    "VenueCode": "DNRP",
    "VenueName": "Dhanya Remya: Pathanamthitta"
  },
  "DREA": {
    "AvailableFormats": "",
    "City": "Mangaldoi",
    "FirstTracked": "2026-07-14",
    "Latitude": "26.44013",
    "Longitude": "92.03078",
    "RegionCode": "MANG",
    "State": "Assam",
    "SubRegionCode": "MANG",
    "VenueAddress": "2nd Floor, Sumitra Shopping Complex, LNB Road, Mangaldoi Darrang, Mangaldoi, Assam 784125, India",
    "VenueCode": "DREA",
    "VenueName": "FUN Cinemas Dream Theatre: Mangaldoi"
  },
  "DTDT": {
    "AvailableFormats": "3D|2D",
    "City": "Indore",
    "Latitude": "22.7035",
    "Longitude": "75.9178",
    "RegionCode": "IND",
    "State": "Madhya Pradesh",
    "SubRegionCode": "IND",
    "VenueAddress": "5th Floor, The Zodiac Mall, Scheme No. 140, Pipliyahana, Indore, Madhya Pradesh 452016, India",
    "VenueCode": "DTDT",
    "VenueName": "Drama Factory Cinema, Zodiac Mall: Indore"
  },
  "DVCA": {
    "AvailableFormats": "2D",
    "City": "Dhamtari",
    "Latitude": "20.7086",
    "Longitude": "81.5462",
    "RegionCode": "DHMT",
    "State": "Chhattisgarh",
    "SubRegionCode": "DHMT",
    "VenueAddress": "C/O Vimal Talkies, Dhamtari H.O, Near Bhagwati Lodge and Dawat Restaurat, Dhamtari, Chhattisgarh 493773, India",
    "VenueCode": "DVCA",
    "VenueName": "Devshri Cinema: Dhamtari"
  },
  "DZCM": {
    "AvailableFormats": "2D",
    "City": "Gangtok",
    "Latitude": "27.3264",
    "Longitude": "88.6114",
    "RegionCode": "GANG",
    "State": "Sikkim",
    "SubRegionCode": "GANG",
    "VenueAddress": "Lal Bazar Road, Opposite to Taxi Stand, Near Denzong Inn Hotel, Gangtok, Sikkim 737101, India",
    "VenueCode": "DZCM",
    "VenueName": "Denzong Cinema: Gangtok"
  },
  "ECVP": {
    "AvailableFormats": "",
    "City": "Vapi",
    "FirstTracked": "2026-07-14",
    "Latitude": "20.412039",
    "Longitude": "72.91532",
    "RegionCode": "DAMA",
    "State": "Gujarat",
    "SubRegionCode": "DAMA",
    "VenueAddress": "Empress Mall, 3rd Floor, National Highway No.8, Salvav, Near Swaminarayan School, Vapi, Gujarat 396191, India",
    "VenueCode": "ECVP",
    "VenueName": "Empress Cinemas: Vapi"
  },
  "ELMV": {
    "AvailableFormats": "",
    "City": "Vasco Da Gama",
    "FirstTracked": "2026-07-14",
    "Latitude": "15.400058",
    "Longitude": "73.804214",
    "RegionCode": "GOA",
    "State": "Goa",
    "SubRegionCode": "VAGG",
    "VenueAddress": "Alto Desterro, Harbour Road, Near Ganesh Temple,Bogda, Vasco Da Gama, Goa 403802, India",
    "VenueCode": "ELMV",
    "VenueName": "El Monte Cinema: Vasco Da Gama, Goa"
  },
  "EOCS": {
    "AvailableFormats": "2D",
    "City": "Sundargarh",
    "Latitude": "22.1043",
    "Longitude": "84.0378",
    "RegionCode": "SUND",
    "State": "Odisha",
    "SubRegionCode": "SUND",
    "VenueAddress": "Sankara City, Mission Road, Sankara Road, Sundargarh, Odisha 770001, India",
    "VenueCode": "EOCS",
    "VenueName": "EOS Cinema: Sundargarh"
  },
  "ESCP": {
    "AvailableFormats": "2D",
    "City": "Patna",
    "Latitude": "25.6177",
    "Longitude": "85.1486",
    "RegionCode": "PATN",
    "State": "Bihar",
    "SubRegionCode": "PATN",
    "VenueAddress": "East of Gandhi Maidan, Near Kargil Chowk, Bakarganj, Patna, Bihar 800004, India",
    "VenueCode": "ESCP",
    "VenueName": "Elphinstone Cinema"
  },
  "ESYM": {
    "AvailableFormats": "3D|2D",
    "City": "Yavatmal",
    "Latitude": "20.3575",
    "Longitude": "78.1019",
    "RegionCode": "YAVA",
    "State": "Maharashtra",
    "SubRegionCode": "YAVA",
    "VenueAddress": "Elements Mall, Ring Road, Tulja Nagari, SatyaNarayan Layout, Yavatmal, Maharashtra 445002, India",
    "VenueCode": "ESYM",
    "VenueName": "Elements Cinema: Yavatmal"
  },
  "EYCJ": {
    "AvailableFormats": "2D",
    "City": "Jharsuguda",
    "Latitude": "21.8505",
    "Longitude": "84.0129",
    "RegionCode": "JRSG",
    "State": "Odisha",
    "SubRegionCode": "JRSG",
    "VenueAddress": "Shanti City Center, Sarbahal Road, Jharsuguda, Odisha 768201, India",
    "VenueCode": "EYCJ",
    "VenueName": "Eylex Cinema: Jharsuguda"
  },
  "FCMC": {
    "AvailableFormats": "",
    "City": "Indore",
    "FirstTracked": "2026-07-14",
    "Latitude": "22.606922",
    "Longitude": "75.79433",
    "RegionCode": "IND",
    "State": "Madhya Pradesh",
    "SubRegionCode": "IND",
    "VenueAddress": "Trinity Mall, Mhow-Indore Road, Umariya, Indore, Madhya Pradesh 453331, India",
    "VenueCode": "FCMC",
    "VenueName": "Fortune Cinema: Mhow"
  },
  "FFCX": {
    "AvailableFormats": "2D|3D",
    "City": "Indore",
    "Latitude": "22.6197",
    "Longitude": "75.8018",
    "RegionCode": "IND",
    "State": "Madhya Pradesh",
    "SubRegionCode": "IND",
    "VenueAddress": "Fundore Mall, 1st floor, Ahead of Rau Circle and Opposite Guru Kripa Restaurant, Near Red Maple Mashal Resort, Rau, Indore, Madhya Pradesh 453331, India",
    "VenueCode": "FFCX",
    "VenueName": "Fundore Cinemas, Rau: Indore"
  },
  "FMKY": {
    "AvailableFormats": "2D|3D",
    "City": "Kalyan",
    "Latitude": "19.2299",
    "Longitude": "73.1232",
    "RegionCode": "MUMBAI",
    "State": "Maharashtra",
    "SubRegionCode": "KALYAN",
    "VenueAddress": "2nd Floor, Metro Junction Mall, Netivali Village, Kalyan Shilphata Road, Kalyan, Maharashtra 421306, India",
    "VenueCode": "FMKY",
    "VenueName": "INOX: Metro Mall Junction, Kalyan (E)"
  },
  "FNAN": {
    "AvailableFormats": "2D|3D",
    "City": "Mumbai",
    "Latitude": "19.1358",
    "Longitude": "72.8332",
    "RegionCode": "MUMBAI",
    "State": "Maharashtra",
    "SubRegionCode": "MWEST",
    "VenueAddress": "Plot No.844/4,Level 4, Shah Industrial Estate, Veera Desai Road, Andheri(West), Near ICICI Bank ATM, Mumbai, Maharashtra 400053, India",
    "VenueCode": "FNAN",
    "VenueName": "Cinepolis: Fun Republic Mall, Andheri (W)"
  },
  "FNGW": {
    "AvailableFormats": "2D|3D",
    "City": "Gwalior",
    "Latitude": "26.2094",
    "Longitude": "78.1663",
    "RegionCode": "GWAL",
    "State": "Madhya Pradesh",
    "SubRegionCode": "GWAL",
    "VenueAddress": "Dindayal City Mall, MLB Road, Lashkar, Opp Zoo, Gwalior, Madhya Pradesh 474001, India",
    "VenueCode": "FNGW",
    "VenueName": "Fun Cinemas: DD City Mall, Gwalior"
  },
  "FPPF": {
    "AvailableFormats": "2D",
    "City": "Ponkunnam",
    "Latitude": "9.56543",
    "Longitude": "76.7565",
    "RegionCode": "PONK",
    "State": "Kerala",
    "SubRegionCode": "PONK",
    "VenueAddress": "Post Office Road, Near Art Line Digital Studio, Ponkunnam, Kerala 686506, India",
    "VenueCode": "FPPF",
    "VenueName": "Focus Cinemas: Ponkunnam"
  },
  "FSMA": {
    "AvailableFormats": "2D",
    "City": "Angamaly",
    "Latitude": "10.2119",
    "Longitude": "76.4519",
    "RegionCode": "KLDY",
    "State": "Kerala",
    "SubRegionCode": "KLDY",
    "VenueAddress": "Canal Pass, Manjapra, Angamaly, Kerala 683581, India",
    "VenueCode": "FSMA",
    "VenueName": "Four Star Movies: Manjapra, Angamaly"
  },
  "GAGA": {
    "AvailableFormats": "2D",
    "City": "Nabarangpur",
    "Latitude": "19.2124",
    "Longitude": "82.5491",
    "RegionCode": "NAGU",
    "State": "Odisha",
    "SubRegionCode": "NAGU",
    "VenueAddress": "Glaze Hotel and Resorts Pvt Limited, National Highway, Chamuriyaguda, Nabarangpur, Odisha 764059, India",
    "VenueCode": "GAGA",
    "VenueName": "Glaze Cinemas: Nabarangpur"
  },
  "GATM": {
    "AvailableFormats": "2D",
    "City": "Mysuru (Mysore)",
    "Latitude": "12.3018",
    "Longitude": "76.651",
    "RegionCode": "MYS",
    "State": "Karnataka",
    "SubRegionCode": "MYS",
    "VenueAddress": "Chamaraja Double Road, K.R.Mohalla, Agrahara, Mysuru (Mysore), Karnataka 570024, India",
    "VenueCode": "GATM",
    "VenueName": "Gayathri Talkies: Mysuru, Christie Solaria 2K"
  },
  "GCAT": {
    "AvailableFormats": "2D",
    "City": "Golaghat",
    "Latitude": "26.5113",
    "Longitude": "93.9726",
    "RegionCode": "GHT",
    "State": "Assam",
    "SubRegionCode": "GHT",
    "VenueAddress": "Municipality Complex, Old Jail Road, Near Kutchina Modular Showroom, Golaghat, Assam 785621, India",
    "VenueCode": "GCAT",
    "VenueName": "Gold Cinema: Golaghat"
  },
  "GCDS": {
    "AvailableFormats": "2D",
    "City": "Sarangarh",
    "Latitude": "21.6384",
    "Longitude": "83.1056",
    "RegionCode": "SARH",
    "State": "Chhattisgarh",
    "SubRegionCode": "SARH",
    "VenueAddress": "33, Hardi Road, Sarangarh, Chhattisgarh 496450, India",
    "VenueCode": "GCDS",
    "VenueName": "Grand Cineplex: Sarangarh"
  },
  "GCIC": {
    "AvailableFormats": "2D",
    "City": "Ichalkaranji",
    "Latitude": "16.6985",
    "Longitude": "74.4577",
    "RegionCode": "ICHL",
    "State": "Maharashtra",
    "SubRegionCode": "ICHL",
    "VenueAddress": "Station Road, Vikash Nagar, Ichalkaranji, Maharashtra 416115, India",
    "VenueCode": "GCIC",
    "VenueName": "Guru Chitramandir: Ichalkaranji"
  },
  "GCMJ": {
    "AvailableFormats": "2D|3D",
    "City": "Jaipur",
    "Latitude": "26.8563",
    "Longitude": "75.8059",
    "RegionCode": "JAIP",
    "State": "Rajasthan",
    "SubRegionCode": "JAIP",
    "VenueAddress": "4th Floor, G.T Central Mall, Plot No.4, Indira Palace, Malviya Nagar, Jaipur, Rajasthan 302017, India",
    "VenueCode": "GCMJ",
    "VenueName": "INOX: GT Central Mall, Jaipur"
  },
  "GCSG": {
    "AvailableFormats": "2D",
    "City": "Similiguda",
    "Latitude": "18.7059",
    "Longitude": "82.8506",
    "RegionCode": "SIMI",
    "State": "Odisha",
    "SubRegionCode": "SIMI",
    "VenueAddress": "Himgiri Nagar, Koraput, Near State Bank of India, Similiguda, Odisha 764036, India",
    "VenueCode": "GCSG",
    "VenueName": "Galaxy Cinema: Semiliguda"
  },
  "GDBR": {
    "AvailableFormats": "2D",
    "City": "Beawar",
    "Latitude": "26.1053",
    "Longitude": "74.3131",
    "RegionCode": "BEAW",
    "State": "Rajasthan",
    "SubRegionCode": "BEAW",
    "VenueAddress": "8/12, Modi City Centre, Station Road, Beawar, Rajasthan 305901, India",
    "VenueCode": "GDBR",
    "VenueName": "Gold Cinema: Beawar"
  },
  "GDDR": {
    "AvailableFormats": "2D",
    "City": "Dausa",
    "Latitude": "26.9013",
    "Longitude": "76.34",
    "RegionCode": "DAUS",
    "State": "Rajasthan",
    "SubRegionCode": "DAUS",
    "VenueAddress": "Sunshine Complex, 1st Tower, Agra - Jaipur Road, Opposite P.G. College, Near Pinky Hotel, Dausa, Rajasthan 303303, India",
    "VenueCode": "GDDR",
    "VenueName": "Gold Cinema: Dausa"
  },
  "GECA": {
    "AvailableFormats": "2D",
    "City": "Kuju",
    "Latitude": "23.7285",
    "Longitude": "85.5079",
    "RegionCode": "GGHH",
    "State": "Jharkhand",
    "SubRegionCode": "GGHH",
    "VenueAddress": "Main Road, Hesagraha, Kuju, Jharkhand 825316, India",
    "VenueCode": "GECA",
    "VenueName": "Geetanjali Cinema (DOLBY LASER): Kuju, Ramgarh"
  },
  "GGGV": {
    "AvailableFormats": "2D",
    "City": "Karimganj",
    "Latitude": "24.8671",
    "Longitude": "92.3682",
    "RegionCode": "KRNJ",
    "State": "Assam",
    "SubRegionCode": "KRNJ",
    "VenueAddress": "Old Station Road, Next to CityLife Supermarket, Karimganj, Assam 788710, India",
    "VenueCode": "GGGV",
    "VenueName": "Genesis Gold Cinema: Karimganj"
  },
  "GIER": {
    "AvailableFormats": "2D",
    "City": "Berhampur",
    "Latitude": "19.3102",
    "Longitude": "84.7914",
    "RegionCode": "BERP",
    "State": "Odisha",
    "SubRegionCode": "BERP",
    "VenueAddress": "Janata City Centre, Telephone Bhawan Road, Gandhi Nagar, Berhampur, Odisha 760001, India",
    "VenueCode": "GIER",
    "VenueName": "Gayatri Cinemas: Berhampur"
  },
  "GLDA": {
    "AvailableFormats": "2D",
    "City": "Chhatrapati Sambhajinagar (Aurangabad)",
    "Latitude": "19.8626",
    "Longitude": "75.3154",
    "RegionCode": "AURA",
    "State": "Maharashtra",
    "SubRegionCode": "AURA",
    "VenueAddress": "Plot No. 5, Vedant Nagar, Railway Station Road, Beside Vedant Hotel,  Chhatrapati Sambhaji Nagar, Beside Vedant Hotel,  Chhatrapati Sambhaji Nagar, Chhatrapati Sambhajinagar (Aurangabad), Maharashtra ",
    "VenueCode": "GLDA",
    "VenueName": "Goldie Cinemark: Chhatrapati Sambhaji Nagar"
  },
  "GMMC": {
    "AvailableFormats": "2D",
    "City": "Madurai",
    "Latitude": "10.0308",
    "Longitude": "78.3397",
    "RegionCode": "MADU",
    "State": "Tamil Nadu",
    "SubRegionCode": "MADU",
    "VenueAddress": "584, Trichy - Madurai Highway, Melur, Madurai, Tamil Nadu 625106, India",
    "VenueCode": "GMMC",
    "VenueName": "Ganesh Cinemas (Melur) 4K RGB Laser & Dolby Atmos"
  },
  "GOST": {
    "AvailableFormats": "2D",
    "City": "Varadaiahpalem",
    "Latitude": "13.6011",
    "Longitude": "79.9331",
    "RegionCode": "VARA",
    "State": "Andhra Pradesh",
    "SubRegionCode": "VARA",
    "VenueAddress": "Tranku Road, Near APSRTC Bus Stand, Varadaiahpalem, Andhra Pradesh 517541, India",
    "VenueCode": "GOST",
    "VenueName": "Sri Gowrisankar Cinema`s A/C 4K Dolby 7.1 Surround"
  },
  "GPMY": {
    "AvailableFormats": "2D",
    "City": "Bengaluru",
    "Latitude": "12.9583",
    "Longitude": "77.5533",
    "RegionCode": "HOKT",
    "State": "Karnataka",
    "SubRegionCode": "HOKT",
    "VenueAddress": "Gopalan Legacy Mall, No 148 Mysore Road, Near Sirsi Circle, Bengaluru, Karnataka 560026, India",
    "VenueCode": "GPMY",
    "VenueName": "Gopalan Mall: Sirsi Circle"
  },
  "GRNG": {
    "AvailableFormats": "",
    "City": "Ghaziabad",
    "Latitude": "28.6549",
    "Longitude": "77.4356",
    "RegionCode": "NCR",
    "State": "NCR",
    "SubRegionCode": "GHAZ",
    "VenueAddress": "C-115, Grand Trunk Road, Model Town East, Gandhi Nagar, Nehru Nagar III, Ghaziabad, NCR 201001, India",
    "VenueCode": "GRNG",
    "VenueName": "Grand Cinemaz@Choudhry Mall"
  },
  "GTBY": {
    "AvailableFormats": "2D",
    "City": "Bellary",
    "Latitude": "15.1441",
    "Longitude": "76.9284",
    "RegionCode": "BLRY",
    "State": "Karnataka",
    "SubRegionCode": "BLRY",
    "VenueAddress": "Natraj Theater Royal Circle, Natraj Theater Complex, Old Katte Gudda, Cowl Bazaar, Bellary, Karnataka 583101, India",
    "VenueCode": "GTBY",
    "VenueName": "Ganga Theatre: Bellary"
  },
  "GTGA": {
    "AvailableFormats": "2D",
    "City": "Tiptur",
    "Latitude": "13.2589",
    "Longitude": "76.4848",
    "RegionCode": "TIPT",
    "State": "Karnataka",
    "SubRegionCode": "TIPT",
    "VenueAddress": "Bengaluru - Honnavar Road, Edenahalli, Tiptur, Karnataka 572201, India",
    "VenueCode": "GTGA",
    "VenueName": "Ganesh Theatre Laser Projection: Tiptur"
  },
  "GTWH": {
    "AvailableFormats": "2D|3D",
    "City": "Wardha",
    "Latitude": "20.7372",
    "Longitude": "78.6028",
    "RegionCode": "WARD",
    "State": "Maharashtra",
    "SubRegionCode": "WARD",
    "VenueAddress": "Sevagram Road, Mahadevpura, Near District General Hospital, Wardha, Maharashtra 442001, India",
    "VenueCode": "GTWH",
    "VenueName": "Ganesh Talkies: Wardha"
  },
  "HAMC": {
    "AvailableFormats": "2D",
    "City": "Shikarpur",
    "Latitude": "28.2792",
    "Longitude": "78.0104",
    "RegionCode": "SHIP",
    "State": "Uttar Pradesh",
    "SubRegionCode": "SHIP",
    "VenueAddress": "HEM Palace Cinema, 100 Kot Shar Khan, Bulandshahr, Shikarpur, Uttar Pradesh 203129, India",
    "VenueCode": "HAMC",
    "VenueName": "Hem Cineplex: Shikarpur"
  },
  "HCKI": {
    "AvailableFormats": "2D",
    "City": "Kotputli",
    "Latitude": "27.7087",
    "Longitude": "76.1956",
    "RegionCode": "KPLI",
    "State": "Rajasthan",
    "SubRegionCode": "KPLI",
    "VenueAddress": "NH 8, Near Patel Oil Company, Kotputli, Rajasthan 303108, India",
    "VenueCode": "HCKI",
    "VenueName": "Heeramoti Cinema: Kotputli"
  },
  "HHCG": {
    "AvailableFormats": "2D",
    "City": "Guntur",
    "Latitude": "16.3097",
    "Longitude": "80.4342",
    "RegionCode": "GUNT",
    "State": "Andhra Pradesh",
    "SubRegionCode": "GUNT",
    "VenueAddress": "Opp LVR Club, Road Lakshmipuram, Koritepadu Road, Guntur, Andhra Pradesh 522007, India",
    "VenueCode": "HHCG",
    "VenueName": "Harihar Cinemas: Guntur"
  },
  "HOUT": {
    "AvailableFormats": "2D",
    "City": "Moranhat",
    "Latitude": "27.1869",
    "Longitude": "94.9144",
    "RegionCode": "MORH",
    "State": "Assam",
    "SubRegionCode": "MORH",
    "VenueAddress": "Peoli Nagar, AT Road, Near State Bank Of India, Moranhat, Assam 785670, India",
    "VenueCode": "HOUT",
    "VenueName": "Houseful Talkies: Moranhat"
  },
  "IAET": {
    "AvailableFormats": "2D",
    "City": "Baraut",
    "Latitude": "29.1011",
    "Longitude": "77.2744",
    "RegionCode": "BARL",
    "State": "Uttar Pradesh",
    "SubRegionCode": "BARL",
    "VenueAddress": "Binoli Road, Near Vishnu Palace, Baraut, Uttar Pradesh 250611, India",
    "VenueCode": "IAET",
    "VenueName": "Imusica Entertainment: Baraut"
  },
  "IEFM": {
    "AvailableFormats": "3D|2D",
    "City": "Faridabad",
    "Latitude": "28.4076",
    "Longitude": "77.3101",
    "RegionCode": "NCR",
    "State": "NCR",
    "SubRegionCode": "FARI",
    "VenueAddress": "EROS EF3 Mall 3rd Floor, Sector 20 - A, Mathura Road, Faridabad, NCR 121001, India",
    "VenueCode": "IEFM",
    "VenueName": "INOX: EF3 Mall, Faridabad"
  },
  "ILUM": {
    "AvailableFormats": "3D|2D",
    "City": "Lucknow",
    "Latitude": "26.8713",
    "Longitude": "80.9584",
    "RegionCode": "LUCK",
    "State": "Uttar Pradesh",
    "SubRegionCode": "LUCK",
    "VenueAddress": "INOX Leisure LTD, 2nd Floor, Umrao Mall, Mahanagar, Near Badshah Nagar Metro Station, Lucknow, Uttar Pradesh 226006, India",
    "VenueCode": "ILUM",
    "VenueName": "INOX: Umrao Mall, Mahanagar"
  },
  "IMMO": {
    "AvailableFormats": "2D|2D SCREEN X",
    "City": "Bengaluru",
    "Latitude": "13.0702",
    "Longitude": "77.5924",
    "RegionCode": "BANG",
    "State": "Karnataka",
    "SubRegionCode": "BANG",
    "VenueAddress": "239/240, Byatarayanapura, Yelahanka Taluk, Bellary Road, Bengaluru, Karnataka 560092, India",
    "VenueCode": "IMMO",
    "VenueName": "INOX: Megaplex Mall of Asia Bangalore"
  },
  "INAM": {
    "AvailableFormats": "3D|2D",
    "City": "Kota",
    "Latitude": "25.1619",
    "Longitude": "75.8635",
    "RegionCode": "KOTA",
    "State": "Rajasthan",
    "SubRegionCode": "KOTA",
    "VenueAddress": "Kota Ahluwalias Great Mall, DCM Road, Ramchandrapura, Dhanmandi, Kota, Rajasthan 324005, India",
    "VenueCode": "INAM",
    "VenueName": "INOX: Ahluwalias Great Mall, Kota"
  },
  "INBP": {
    "AvailableFormats": "2D|3D",
    "City": "Patna",
    "Latitude": "25.6175",
    "Longitude": "85.1352",
    "RegionCode": "PATN",
    "State": "Bihar",
    "SubRegionCode": "PATN",
    "VenueAddress": "3rd Floor, City Centre Mall, Lodipur, Patna, Bihar 800001, India",
    "VenueCode": "INBP",
    "VenueName": "INOX: City Centre Mall, Patna"
  },
  "INEM": {
    "AvailableFormats": "2D",
    "City": "Jaipur",
    "Latitude": "26.8954",
    "Longitude": "75.7486",
    "RegionCode": "JAIP",
    "State": "Rajasthan",
    "SubRegionCode": "JAIP",
    "VenueAddress": "3rd Floor, Elements Mall, Ajmer Road, Mahatma Gandhi Nagar, Jaipur, Rajasthan 302021, India",
    "VenueCode": "INEM",
    "VenueName": "INOX: Elements Mall, Ajmer Road"
  },
  "INHY": {
    "AvailableFormats": "2D",
    "City": "Hyderabad",
    "Latitude": "17.4196",
    "Longitude": "78.4486",
    "RegionCode": "HYD",
    "State": "Telangana",
    "SubRegionCode": "HYD",
    "VenueAddress": "4th Floor, GVK One Mall, Road No.1, Banjara Hills, Opposite Hyatt Place, Hyderabad, Telangana 500034, India",
    "VenueCode": "INHY",
    "VenueName": "INOX GVK One, Banjara Hills: Hyderabad"
  },
  "INMG": {
    "AvailableFormats": "2D|3D",
    "City": "Goa",
    "Latitude": "15.2848",
    "Longitude": "73.9576",
    "RegionCode": "GOA",
    "State": "Goa",
    "SubRegionCode": "GOA",
    "VenueAddress": "G Wing, Osia Commercial Arcade, SGPDA Market Complex, Goa, Goa 403601, India",
    "VenueCode": "INMG",
    "VenueName": "INOX: Osia G Wing Margao, Goa"
  },
  "INOM": {
    "AvailableFormats": "2D",
    "City": "Salem",
    "Latitude": "11.6745",
    "Longitude": "78.1326",
    "RegionCode": "SALM",
    "State": "Tamil Nadu",
    "SubRegionCode": "SALM",
    "VenueAddress": "1st Floor, Reliance Mall, Five Roads Junction, Meyyanur, Salem, Tamil Nadu 636004, India",
    "VenueCode": "INOM",
    "VenueName": "INOX: Reliance Mall, Salem"
  },
  "INQM": {
    "AvailableFormats": "2D|3D",
    "City": "Kolkata",
    "Latitude": "22.5393",
    "Longitude": "88.3657",
    "RegionCode": "BARR",
    "State": "West Bengal",
    "SubRegionCode": "BARR",
    "VenueAddress": "4th Floor,Quest Mall, Syed Amir Ali Avenue, Opposite Our Lady Queen Of The Missions School, Kolkata, West Bengal 700017, India",
    "VenueCode": "INQM",
    "VenueName": "INOX: Quest Mall"
  },
  "INSC": {
    "AvailableFormats": "2D|3D",
    "City": "Thrissur",
    "Latitude": "10.5504",
    "Longitude": "76.1838",
    "RegionCode": "MANR",
    "State": "Kerala",
    "SubRegionCode": "MANR",
    "VenueAddress": "INOX Leisure Ltd, 2nd Floor, Sobha City Mall, Puzhakkal, Thrissur, Kerala 680553, India",
    "VenueCode": "INSC",
    "VenueName": "INOX: Sobha City Mall"
  },
  "INTN": {
    "AvailableFormats": "3D|2D",
    "City": "Patna",
    "Latitude": "25.6057",
    "Longitude": "85.1337",
    "RegionCode": "PATN",
    "State": "Bihar",
    "SubRegionCode": "PATN",
    "VenueAddress": "PVR INOX Limited, KP Mall, 4th Floor, Budha Marg, Patna, Bihar 800001, India",
    "VenueCode": "INTN",
    "VenueName": "INOX: Ashok, Patna"
  },
  "INVP": {
    "AvailableFormats": "2D",
    "City": "Vijayawada",
    "Latitude": "16.5026",
    "Longitude": "80.6599",
    "RegionCode": "KADU",
    "State": "Andhra Pradesh",
    "SubRegionCode": "KADU",
    "VenueAddress": "3rd Floor, LEPL Icon, RTC Colony, Benz Circle, Patamata, Near Maris Stella College, Vijayawada, Andhra Pradesh 520010, India",
    "VenueCode": "INVP",
    "VenueName": "INOX: LEPL Icon, Patamata"
  },
  "IOCP": {
    "AvailableFormats": "2D|3D",
    "City": "Delhi",
    "Latitude": "28.6343",
    "Longitude": "77.2211",
    "RegionCode": "NCR",
    "State": "NCR",
    "SubRegionCode": "DELHI",
    "VenueAddress": "INOX Leisure Limited, Delhi Odeon, 2nd Floor, Odeon Cinema Complex, D-Block, Connaught Place, Delhi, NCR 110001, India",
    "VenueCode": "IOCP",
    "VenueName": "INOX: Odeon, Connaught Place"
  },
  "IPGM": {
    "AvailableFormats": "2D|3D",
    "City": "Dhanbad",
    "Latitude": "23.8292",
    "Longitude": "86.4333",
    "RegionCode": "DHAN",
    "State": "Jharkhand",
    "SubRegionCode": "DHAN",
    "VenueAddress": "3rd Floor, Prabhatam Grand Mall, Nagnagar, Barwadda, Dhaiya, Dhanbad, Jharkhand 826004, India",
    "VenueCode": "IPGM",
    "VenueName": "INOX: Prabhatam Grand Mall, Dhanbad"
  },
  "IRMR": {
    "AvailableFormats": "2D|3D",
    "City": "Rajkot",
    "Latitude": "22.2794",
    "Longitude": "70.7769",
    "RegionCode": "RAJK",
    "State": "Gujarat",
    "SubRegionCode": "RAJK",
    "VenueAddress": "INOX Leisure Ltd., 2nd Floor, Reliance Mall, 150 Feet Ring Road, Near Nana Mauva Circle, Rajkot, Gujarat 360005, India",
    "VenueCode": "IRMR",
    "VenueName": "INOX: Reliance Mega Mall, Rajkot"
  },
  "IUBS": {
    "AvailableFormats": "2D|3D",
    "City": "Udaipur",
    "Latitude": "24.6321",
    "Longitude": "73.7126",
    "RegionCode": "UDAI",
    "State": "Rajasthan",
    "SubRegionCode": "UDAI",
    "VenueAddress": "PVR INOX LTD, 3rd Floor Urban Square Mall, Plot No. F - 210 to 223, Udyog Vihar, Gaurav Path, RIICO Industrial Area, Sukher, Udaipur, Rajasthan 313001, India",
    "VenueCode": "IUBS",
    "VenueName": "INOX: Urban Square Mall, Udaipur"
  },
  "JAGG": {
    "AvailableFormats": "2D",
    "City": "Guna",
    "Latitude": "24.6499",
    "Longitude": "77.3141",
    "RegionCode": "GUNA",
    "State": "Madhya Pradesh",
    "SubRegionCode": "GUNA",
    "VenueAddress": "Karnal Ganj, Haat Road, Piproda Khurd, Guna, Madhya Pradesh 473001, India",
    "VenueCode": "JAGG",
    "VenueName": "Jagat Talkies: Guna"
  },
  "JCCZ": {
    "AvailableFormats": "2D",
    "City": "Forbesganj",
    "Latitude": "26.3014",
    "Longitude": "87.2607",
    "RegionCode": "FORB",
    "State": "Bihar",
    "SubRegionCode": "FORB",
    "VenueAddress": "Ram Manohar Lohiya Road, Hospital Road, Near India Breakfast Shop, Forbesganj, Bihar 854318, India",
    "VenueCode": "JCCZ",
    "VenueName": "Jyoti Cinema: Forbesganj"
  },
  "JCVM": {
    "AvailableFormats": "2D",
    "City": "Villupuram",
    "Latitude": "11.9412",
    "Longitude": "79.4939",
    "RegionCode": "VILL",
    "State": "Tamil Nadu",
    "SubRegionCode": "VILL",
    "VenueAddress": "716, Nehruji Road,Villupuram, Mandhakarai, Villupuram, Tamil Nadu 605602, India",
    "VenueCode": "JCVM",
    "VenueName": "Janas Cinemas: Maghalakshmi Plaazaa Villupuram"
  },
  "JHCJ": {
    "AvailableFormats": "2D",
    "City": "Jagdalpur",
    "Latitude": "19.0847",
    "Longitude": "82.0287",
    "RegionCode": "JAGD",
    "State": "Chhattisgarh",
    "SubRegionCode": "JAGD",
    "VenueAddress": "Balaji Ward, Suncity, Near Bank Of Baroda, Jagdalpur, Chhattisgarh 494001, India",
    "VenueCode": "JHCJ",
    "VenueName": "Jhankar Cinema: Jagdalpur"
  },
  "JKCT": {
    "AvailableFormats": "2D",
    "City": "Thrissur",
    "Latitude": "10.4195",
    "Longitude": "76.106",
    "RegionCode": "THAI",
    "State": "Kerala",
    "SubRegionCode": "THAI",
    "VenueAddress": "Ground Floor,Dheehini Shopping Complex, Nattika,Thriprayar, Near Sree Narayana Hall, Thrissur, Kerala 680566, India",
    "VenueCode": "JKCT",
    "VenueName": "JK Cinemas 4K Dolby Atmos: Thriprayar"
  },
  "JMJU": {
    "AvailableFormats": "2D",
    "City": "Jammu",
    "Latitude": "32.6993",
    "Longitude": "74.8583",
    "RegionCode": "JAMM",
    "State": "Jammu and Kashmir",
    "SubRegionCode": "JAMM",
    "VenueAddress": "Gandhi Nagar, Apsara Road, Jammu, Jammu and Kashmir 180004, India",
    "VenueCode": "JMJU",
    "VenueName": "Apsra Hospitality & Entertainment(Apsra Multiplex)"
  },
  "JRGF": {
    "AvailableFormats": "",
    "City": "Fatehpur(Rajasthan)",
    "FirstTracked": "2026-07-14",
    "Latitude": "27.98459",
    "Longitude": "74.95353",
    "RegionCode": "FATR",
    "State": "Rajasthan",
    "SubRegionCode": "FATR",
    "VenueAddress": "National Highway 11, Near to Gahlot Motors, Fatehpur(Rajasthan), Rajasthan 332301, India",
    "VenueCode": "JRGF",
    "VenueName": "JRG Movie Palace: Fatehpur"
  },
  "JTBP": {
    "AvailableFormats": "2D",
    "City": "Warangal",
    "Latitude": "18.000055",
    "Longitude": "79.588167",
    "RegionCode": "WAR",
    "State": "Telangana",
    "SubRegionCode": "WAR",
    "VenueAddress": "Hyderabad-Warangal-Bhopalpatnam Road, Rahamatnagar, Main Road, Warangal, Telangana 506003, India",
    "VenueCode": "JTBP",
    "VenueName": "Bhavani Picture Palace: Kazipet"
  },
  "JTLC": {
    "AvailableFormats": "2D",
    "City": "Chodavaram",
    "Latitude": "17.8299",
    "Longitude": "82.9374",
    "RegionCode": "CDVM",
    "State": "Andhra Pradesh",
    "SubRegionCode": "CDVM",
    "VenueAddress": "Gunisetti Vari Veedhi, Near Vinayak Temple Nowdu Veedhi, Chodavaram, Andhra Pradesh 531036, India",
    "VenueCode": "JTLC",
    "VenueName": "Lakshmi Theatre: Chodavaram"
  },
  "JTNP": {
    "AvailableFormats": "2D",
    "City": "Narsampet",
    "Latitude": "17.9291",
    "Longitude": "79.8887",
    "RegionCode": "NASP",
    "State": "Telangana",
    "SubRegionCode": "NASP",
    "VenueAddress": "Narsampet Main Road, Opposite State Bank Of India, Near Mee Seva Center, Narsampet, Telangana 506132, India",
    "VenueCode": "JTNP",
    "VenueName": "Jayasri Talkies: Narsampet"
  },
  "JTSB": {
    "AvailableFormats": "2D",
    "City": "Sathupally",
    "Latitude": "17.2113",
    "Longitude": "80.8334",
    "RegionCode": "SATH",
    "State": "Telangana",
    "SubRegionCode": "SATH",
    "VenueAddress": "Sathupally Main Road, Near State Bank of India, Sathupally, Telangana 507303, India",
    "VenueCode": "JTSB",
    "VenueName": "Sri Balaji Theater A/C Dts: Sathupally"
  },
  "JTTS": {
    "AvailableFormats": "2D",
    "City": "Sangareddy",
    "Latitude": "17.6148",
    "Longitude": "78.0788",
    "RegionCode": "SARE",
    "State": "Telangana",
    "SubRegionCode": "SARE",
    "VenueAddress": "2, Rajampet Road, Veerabhadranagar, Ahmed Nagar, Near Income Tax Office, Sangareddy, Telangana 502001, India",
    "VenueCode": "JTTS",
    "VenueName": "Rukmini Theatre: Sangareddy"
  },
  "JVTB": {
    "AvailableFormats": "2D",
    "City": "Bodinayakanur",
    "Latitude": "10.01",
    "Longitude": "77.3497",
    "RegionCode": "BODI",
    "State": "Tamil Nadu",
    "SubRegionCode": "BODI",
    "VenueAddress": "Ammankulam, Subanchetty Street, Near Pandyan Grama Bank, Bodinayakanur, Tamil Nadu 625513, India",
    "VenueCode": "JVTB",
    "VenueName": "Theatre Jivan: Bodi"
  },
  "KACI": {
    "AvailableFormats": "2D",
    "City": "Balurghat",
    "Latitude": "25.2256",
    "Longitude": "88.7754",
    "RegionCode": "BALU",
    "State": "West Bengal",
    "SubRegionCode": "BALU",
    "VenueAddress": "Chakbhabani, Near Head Post Office, Balurghat, West Bengal 733101, India",
    "VenueCode": "KACI",
    "VenueName": "Kalyani Balurghat(LaserProjector,5.1Digital Sound)"
  },
  "KASR": {
    "AvailableFormats": "2D",
    "City": "Sarni",
    "Latitude": "22.1044",
    "Longitude": "78.1665",
    "RegionCode": "SARN",
    "State": "Madhya Pradesh",
    "SubRegionCode": "SARN",
    "VenueAddress": "Near Nagar Palika, Sarni, Near Sami Bus Stand, Sarni, Madhya Pradesh 460447, India",
    "VenueCode": "KASR",
    "VenueName": "Kantishiva Cinemas: Sarni"
  },
  "KCAM": {
    "AvailableFormats": "",
    "City": "Nakodar",
    "FirstTracked": "2026-07-14",
    "Latitude": "31.119658",
    "Longitude": "75.509544",
    "RegionCode": "NAKO",
    "State": "Punjab",
    "SubRegionCode": "NAKO",
    "VenueAddress": "MDR48, Krishan Nagar, Nakodar - Nurmahal Road, Nakodar, Punjab 144040, India",
    "VenueCode": "KCAM",
    "VenueName": "KC Cineplex: Nakodar"
  },
  "KCMA": {
    "AvailableFormats": "2D|3D",
    "City": "Mumbai",
    "Latitude": "19.1879",
    "Longitude": "72.8475",
    "RegionCode": "MUMBAI",
    "State": "Maharashtra",
    "SubRegionCode": "MWEST",
    "VenueAddress": "Above Vasant Plaza Shopping Centre, Station Road, Opposite Natraj Market, Malad West, Mumbai, Maharashtra 400064, India",
    "VenueCode": "KCMA",
    "VenueName": "Kasturba Cinema (Newly Renovated): Malad"
  },
  "KCSR": {
    "AvailableFormats": "2D",
    "City": "Shrirampur",
    "Latitude": "19.6165",
    "Longitude": "74.6566",
    "RegionCode": "SHUR",
    "State": "Maharashtra",
    "SubRegionCode": "SHUR",
    "VenueAddress": "Kishor Cineplex, Shivaji Road, Shrirampur, Maharashtra 413709, India",
    "VenueCode": "KCSR",
    "VenueName": "Kishor Cineplex: Shrirampur"
  },
  "KDDF": {
    "AvailableFormats": "",
    "City": "Farrukhabad",
    "FirstTracked": "2026-07-14",
    "Latitude": "27.38537",
    "Longitude": "79.57575",
    "RegionCode": "FARU",
    "State": "Uttar Pradesh",
    "SubRegionCode": "FARU",
    "VenueAddress": "Rajeev Gandhi Nagar Road, Opposite to Entrance of Colony, Devrampur, Farrukhabad, Uttar Pradesh 209625, India",
    "VenueCode": "KDDF",
    "VenueName": "Krishna DD Cinema: Farrukhabad"
  },
  "KICM": {
    "AvailableFormats": "",
    "City": "Vizag",
    "FirstTracked": "2026-07-14",
    "Latitude": "17.73531",
    "Longitude": "83.31751",
    "RegionCode": "SABB",
    "State": "Andhra Pradesh",
    "SubRegionCode": "SABB",
    "VenueAddress": "D.No. 53-23-23, Beside Maddilapalem Bus Depot, Visakhapatnam, Vizag, Andhra Pradesh 530013, India",
    "VenueCode": "KICM",
    "VenueName": "Kinnera AC Laser 4K Projection 7.1Ultrasound:Vizag"
  },
  "KKMT": {
    "AvailableFormats": "2D",
    "City": "Navi Mumbai",
    "Latitude": "19.0124",
    "Longitude": "73.0897",
    "RegionCode": "MUMBAI",
    "State": "Maharashtra",
    "SubRegionCode": "THAN",
    "VenueAddress": "Shop No.01, Bhoomi Harmony, Plot No. 82, Sec-18, Kamothe, Panvel, Navi Mumbai, Maharashtra 410209, India",
    "VenueCode": "KKMT",
    "VenueName": "K.K. Cinema: Kamothe"
  },
  "KLRT": {
    "AvailableFormats": "2D",
    "City": "Palakkad",
    "Latitude": "10.7001",
    "Longitude": "76.7378",
    "RegionCode": "PLKK",
    "State": "Kerala",
    "SubRegionCode": "PLKK",
    "VenueAddress": "State Highway 25, Anikode, Chittur, Thathamangalam, Near Muthoottu Mini Financiers Ltd, Palakkad, Kerala 678101, India",
    "VenueCode": "KLRT",
    "VenueName": "Kairali Sree Theatre: Chittur"
  },
  "KMRM": {
    "AvailableFormats": "2D",
    "City": "Chennai",
    "Latitude": "12.9718",
    "Longitude": "80.1922",
    "RegionCode": "CHEN",
    "State": "Tamil Nadu",
    "SubRegionCode": "CHEN",
    "VenueAddress": "No 364, Mount - Madipakkam Road, Ullagaram, Puzhuthivakkam, Opposite to Muthoot Finance, Chennai, Tamil Nadu 600091, India",
    "VenueCode": "KMRM",
    "VenueName": "Kumaran Theatre PROVA 4K DOLBY ATMOS: Madipakkam"
  },
  "KPPB": {
    "AvailableFormats": "2D",
    "City": "Bahraich",
    "Latitude": "27.5715",
    "Longitude": "81.6027",
    "RegionCode": "BHRH",
    "State": "Uttar Pradesh",
    "SubRegionCode": "BHRH",
    "VenueAddress": "Kanoon Go Pura South, Brahmnipura, Near Disha Complex, Bahraich, Uttar Pradesh 271801, India",
    "VenueCode": "KPPB",
    "VenueName": "K Cinemas: Bahraich"
  },
  "KRIH": {
    "AvailableFormats": "2D",
    "City": "Rajnandgaon",
    "Latitude": "21.0942",
    "Longitude": "81.034",
    "RegionCode": "RAJA",
    "State": "Chhattisgarh",
    "SubRegionCode": "RAJA",
    "VenueAddress": "Cinema Lane, Near Manav Mandir Chowk, Rajnandgaon, Chhattisgarh 491441, India",
    "VenueCode": "KRIH",
    "VenueName": "Krishna Talkies: Rajnandgaon"
  },
  "KRVM": {
    "AvailableFormats": "2D",
    "City": "Kottayi",
    "Latitude": "10.7651",
    "Longitude": "76.5441",
    "RegionCode": "PLKK",
    "State": "Kerala",
    "SubRegionCode": "PLKK",
    "VenueAddress": "Mankara-Palakkad Road, Ayyappankaavu, Kottayi, Kerala 678572, India",
    "VenueCode": "KRVM",
    "VenueName": "KRV Movies: Kottayi"
  },
  "KSNT": {
    "AvailableFormats": "2D",
    "City": "Trivandrum",
    "Latitude": "8.48888",
    "Longitude": "76.9532",
    "RegionCode": "TRIV",
    "State": "Kerala",
    "SubRegionCode": "TRIV",
    "VenueAddress": "Aristo Junction, Thampanoor, Near Hotel Galaxy Park, Trivandrum, Kerala 695014, India",
    "VenueCode": "KSNT",
    "VenueName": "Kairali Sree Nila RGB Laser 4K Dolby Atmos"
  },
  "KTBH": {
    "AvailableFormats": "2D",
    "City": "Bhubaneswar",
    "Latitude": "20.2752",
    "Longitude": "85.8349",
    "RegionCode": "JATN",
    "State": "Odisha",
    "SubRegionCode": "JATN",
    "VenueAddress": "98, Unit-3, Sachivalaya Marg, OPTCL Colony, Anand Bazar, Kharbela Nagar, Bhubaneswar, Odisha 751001, India",
    "VenueCode": "KTBH",
    "VenueName": "Keshari Talkies (BARCO 4K LASER DOLBY ATMOS)"
  },
  "KTMV": {
    "AvailableFormats": "2D",
    "City": "Mumbai",
    "Latitude": "19.3785",
    "Longitude": "72.8287",
    "RegionCode": "MUMBAI",
    "State": "Maharashtra",
    "SubRegionCode": "MWEST",
    "VenueAddress": "Navghar Road, Anand Nagar, Opposite.West Panchal Nagar Walkway, Vasai West, Mumbai, Maharashtra 401202, India",
    "VenueCode": "KTMV",
    "VenueName": "KT Vision Cinema: Vasai (Screens)"
  },
  "KYBO": {
    "AvailableFormats": "",
    "City": "Bommidi",
    "FirstTracked": "2026-07-14",
    "Latitude": "11.979077",
    "Longitude": "78.251305",
    "RegionCode": "BOMM",
    "State": "Tamil Nadu",
    "SubRegionCode": "BOMM",
    "VenueAddress": "Bommudi Pappiredipatti Road, Near Raja Hospital, Bommidi, Tamil Nadu 635301, India",
    "VenueCode": "KYBO",
    "VenueName": "Kavitha Theatre: Bommidi"
  },
  "LALC": {
    "AvailableFormats": "2D",
    "City": "Jagraon",
    "Latitude": "30.8111",
    "Longitude": "75.4725",
    "RegionCode": "JGRO",
    "State": "Punjab",
    "SubRegionCode": "JGRO",
    "VenueAddress": "Moga Road, Kothe Fateh Din De, Jagraon, Punjab 142026, India",
    "VenueCode": "LALC",
    "VenueName": "Lal Palace Cineplex: Jagraon"
  },
  "LCBK": {
    "AvailableFormats": "2D",
    "City": "Kolkata",
    "Latitude": "22.7273",
    "Longitude": "88.48",
    "RegionCode": "BSRT",
    "State": "West Bengal",
    "SubRegionCode": "BSRT",
    "VenueAddress": "Krishnanagar Road, Norpara Halabot Tala, Barasat, Opposite Union Bank Of India Barasat Branch, Kolkata, West Bengal 700125, India",
    "VenueCode": "LCBK",
    "VenueName": "Lali Cinema: Barasat"
  },
  "LCSO": {
    "AvailableFormats": "2D",
    "City": "Ottapalam",
    "Latitude": "10.7734",
    "Longitude": "76.4259",
    "RegionCode": "PLKK",
    "State": "Kerala",
    "SubRegionCode": "PLKK",
    "VenueAddress": "Ponnani Road, Lakkidi Koottupatha, Ottapalam, Kerala 679301, India",
    "VenueCode": "LCSO",
    "VenueName": "Ladder Cinemas: Ottapalam - 4k Dolby Atmos/2k 7.1"
  },
  "LICL": {
    "AvailableFormats": "2D",
    "City": "Kolkata",
    "Latitude": "22.3431",
    "Longitude": "88.4554",
    "RegionCode": "KOLK",
    "State": "West Bengal",
    "SubRegionCode": "KOLK",
    "VenueAddress": "Baruipur - Champahati - Ghatakpukur Road, Phooltala Gate No.2, West Road South Par, Santoshpur, Baruipur - Canning Road, Kolkata, West Bengal 743387, India",
    "VenueCode": "LICL",
    "VenueName": "Lila Cinema: Baruipur"
  },
  "LKOP": {
    "AvailableFormats": "2D",
    "City": "Chennai",
    "Latitude": "12.6806",
    "Longitude": "79.9805",
    "RegionCode": "CHEN",
    "State": "Tamil Nadu",
    "SubRegionCode": "CHEN",
    "VenueAddress": "56, Alagesan Nagar, Varadharaja Nagar, Chennai, Tamil Nadu 603031, India",
    "VenueCode": "LKOP",
    "VenueName": "Lathaa Cinemas A/C Atmos 2K 3D: Chengalpattu"
  },
  "LMCI": {
    "AvailableFormats": "2D",
    "City": "Ichchapuram",
    "Latitude": "19.1297",
    "Longitude": "84.6921",
    "RegionCode": "ICPR",
    "State": "Andhra Pradesh",
    "SubRegionCode": "ICPR",
    "VenueAddress": "Amin Sahib Peta, Oppsite NECC Office, Ichchapuram, Andhra Pradesh 532312, India",
    "VenueCode": "LMCI",
    "VenueName": "L Max Cinemas AC (2K JBL Dolby Digital 7.1)"
  },
  "LPTY": {
    "AvailableFormats": "2D",
    "City": "Thalassery",
    "Latitude": "11.7463",
    "Longitude": "75.4954",
    "RegionCode": "THAY",
    "State": "Kerala",
    "SubRegionCode": "THAY",
    "VenueAddress": "AVK Nair Road, Pilakool, Thalassery, Kerala 670103, India",
    "VenueCode": "LPTY",
    "VenueName": "Liberty Paradise: Thalassery"
  },
  "LTTR": {
    "AvailableFormats": "2D",
    "City": "Tiptur",
    "Latitude": "13.254",
    "Longitude": "76.4778",
    "RegionCode": "TIPT",
    "State": "Karnataka",
    "SubRegionCode": "TIPT",
    "VenueAddress": "Keragodi Road, Chamundeshwari, Tiptur, Karnataka 572201, India",
    "VenueCode": "LTTR",
    "VenueName": "Lakshmi Talkies: Tiptur"
  },
  "LYMS": {
    "AvailableFormats": "2D",
    "City": "Mysuru (Mysore)",
    "Latitude": "12.3088",
    "Longitude": "76.6595",
    "RegionCode": "MYS",
    "State": "Karnataka",
    "SubRegionCode": "MYS",
    "VenueAddress": "Mandi Mohalla, Bangalore Nilgiri Road, Mysuru (Mysore), Karnataka 570001, India",
    "VenueCode": "LYMS",
    "VenueName": "Lido Theatre: Mysuru"
  },
  "MACD": {
    "AvailableFormats": "",
    "City": "Dehradun",
    "FirstTracked": "2026-07-14",
    "Latitude": "30.327717",
    "Longitude": "78.06602",
    "RegionCode": "DEH",
    "State": "Uttarakhand",
    "SubRegionCode": "DEH",
    "VenueAddress": "Times Square Mall, Sahastradhara Road, Near The Host Restaurant, Dehradun, Uttarakhand 248001, India",
    "VenueCode": "MACD",
    "VenueName": "Mukta A2 Cinemas: Times Square Mall, Dehradun"
  },
  "MAGH": {
    "AvailableFormats": "2D",
    "City": "Station Ghanpur",
    "Latitude": "17.8528",
    "Longitude": "79.3762",
    "RegionCode": "STGH",
    "State": "Telangana",
    "SubRegionCode": "STGH",
    "VenueAddress": "Palakurthy Road, Uppugal - Ghanpur Road, Station Ghanpur, Telangana 506144, India",
    "VenueCode": "MAGH",
    "VenueName": "Mahalaxmi Cinemas: Station Ghanpur"
  },
  "MALB": {
    "AvailableFormats": "",
    "City": "Bhopal",
    "Latitude": "23.2745",
    "Longitude": "77.3703",
    "RegionCode": "BHOP",
    "State": "Madhya Pradesh",
    "SubRegionCode": "BHOP",
    "VenueAddress": "Miraj Cinemas, 4th Floor, Alark Square, Lalghati, Bhopal, Madhya Pradesh 462030, India",
    "VenueCode": "MALB",
    "VenueName": "Miraj Cinemas: Alark Square, Bhopal"
  },
  "MATE": {
    "AvailableFormats": "2D",
    "City": "Kallakurichi",
    "Latitude": "11.735",
    "Longitude": "78.9649",
    "RegionCode": "KALL",
    "State": "Tamil Nadu",
    "SubRegionCode": "KALL",
    "VenueAddress": "17J,Chidambaram Pillai St, Raja Nagar,Kallakurichi, Near Hotel SR Park, Kallakurichi, Tamil Nadu 606202, India",
    "VenueCode": "MATE",
    "VenueName": "Mahalakshmi Cinemas Dolby Atmos 4K Barco RGB Laser"
  },
  "MAYU": {
    "AvailableFormats": "",
    "City": "Kota",
    "FirstTracked": "2026-07-14",
    "Latitude": "25.191599",
    "Longitude": "75.850395",
    "RegionCode": "KOTA",
    "State": "Rajasthan",
    "SubRegionCode": "KOTA",
    "VenueAddress": "MDR7, Chatra Vilas Garden, Nayapura Circle, Nayapura, Kota, Rajasthan 324001, India",
    "VenueCode": "MAYU",
    "VenueName": "Mayur Cinema: Kota"
  },
  "MBSX": {
    "AvailableFormats": "",
    "City": "Ahmedabad",
    "Latitude": "22.9575",
    "Longitude": "72.6555",
    "RegionCode": "AHD",
    "State": "Gujarat",
    "SubRegionCode": "AHD",
    "VenueAddress": "5th Floor, C Block Shalin Square, SP Ring Road Vinzol, Hathijan Circle, Opposite Viva Farm, Ahmedabad, Gujarat 382445, India",
    "VenueCode": "MBSX",
    "VenueName": "Miraj Cinemas: Shalin Square, Hathijan"
  },
  "MCBS": {
    "AvailableFormats": "",
    "City": "Sikar",
    "FirstTracked": "2026-07-14",
    "Latitude": "27.600943",
    "Longitude": "75.14577",
    "RegionCode": "SIKR",
    "State": "Rajasthan",
    "SubRegionCode": "SIKR",
    "VenueAddress": "Rajasthan State Highway 8A, Dhodh, Rani Sati Road, Mahaveer Rodi Factory, Sikar, Rajasthan 332001, India",
    "VenueCode": "MCBS",
    "VenueName": "Miraj Bioscope Cinemas: Sikar"
  },
  "MCDV": {
    "AvailableFormats": "2D",
    "City": "Vizag (Visakhapatnam)",
    "Latitude": "17.6853",
    "Longitude": "83.2087",
    "RegionCode": "VIZA",
    "State": "Andhra Pradesh",
    "SubRegionCode": "VIZA",
    "VenueAddress": "Indira Colony, Gajuwaka, Near Alif Family Restaurant, Vizag (Visakhapatnam), Andhra Pradesh 500026, India",
    "VenueCode": "MCDV",
    "VenueName": "Mohini Cinemas Dolby Atmos: Gajuwaka"
  },
  "MCGR": {
    "AvailableFormats": "",
    "City": "Gurdaspur",
    "FirstTracked": "2026-07-14",
    "Latitude": "32.037926",
    "Longitude": "75.4062",
    "RegionCode": "GSPR",
    "State": "Punjab",
    "SubRegionCode": "GSPR",
    "VenueAddress": "AGM Mall, Tibri Road, Hanuman Chownk, Gurdaspur, Punjab 143521, India",
    "VenueCode": "MCGR",
    "VenueName": "Miraj Cinema: Gurdaspur"
  },
  "MCIX": {
    "AvailableFormats": "",
    "City": "Greater Noida",
    "FirstTracked": "2026-07-14",
    "Latitude": "28.4574",
    "Longitude": "77.4993",
    "RegionCode": "NCR",
    "State": "NCR",
    "SubRegionCode": "GRET",
    "VenueAddress": "Plot No. C-03, 04, Knowledge Park -II, Greater Noida, Greater Noida, NCR 201310, India",
    "VenueCode": "MCIX",
    "VenueName": "Miraj Cinemas: India Expo Plaza (Newly Opened)"
  },
  "MCMC": {
    "AvailableFormats": "2D",
    "City": "Singrauli",
    "Latitude": "24.0651",
    "Longitude": "82.6302",
    "RegionCode": "SNGR",
    "State": "Madhya Pradesh",
    "SubRegionCode": "SNGR",
    "VenueAddress": "Near Masjid Square, Talkies Road, Waidhan, Singrauli, Madhya Pradesh 486886, India",
    "VenueCode": "MCMC",
    "VenueName": "MCM Cineplex: Waidhan"
  },
  "MCPB": {
    "AvailableFormats": "2D|3D",
    "City": "Behror",
    "Latitude": "27.8948",
    "Longitude": "76.2976",
    "RegionCode": "BEHR",
    "State": "Rajasthan",
    "SubRegionCode": "BEHR",
    "VenueAddress": "Parv Plaza, 5th Floor, A-15 B1, Phase 1, Riico Industrial Area, Behror, Rajasthan 301701, India",
    "VenueCode": "MCPB",
    "VenueName": "Mukta A2 Cinemas: Parv Plaza, Behror"
  },
  "MCSK": {
    "AvailableFormats": "",
    "City": "Chennai",
    "Latitude": "12.9059",
    "Longitude": "80.2092",
    "RegionCode": "CHEN",
    "State": "Tamil Nadu",
    "SubRegionCode": "CHEN",
    "VenueAddress": "Sekaran Mall, 4th and 5th Floor, Survey No.452(3), Village Perumbakkam, Taluk Sholinganallur, Kancheepuram, Chennai, Tamil Nadu 600100, India",
    "VenueCode": "MCSK",
    "VenueName": "Miraj Cinemas: Sekaran Mall, Perrumbakkam"
  },
  "MCTG": {
    "AvailableFormats": "3D|2D",
    "City": "Mumbai",
    "Latitude": "19.1655",
    "Longitude": "72.8429",
    "RegionCode": "MUMBAI",
    "State": "Maharashtra",
    "SubRegionCode": "MWEST",
    "VenueAddress": "2nd Floor, Topiwala Center, Topiwala Lane, Near Goregaon Station (West), Mumbai, Maharashtra 400062, India",
    "VenueCode": "MCTG",
    "VenueName": "Topiwala Mukta A2 Cinemas, Goregaon"
  },
  "MDCA": {
    "AvailableFormats": "",
    "City": "Anjar",
    "FirstTracked": "2026-07-14",
    "Latitude": "23.101",
    "Longitude": "70.0353",
    "RegionCode": "ANJR",
    "State": "Gujarat",
    "SubRegionCode": "ANJR",
    "VenueAddress": "Chitrakut Circle, Vaishali Enclave, Anjar, Gujarat 370110, India",
    "VenueCode": "MDCA",
    "VenueName": "Modern Cineplex: Anjar"
  },
  "MDVA": {
    "AvailableFormats": "2D|3D",
    "City": "Mumbai",
    "Latitude": "19.3605",
    "Longitude": "72.8123",
    "RegionCode": "MUMBAI",
    "State": "Maharashtra",
    "SubRegionCode": "MWEST",
    "VenueAddress": "3rd Floor Dattani Square Mall, Stella Road, Vasai Road West, Near Papdy Talao And D Mart, Mumbai, Maharashtra 401202, India",
    "VenueCode": "MDVA",
    "VenueName": "Miraj Dattani Cinemas: Vasai"
  },
  "MEMR": {
    "AvailableFormats": "2D",
    "City": "Muzaffarnagar",
    "Latitude": "29.4865",
    "Longitude": "77.6966",
    "RegionCode": "MUZ",
    "State": "Uttar Pradesh",
    "SubRegionCode": "MUZ",
    "VenueAddress": "498, Opp Saharanpur Bus Stand, GT Road, Rampuri, Roorkee Road, Near Bajaj Agency, Muzaffarnagar, Uttar Pradesh 251001, India",
    "VenueCode": "MEMR",
    "VenueName": "Maya Multiplex: Muzaffarnagar"
  },
  "MGMD": {
    "AvailableFormats": "",
    "City": "Dhuri",
    "FirstTracked": "2026-07-14",
    "Latitude": "30.364855",
    "Longitude": "75.859245",
    "RegionCode": "DHRI",
    "State": "Punjab",
    "SubRegionCode": "DHRI",
    "VenueAddress": "Sangrur Road, Ward No 15B, Near Civil Hospital, Dhuri, Punjab 148024, India",
    "VenueCode": "MGMD",
    "VenueName": "Miraj Cinemas: Dhuri"
  },
  "MIDA": {
    "AvailableFormats": "7D",
    "City": "Greater Noida",
    "Latitude": "28.4529",
    "Longitude": "77.526",
    "RegionCode": "NCR",
    "State": "NCR",
    "SubRegionCode": "GRET",
    "VenueAddress": "Grand Venice Mall, 2nd Floor, SH 3, Site IV, Greater Noida, NCR 201308, India",
    "VenueCode": "MIDA",
    "VenueName": "7D Masti: The Grand Venice Mall, Greater Noida"
  },
  "MITD": {
    "AvailableFormats": "2D|3D",
    "City": "Nathdwara",
    "Latitude": "24.9166",
    "Longitude": "73.8238",
    "RegionCode": "NATW",
    "State": "Rajasthan",
    "SubRegionCode": "NATW",
    "VenueAddress": "5th Floor, Miraj Meridian Mall, Nathuwas Road, NH 8, Near Vallabh Ashram, Nathdwara, Rajasthan 313301, India",
    "VenueCode": "MITD",
    "VenueName": "Miraj Cinemas: Nathdwara"
  },
  "MKBG": {
    "AvailableFormats": "2D",
    "City": "Bengaluru",
    "Latitude": "13.0036",
    "Longitude": "77.6362",
    "RegionCode": "HOKT",
    "State": "Karnataka",
    "SubRegionCode": "HOKT",
    "VenueAddress": "No.30, Banaswadi Main Road, Marutiseva Nagar, Bengaluru, Karnataka 560033, India",
    "VenueCode": "MKBG",
    "VenueName": "Mukunda 4K Dolby Atmos: M.S.Nagar"
  },
  "MKSM": {
    "AvailableFormats": "2D|3D",
    "City": "Rajahmundry",
    "Latitude": "16.9508",
    "Longitude": "81.7829",
    "RegionCode": "RJMU",
    "State": "Andhra Pradesh",
    "SubRegionCode": "RJMU",
    "VenueAddress": "SH 41, VGTPS Colony, Near Dowlaiswaram Bus Stand, Rajahmundry, Andhra Pradesh 533125, India",
    "VenueCode": "MKSM",
    "VenueName": "Muralikrishna Cinema A/C 4K 3D: Dowlaiswaram"
  },
  "MMAA": {
    "AvailableFormats": "2D",
    "City": "Mumbai",
    "Latitude": "19.1165",
    "Longitude": "72.8565",
    "RegionCode": "MUMBAI",
    "State": "Maharashtra",
    "SubRegionCode": "MWEST",
    "VenueAddress": "MovieMax, Andheri-Kurla Road, Andheri(E), Behind Gurunanak Petrol Pump, Mumbai, Maharashtra 400059, India",
    "VenueCode": "MMAA",
    "VenueName": "MovieMax: Andheri (E)"
  },
  "MMEF": {
    "AvailableFormats": "2D",
    "City": "Jamnagar",
    "Latitude": "22.462",
    "Longitude": "70.0369",
    "RegionCode": "JAM",
    "State": "Gujarat",
    "SubRegionCode": "JAM",
    "VenueAddress": "15, Street No.4, Shivam Park, Ajanta Society, Near - Hotel Vishal International, Jamnagar, Gujarat 361006, India",
    "VenueCode": "MMEF",
    "VenueName": "Mehul Cinemax: Jamnagar"
  },
  "MMMD": {
    "AvailableFormats": "2D",
    "City": "Etawah",
    "Latitude": "26.7847",
    "Longitude": "79.0212",
    "RegionCode": "ETWH",
    "State": "Uttar Pradesh",
    "SubRegionCode": "ETWH",
    "VenueAddress": "Baba The Mall, Shastri Chauraha, Chogurjee Nagar, Near Hydel Colony, Etawah, Uttar Pradesh 206001, India",
    "VenueCode": "MMMD",
    "VenueName": "Mad Moviez: Etawah"
  },
  "MMSG": {
    "AvailableFormats": "3D|2D",
    "City": "Lucknow",
    "Latitude": "26.8194",
    "Longitude": "80.9072",
    "RegionCode": "LUCK",
    "State": "Uttar Pradesh",
    "SubRegionCode": "LUCK",
    "VenueAddress": "Shalimar Gateway Mall, Bus Stand, Alambagh, Near Alambagh, Railway Colony, Lucknow, Uttar Pradesh 226005, India",
    "VenueCode": "MMSG",
    "VenueName": "MovieMax: Shalimar Gateway"
  },
  "MMXA": {
    "AvailableFormats": "3D|2D",
    "City": "Pune",
    "Latitude": "18.5189",
    "Longitude": "73.9357",
    "RegionCode": "PUNE",
    "State": "Maharashtra",
    "SubRegionCode": "PUNE",
    "VenueAddress": "MovieMax, Amanora Town Centre, Amanora Park Town, Hadapsar, Pune, Maharashtra 411028, India",
    "VenueCode": "MMXA",
    "VenueName": "MovieMax Edition (Luxe): Amanora Town Center, Pune"
  },
  "MNJL": {
    "AvailableFormats": "",
    "City": "Ludhiana",
    "FirstTracked": "2026-07-14",
    "Latitude": "30.8963",
    "Longitude": "75.8665",
    "RegionCode": "LUDH",
    "State": "Punjab",
    "SubRegionCode": "LUDH",
    "VenueAddress": "Dholewal Chowk, G.T. Road, Ludhiana, Punjab 141001, India",
    "VenueCode": "MNJL",
    "VenueName": "Manju Theatre: Ludhiana"
  },
  "MPCH": {
    "AvailableFormats": "2D",
    "City": "Ahmedabad",
    "Latitude": "23.0638",
    "Longitude": "72.6775",
    "RegionCode": "AHD",
    "State": "Gujarat",
    "SubRegionCode": "AHD",
    "VenueAddress": "5th and 6th Floor, Fortune Sky, Fortune Circle, Nikol, Near - Goverdhan Galaxy Bungalows, Ahmedabad, Gujarat 382350, India",
    "VenueCode": "MPCH",
    "VenueName": "Mango Plus Cinemas: Nikol"
  },
  "MRCH": {
    "AvailableFormats": "2D",
    "City": "Haridwar",
    "Latitude": "29.9188",
    "Longitude": "78.0578",
    "RegionCode": "HRDR",
    "State": "Uttarakhand",
    "SubRegionCode": "HRDR",
    "VenueAddress": "3rd Floor, Raghunath City Mall, Bahadrabad, Haridwar, Uttarakhand 249402, India",
    "VenueCode": "MRCH",
    "VenueName": "Movietime Cinemas: Raghunath City Mall, Haridwar"
  },
  "MRRC": {
    "AvailableFormats": "",
    "City": "Raichur",
    "FirstTracked": "2026-07-14",
    "Latitude": "16.211191",
    "Longitude": "77.35692",
    "RegionCode": "RAUR",
    "State": "Karnataka",
    "SubRegionCode": "RAUR",
    "VenueAddress": "Miraj Cinemas, MPL No. 12-104 and 12-10-5, Situated at Siya Talab, Gunj Road, Raichur, Karnataka 584102, India",
    "VenueCode": "MRRC",
    "VenueName": "Miraj Cinemas: Raichur"
  },
  "MSCJ": {
    "AvailableFormats": "2D",
    "City": "Jajpur Town (Odisha)",
    "Latitude": "20.853",
    "Longitude": "86.3293",
    "RegionCode": "JTTT",
    "State": "Odisha",
    "SubRegionCode": "JTTT",
    "VenueAddress": "Gandhi chhak, Sanskruti Bhawan, Jajpur Town (Odisha), Odisha 755001, India",
    "VenueCode": "MSCJ",
    "VenueName": "Mission Shakti Cinemas: Jajpur Town"
  },
  "MSNL": {
    "AvailableFormats": "2D",
    "City": "Lucknow",
    "Latitude": "26.8819",
    "Longitude": "80.9466",
    "RegionCode": "LUCK",
    "State": "Uttar Pradesh",
    "SubRegionCode": "LUCK",
    "VenueAddress": "Kapoorthalla Commercial Complex, 4, Aliganj, Behind Sahara Towers, Lucknow, Uttar Pradesh 226020, India",
    "VenueCode": "MSNL",
    "VenueName": "Novelty Dolby Atmos 4K: Aliganj"
  },
  "MTCA": {
    "AvailableFormats": "2D|3D",
    "City": "Amritsar",
    "Latitude": "31.6444",
    "Longitude": "74.8771",
    "RegionCode": "AMRI",
    "State": "Punjab",
    "SubRegionCode": "AMRI",
    "VenueAddress": "4th Floor, Omaxe Novelty Mall, 7, Lawrence Road, Joshi Colony, Amritsar, Punjab 143001, India",
    "VenueCode": "MTCA",
    "VenueName": "Movietime Cinemas: Omaxe Novelty Mall, Amritsar"
  },
  "MTHY": {
    "AvailableFormats": "2D",
    "City": "Hyderabad",
    "Latitude": "17.452",
    "Longitude": "78.3628",
    "RegionCode": "HYD",
    "State": "Telangana",
    "SubRegionCode": "HYD",
    "VenueAddress": "3rd Floor, SLN Terminus, Gachibowli - Miyapur Road, Jayabheri Enclave, Hyderabad, Telangana 500032, India",
    "VenueCode": "MTHY",
    "VenueName": "Platinum Movietime Cinema: Gachibowli SLN Terminus"
  },
  "MTMT": {
    "AvailableFormats": "",
    "City": "Madurai",
    "FirstTracked": "2026-07-14",
    "Latitude": "10.0232",
    "Longitude": "77.9631",
    "RegionCode": "MADU",
    "State": "Tamil Nadu",
    "SubRegionCode": "MADU",
    "VenueAddress": "Sangankottai Road, Sholavandan, Near Railway Junction, Madurai, Tamil Nadu 625214, India",
    "VenueCode": "MTMT",
    "VenueName": "MVM MARUDHU MODERN THEATER A/C 2K 3D"
  },
  "MTVT": {
    "AvailableFormats": "2D",
    "City": "Theni",
    "Latitude": "10.0014",
    "Longitude": "77.6283",
    "RegionCode": "THEN",
    "State": "Tamil Nadu",
    "SubRegionCode": "THEN",
    "VenueAddress": "Theni Highway, Kondamanaickanpatty, Theni, Tamil Nadu 624225, India",
    "VenueCode": "MTVT",
    "VenueName": "MSP Theatre(VBL Theatre) A/C 7.1: Andipatti"
  },
  "MUTA": {
    "AvailableFormats": "2D",
    "City": "Azamgarh",
    "Latitude": "26.0749",
    "Longitude": "83.1866",
    "RegionCode": "AZMG",
    "State": "Uttar Pradesh",
    "SubRegionCode": "AZMG",
    "VenueAddress": "City Life Mall, Paharpur, Azamgarh Dohrighat Gorakhpur Road, Near Bhairo Baba Mandir Maharajgang, Azamgarh, Uttar Pradesh 276001, India",
    "VenueCode": "MUTA",
    "VenueName": "Murli DD Cinemas: Azmagarh"
  },
  "MXBN": {
    "AvailableFormats": "2D|3D",
    "City": "Bhavnagar",
    "Latitude": "21.7509",
    "Longitude": "72.1364",
    "RegionCode": "BHNG",
    "State": "Gujarat",
    "SubRegionCode": "BHNG",
    "VenueAddress": "Himalaya Mall, Waghawadi Rd, Nr ISKCON Mega City, Opp Victoria Park, Bhavnagar, Gujarat 364002, India",
    "VenueCode": "MXBN",
    "VenueName": "Maxus Cinemas: Bhavnagar"
  },
  "MYAN": {
    "AvailableFormats": "2D|3D",
    "City": "Ahilyanagar (Ahmednagar)",
    "Latitude": "19.1313",
    "Longitude": "74.7301",
    "RegionCode": "AHMED",
    "State": "Maharashtra",
    "SubRegionCode": "AHMED",
    "VenueAddress": "Pipeline Road, Savedi, Ahilyanagar (Ahmednagar), Maharashtra 414003, India",
    "VenueCode": "MYAN",
    "VenueName": "MY Cinema: Ahilya Nagar"
  },
  "MYHJ": {
    "AvailableFormats": "2D",
    "City": "Karunagapally",
    "Latitude": "9.04943",
    "Longitude": "76.5355",
    "RegionCode": "KARG",
    "State": "Kerala",
    "SubRegionCode": "KARG",
    "VenueAddress": "Level 3, H and J Complex Mall, Lalaji Junction, Kollam, Near Municipal Office, Karunagapally, Kerala 690518, India",
    "VenueCode": "MYHJ",
    "VenueName": "MY Cinemas, H&J Complex: Karunagapally"
  },
  "NAGJ": {
    "AvailableFormats": "2D",
    "City": "jaggampeta",
    "Latitude": "17.1755",
    "Longitude": "82.062",
    "RegionCode": "JAGG",
    "State": "Andhra Pradesh",
    "SubRegionCode": "JAGG",
    "VenueAddress": "East Godavari, Near SBI Atm, jaggampeta, Andhra Pradesh 533435, India",
    "VenueCode": "NAGJ",
    "VenueName": "Nageshwara A/c Dts: Jaggampeta"
  },
  "NCCK": {
    "AvailableFormats": "2D",
    "City": "Naharlagun",
    "Latitude": "27.1088",
    "Longitude": "93.696",
    "RegionCode": "NAHA",
    "State": "Arunachal Pradesh",
    "SubRegionCode": "NAHA",
    "VenueAddress": "NH 52A, Cona, Opposite Moody Monk, Naharlagun, Arunachal Pradesh 791110, India",
    "VenueCode": "NCCK",
    "VenueName": "A National Cinema: Market Area, Naharlagun"
  },
  "NCMB": {
    "AvailableFormats": "2D",
    "City": "Buchireddypalem",
    "Latitude": "14.5346",
    "Longitude": "79.8791",
    "RegionCode": "BCHR",
    "State": "Andhra Pradesh",
    "SubRegionCode": "BCHR",
    "VenueAddress": "Nellore Road, Nagamambapuram, Buchireddypalem, Andhra Pradesh 524305, India",
    "VenueCode": "NCMB",
    "VenueName": "Naaz Cinemas: Buchireddypalem"
  },
  "NECA": {
    "AvailableFormats": "2D",
    "City": "Kolkata",
    "Latitude": "22.5605",
    "Longitude": "88.3515",
    "RegionCode": "KOLK",
    "State": "West Bengal",
    "SubRegionCode": "KOLK",
    "VenueAddress": "1 and 2, Humayun Place, New Market Area, Dharmatala, Taltala, Kolkata, West Bengal 700087, India",
    "VenueCode": "NECA",
    "VenueName": "New Empire Cinema: Kolkata"
  },
  "NGHK": {
    "AvailableFormats": "",
    "City": "Kesinga",
    "FirstTracked": "2026-07-14",
    "Latitude": "20.19338",
    "Longitude": "83.22572",
    "RegionCode": "KEGA",
    "State": "Odisha",
    "SubRegionCode": "KEGA",
    "VenueAddress": "National Highway 201, Near Balangir Chowk, Kesinga, Odisha 766012, India",
    "VenueCode": "NGHK",
    "VenueName": "New Galaxy Theater: Kesinga"
  },
  "NLJR": {
    "AvailableFormats": "2D",
    "City": "Nallajerla",
    "Latitude": "16.9555",
    "Longitude": "81.4172",
    "RegionCode": "TADP",
    "State": "Andhra Pradesh",
    "SubRegionCode": "TADP",
    "VenueAddress": "Rajahmundry - Bhadrachalam Highway, Opp to Buchalupond, Nallajerla, Andhra Pradesh 534111, India",
    "VenueCode": "NLJR",
    "VenueName": "Sri Lakshmi Multiplex (Nova Cinemaz): Nallajerla"
  },
  "NMXS": {
    "AvailableFormats": "2D",
    "City": "Silvassa",
    "Latitude": "20.2751",
    "Longitude": "73.0098",
    "RegionCode": "SILV",
    "State": "Gujarat",
    "SubRegionCode": "SILV",
    "VenueAddress": "Plot No. 2, Sr. No. 876/1/1/3, Bavisa Falia, Near Shree Sai Mobile Shop, Silvassa, Gujarat 396230, India",
    "VenueCode": "NMXS",
    "VenueName": "New Max Cinema: Silvassa"
  },