{
  "AACM": {
    "AvailableFormats": "2D",
    "City": "Raniganj",
    "Latitude": "23.6272",
    "Longitude": "87.1138",
    "RegionCode": "RNGJ",
    "State": "West Bengal",
    "SubRegionCode": "RNGJ",
    "VenueAddress": "N S B Road, P/O Raniganj, Raniganj, West Bengal 713347, India",
    "VenueCode": "AACM",
    "VenueName": "Anjana Chitra Mandir: Raniganj"
  },
  "AAPW": {
    "AvailableFormats": "2D",
    "City": "Warangal",
    "Latitude": "18.0077",
    "Longitude": "79.567",
    "RegionCode": "WAR",
    "State": "Telangana",
    "SubRegionCode": "WAR",
    "VenueAddress": "Ashoka A plex, Beside Warangal Hyderabad Highway, Near Govt Juniour College, Warangal, Telangana 506001, India",
    "VenueCode": "AAPW",
    "VenueName": "Asian Ashoka Air-Conditioned: Hanumakonda"
  },
  "ABCR": {
    "AvailableFormats": "",
    "City": "Vijayawada",
    "Latitude": "16.4859",
    "Longitude": "80.6828",
    "RegionCode": "VIJA",
    "State": "Andhra Pradesh",
    "SubRegionCode": "VIJA",
    "VenueAddress": "Elevate Mall, Pune-Machilipatnam Highway, Kanuru, Vijayawada, Andhra Pradesh 520007, India",
    "VenueCode": "ABCR",
    "VenueName": "ABR Cinemas Neo Screen X:  Kanuru, Vijayawada"
  },
  "ABTK": {
    "AvailableFormats": "",
    "City": "Kottayam",
    "Latitude": "9.58599",
    "Longitude": "76.5244",
    "RegionCode": "ETTU",
    "State": "Kerala",
    "SubRegionCode": "ETTU",
    "VenueAddress": "M.C Road, Opp Kalyan Jewellery, Near Asha Theatre, Kottayam, Kerala 686001, India",
    "VenueCode": "ABTK",
    "VenueName": "Abhilash Theatre 4K RGB Laser 3D: Kottayam"
  },
  "ACCD": {
    "AvailableFormats": "2D",
    "City": "Deoria",
    "Latitude": "26.2107",
    "Longitude": "83.9653",
    "RegionCode": "DEEO",
    "State": "Uttar Pradesh",
    "SubRegionCode": "DEEO",
    "VenueAddress": "Mod, Beside Union Bank Of India, Lakhu, Lar, Deoria, Uttar Pradesh 274502, India",
    "VenueCode": "ACCD",
    "VenueName": "Aura Cineplex: Lar, Deoria"
  },
  "ACHV": {
    "AvailableFormats": "2D",
    "City": "Vijayawada",
    "Latitude": "16.5133",
    "Longitude": "80.6259",
    "RegionCode": "VIJA",
    "State": "Andhra Pradesh",
    "SubRegionCode": "VIJA",
    "VenueAddress": "Governor Peta, Eluru Road, Opposite Swarna Mutiplex, Vijayawada, Andhra Pradesh 520002, India",
    "VenueCode": "ACHV",
    "VenueName": "Apsara Cinema House: Vijayawada"
  },
  "ACMG": {
    "AvailableFormats": "2D",
    "City": "Maharajganj",
    "Latitude": "27.1334",
    "Longitude": "83.5203",
    "RegionCode": "RAJG",
    "State": "Uttar Pradesh",
    "SubRegionCode": "RAJG",
    "VenueAddress": "Plot No 188, Mahuawa, NPP Maharajganj, Maharajganj, Uttar Pradesh 273303, India",
    "VenueCode": "ACMG",
    "VenueName": "Anant Cineplex: Maharajganj"
  },
  "ACPM": {
    "AvailableFormats": "2D",
    "City": "Hyderabad",
    "Latitude": "17.4676",
    "Longitude": "78.4282",
    "RegionCode": "HYD",
    "State": "Telangana",
    "SubRegionCode": "HYD",
    "VenueAddress": "Street Number 4, SP Nagar, Bharat Nagar,Moosapet, Opposite Sri Ramulu Theatre, Hyderabad, Telangana 500018, India",
    "VenueCode": "ACPM",
    "VenueName": "Asian Lakshmikala Cinepride: Moosapet"
  },
  "ACTZ": {
    "AvailableFormats": "2D",
    "City": "Tezpur",
    "Latitude": "26.6223",
    "Longitude": "92.7964",
    "RegionCode": "TEZP",
    "State": "Assam",
    "SubRegionCode": "TEZP",
    "VenueAddress": "Mahatma Gandhi Road, Near Annapurna Hotel, Tezpur, Assam 784001, India",
    "VenueCode": "ACTZ",
    "VenueName": "Anwar VRS Cinema: Tezpur"
  },
  "ADCU": {
    "AvailableFormats": "2D",
    "City": "Ujhani",
    "Latitude": "28.0031",
    "Longitude": "79.0155",
    "RegionCode": "UJHA",
    "State": "Uttar Pradesh",
    "SubRegionCode": "UJHA",
    "VenueAddress": "Mohalla Gaddi Tola Budaun Road, Near Krishna Colony, Ujhani, Uttar Pradesh 243639, India",
    "VenueCode": "ADCU",
    "VenueName": "ADS Cineplex: Ujhani"
  },
  "AGCD": {
    "AvailableFormats": "2D",
    "City": "Dindigul",
    "Latitude": "10.3655",
    "Longitude": "77.9815",
    "RegionCode": "DIND",
    "State": "Tamil Nadu",
    "SubRegionCode": "DIND",
    "VenueAddress": "15 A, Aarthi Theatre Road, Dindigul, Tamil Nadu 624001, India",
    "VenueCode": "AGCD",
    "VenueName": "Aarthi Grand Cineplex: Dindigul"
  },
  "AKCC": {
    "AvailableFormats": "2D",
    "City": "Cherupuzha",
    "Latitude": "12.27429",
    "Longitude": "75.36086",
    "RegionCode": "CRUZ",
    "State": "Kerala",
    "SubRegionCode": "CRUZ",
    "VenueAddress": "Cherupuzha Road, ., Cherupuzha, Kerala 670511, India",
    "VenueCode": "AKCC",
    "VenueName": "Ak CinePalace by Sj: 4K Dolby Atmos"
  },
  "AKTG": {
    "AvailableFormats": "2D",
    "City": "Gadarwara",
    "Latitude": "22.9202",
    "Longitude": "78.7821",
    "RegionCode": "GDWR",
    "State": "Madhya Pradesh",
    "SubRegionCode": "GDWR",
    "VenueAddress": "Alka Talkies Road, Vijay Colony, Bhabha Ward, Gadarwara, Madhya Pradesh 487551, India",
    "VenueCode": "AKTG",
    "VenueName": "Alka Talkies: Gadarwara"
  },
  "ALSN": {
    "AvailableFormats": "2D|3D",
    "City": "Kantabanji",
    "Latitude": "20.5061",
    "Longitude": "82.9221",
    "RegionCode": "KTBJ",
    "State": "Odisha",
    "SubRegionCode": "KTBJ",
    "VenueAddress": "Lathkend, PO - Salandi, PS - Belpada, Kantabanji, Odisha 767026, India",
    "VenueCode": "ALSN",
    "VenueName": "Alishan Central: Kantabanji"
  },
  "AMDE": {
    "AvailableFormats": "2D",
    "City": "Thiruthuraipoondi",
    "Latitude": "10.5366",
    "Longitude": "79.6368",
    "RegionCode": "THND",
    "State": "Tamil Nadu",
    "SubRegionCode": "THND",
    "VenueAddress": "SH 63,Railway Station Rd, Thiruthuraipoondi, Near Seematti Readymade Silks, Thiruthuraipoondi, Tamil Nadu 614713, India",
    "VenueCode": "AMDE",
    "VenueName": "AM Deluxe Theatre A/C: Thiruthuraipoondi"
  },
  "AMNG": {
    "AvailableFormats": "3D|2D",
    "City": "Nagpur",
    "Latitude": "21.086",
    "Longitude": "79.0911",
    "RegionCode": "NAGP",
    "State": "Maharashtra",
    "SubRegionCode": "NAGP",
    "VenueAddress": "2nd Floor, Jayanti Nagri 5 Mall, Besa Road, Above Haldirams, Nagpur, Maharashtra 440027, India",
    "VenueCode": "AMNG",
    "VenueName": "AM Cinema: Manish Nagar, Nagpur"
  },
  "AMZB": {
    "AvailableFormats": "2D",
    "City": "Zaheerabad",
    "Latitude": "17.6803",
    "Longitude": "77.6154",
    "RegionCode": "ZAGE",
    "State": "Telangana",
    "SubRegionCode": "ZAGE",
    "VenueAddress": "Main Road, Opposite to Bus Stand, Zaheerabad, Telangana 502220, India",
    "VenueCode": "AMZB",
    "VenueName": "Asian Sri Mohan: Zaheerabad"
  },
  "ANLS": {
    "AvailableFormats": "2D|3D",
    "City": "Shillong",
    "Latitude": "25.5738",
    "Longitude": "91.877",
    "RegionCode": "SHLG",
    "State": "Meghalaya",
    "SubRegionCode": "SHLG",
    "VenueAddress": "Anjalee Complex, 25 Cantonment, Shillong, Meghalaya 793001, India",
    "VenueCode": "ANLS",
    "VenueName": "Anjalee Cinema: Shillong"
  },
  "ANTM": {
    "AvailableFormats": "2D",
    "City": "Mangalagiri",
    "Latitude": "16.4263",
    "Longitude": "80.5671",
    "RegionCode": "MGLR",
    "State": "Andhra Pradesh",
    "SubRegionCode": "MGLR",
    "VenueAddress": "Trunk Road, Near - St.Francis English Medium School., Mangalagiri, Andhra Pradesh 522503, India",
    "VenueCode": "ANTM",
    "VenueName": "Annapurna Theater A/C Dts 2K: Mangalagiri"
  },
  "APCO": {
    "AvailableFormats": "2D",
    "City": "Orai",
    "Latitude": "25.9978",
    "Longitude": "79.4623",
    "RegionCode": "ORAI",
    "State": "Uttar Pradesh",
    "SubRegionCode": "ORAI",
    "VenueAddress": "NH 25, New Patel Nagar, Near Busy Beans Cafe, Orai, Uttar Pradesh 285001, India",
    "VenueCode": "APCO",
    "VenueName": "Archana Palace Cinemall: Orai"
  },
  "APRC": {
    "AvailableFormats": "2D|3D",
    "City": "Gaya",
    "Latitude": "24.7915",
    "Longitude": "84.9997",
    "RegionCode": "GAYA",
    "State": "Bihar",
    "SubRegionCode": "GAYA",
    "VenueAddress": "APR City Centre Mall, Rai Kasinath More, Near Gandhi Maidan, Gaya, Bihar 823001, India",
    "VenueCode": "APRC",
    "VenueName": "APR Cinemas (Dolby Atmos, Christie Laser): Gaya"
  },
  "ARAN": {
    "AvailableFormats": "2D",
    "City": "Mundra",
    "Latitude": "22.839",
    "Longitude": "69.7051",
    "RegionCode": "MUDA",
    "State": "Gujarat",
    "SubRegionCode": "MUDA",
    "VenueAddress": "1St Floor, P.No.4/2562, Om Orbit Shopping Mall, Vill.Nana Kapaya, Tal.Mundra, Kutch, Mundra, Gujarat 370421, India",
    "VenueCode": "ARAN",
    "VenueName": "Aradhaya Nova Cinemaz: Mundra"
  },
  "ARMH": {
    "AvailableFormats": "2D",
    "City": "Hyderabad",
    "Latitude": "17.4767",
    "Longitude": "78.5632",
    "RegionCode": "HYD",
    "State": "Telangana",
    "SubRegionCode": "HYD",
    "VenueAddress": "Anupuram Colony, Dr A S Rao Nagar Road, ECIL Main Road, Near Parivaar Banquet Halls, Hyderabad, Telangana 500062, India",
    "VenueCode": "ARMH",
    "VenueName": "Asian Radhika Multiplex: ECIL"
  },
  "ASBL": {
    "AvailableFormats": "2D",
    "City": "Siddipet",
    "Latitude": "18.1039",
    "Longitude": "78.8569",
    "RegionCode": "SDDP",
    "State": "Telangana",
    "SubRegionCode": "SDDP",
    "VenueAddress": "Srinivas Nagar, Siddipet - Karimnagar Road, Siddipet, Telangana 502103, India",
    "VenueCode": "ASBL",
    "VenueName": "Asian Balaji 70MM A/C: Siddipet"
  },
  "ASHO": {
    "AvailableFormats": "2D",
    "City": "Kalwakurthy",
    "Latitude": "16.6669",
    "Longitude": "78.4934",
    "RegionCode": "ACHM",
    "State": "Telangana",
    "SubRegionCode": "ACHM",
    "VenueAddress": "Kalwakurthy Road, Vidya Nagar, Gandhi Nagar, Near Sri Amma Hospital, Kalwakurthy, Telangana 509324, India",
    "VenueCode": "ASHO",
    "VenueName": "Ashoka Cinema: Kalwakurthy"
  },
  "ASMW": {
    "AvailableFormats": "2D",
    "City": "Warangal",
    "Latitude": "18.0046",
    "Longitude": "79.5629",
    "RegionCode": "WAR",
    "State": "Telangana",
    "SubRegionCode": "WAR",
    "VenueAddress": "Asian Sridevi Mall, Bus Stand Road, Sai Nagar, Hanmakonda, Warangal, Telangana 506001, India",
    "VenueCode": "ASMW",
    "VenueName": "Asian Sridevi Multiplex: Hanumakonda"
  },
  "ASSR": {
    "AvailableFormats": "2D",
    "City": "Siddipet",
    "Latitude": "18.0987",
    "Longitude": "78.8522",
    "RegionCode": "SDDP",
    "State": "Telangana",
    "SubRegionCode": "SDDP",
    "VenueAddress": "Aphb Colony, Shivaji Nagar, Hyderabad Road, Siddipet, Telangana 502103, India",
    "VenueCode": "ASSR",
    "VenueName": "Asian Srinivasa Deluxe: Siddipet"
  },
  "ATAG": {
    "AvailableFormats": "2D",
    "City": "Angul",
    "Latitude": "20.8411",
    "Longitude": "85.2256",
    "RegionCode": "ANGL",
    "State": "Odisha",
    "SubRegionCode": "ANGL",
    "VenueAddress": "Nuahata, Banarpal, Near Tata Steel, Near SBI ATM, Angul, Odisha 759128, India",
    "VenueCode": "ATAG",
    "VenueName": "Asha Cine Palace: Banarpal"
  },
  "ATJL": {
    "AvailableFormats": "2D",
    "City": "Jagdalpur",
    "Latitude": "19.0867",
    "Longitude": "82.0165",
    "RegionCode": "JAGD",
    "State": "Chhattisgarh",
    "SubRegionCode": "JAGD",
    "VenueAddress": "Anupama Chowk, Chitrakote Road, Jaiswal Colony, Jagdalpur, Chhattisgarh 494001, India",
    "VenueCode": "ATJL",
    "VenueName": "Anupama Theatre: Jagdalpur"
  },
  "ATUN": {
    "AvailableFormats": "2D",
    "City": "Khachrod",
    "Latitude": "23.4255",
    "Longitude": "75.2856",
    "RegionCode": "KHCU",
    "State": "Madhya Pradesh",
    "SubRegionCode": "KHCU",
    "VenueAddress": "36, Ujjain Gate, Near Gopal Mandir, Khachrod, Madhya Pradesh 456224, India",
    "VenueCode": "ATUN",
    "VenueName": "Ashok Cineplex: Khachrod"
  },
  "AVDM": {
    "AvailableFormats": "2D",
    "City": "Mahbubnagar",
    "Latitude": "16.7451",
    "Longitude": "77.9918",
    "RegionCode": "JADC",
    "State": "Telangana",
    "SubRegionCode": "JADC",
    "VenueAddress": "Shah Saheb Gutta, Boyapalle Rural, Near Sri Hanuman Temple, Mahbubnagar, Telangana 509001, India",
    "VenueCode": "AVDM",
    "VenueName": "AVD Cinemas: Mahbubnagar"
  },
  "AXMP": {
    "AvailableFormats": "2D",
    "City": "Pattambi",
    "Latitude": "10.8064",
    "Longitude": "76.1899",
    "RegionCode": "PTMB",
    "State": "Kerala",
    "SubRegionCode": "PTMB",
    "VenueAddress": "Alex Theatre, Kaithali Temple Road, Near ICICI Bank Pattambi, Pattambi, Kerala 679303, India",
    "VenueCode": "AXMP",
    "VenueName": "Alex Movies: Christe Rbe Laser Pattambi"
  },
  "BAKM": {
    "AvailableFormats": "2D",
    "City": "Mulugu",
    "Latitude": "18.1934",
    "Longitude": "79.9478",
    "RegionCode": "KMLA",
    "State": "Telangana",
    "SubRegionCode": "KMLA",
    "VenueAddress": "Theatre Road, Ambedkar Colony, Near Borra Honda, Mulugu, Telangana 506343, India",
    "VenueCode": "BAKM",
    "VenueName": "Balaji Air Conditioned: Mulugu"
  },
  "BBPC": {
    "AvailableFormats": "2D",
    "City": "Pusad",
    "Latitude": "19.9081",
    "Longitude": "77.5721",
    "RegionCode": "PUSD",
    "State": "Maharashtra",
    "SubRegionCode": "PUSD",
    "VenueAddress": "27, Pusad Road, Near Pusad Court, Near State Bank Of India, Pusad, Maharashtra 445204, India",
    "VenueCode": "BBPC",
    "VenueName": "Barkha Cinema: Pusad"
  },
  "BCKU": {
    "AvailableFormats": "2D|3D",
    "City": "Kundapura",
    "Latitude": "13.5862",
    "Longitude": "74.6984",
    "RegionCode": "KUNA",
    "State": "Karnataka",
    "SubRegionCode": "KUNA",
    "VenueAddress": "2nd Floor, Costal Crown, NH 66, Koteshwara, Kundapura, Karnataka 576222, India",
    "VenueCode": "BCKU",
    "VenueName": "Bharath Cinemas: Kundapura"
  },
  "BHAC": {
    "AvailableFormats": "2D",
    "City": "Bengaluru",
    "Latitude": "13.0415",
    "Longitude": "77.5175",
    "RegionCode": "HOKT",
    "State": "Karnataka",
    "SubRegionCode": "HOKT",
    "VenueAddress": "Prashanth Nagar, T. Dasarahalli, Dasara Halli Cross, Next To Rockline Mall, Bengaluru, Karnataka 560057, India",
    "VenueCode": "BHAC",
    "VenueName": "Bharathi Theatre (Peenya) A/C 4K 7.1 Dolby Digital"
  },
  "BIKB": {
    "AvailableFormats": "2D|3D",
    "City": "Belagavi (Belgaum)",
    "Latitude": "15.8588",
    "Longitude": "74.5083",
    "RegionCode": "BELG",
    "State": "Karnataka",
    "SubRegionCode": "BELG",
    "VenueAddress": "Nucleus Mall, Old Kapeel Theatre, Ramling Khind Galli, Belagavi (Belgaum), Karnataka 590002, India",
    "VenueCode": "BIKB",
    "VenueName": "Kapeel Cinema Nucleus Mall"
  },
  "BLBR": {
    "AvailableFormats": "2D",
    "City": "Burhar",
    "Latitude": "23.202",
    "Longitude": "81.535",
    "RegionCode": "BRHR",
    "State": "Madhya Pradesh",
    "SubRegionCode": "BRHR",
    "VenueAddress": "Shree Shraja Mall, Shree Shraja Mall, Burhar, Madhya Pradesh 484110, India",
    "VenueCode": "BLBR",
    "VenueName": "Bliss Multiplex: Burhar"
  },
  "BMRV": {
    "AvailableFormats": "2D",
    "City": "Veeraghattam",
    "Latitude": "18.6896",
    "Longitude": "83.6086",
    "RegionCode": "VEER",
    "State": "Andhra Pradesh",
    "SubRegionCode": "VEER",
    "VenueAddress": "Jiyyammavalasa Road, Down street, Veeraghattam, Andhra Pradesh 532460, India",
    "VenueCode": "BMRV",
    "VenueName": "BMR CINEMAX: Veeraghattam"
  },
  "BRTP": {
    "AvailableFormats": "2D",
    "City": "Palasa",
    "Latitude": "18.7661",
    "Longitude": "84.4217",
    "RegionCode": "PALS",
    "State": "Andhra Pradesh",
    "SubRegionCode": "PALS",
    "VenueAddress": "Shivaji Nagar, Kasibugga, Near Mandala Parishat Office, Palasa, Andhra Pradesh 532222, India",
    "VenueCode": "BRTP",
    "VenueName": "Bhaskara Rama A/C Dts: Palasa"
  },
  "BSSO": {
    "AvailableFormats": "2D",
    "City": "Ahmedabad",
    "Latitude": "23.0415",
    "Longitude": "72.4983",
    "RegionCode": "AHD",
    "State": "Gujarat",
    "SubRegionCode": "AHD",
    "VenueAddress": "312-314-315, Times Square Grand, Sindhu Bhavan Marg, Thaltej, Ahmedabad, Gujarat 380059, India",
    "VenueCode": "BSSO",
    "VenueName": "Sanelite Cinemas (Banana Smartplex): SBR, Thaltej"
  },
  "BTMV": {
    "AvailableFormats": "2D",
    "City": "Vadodara",
    "Latitude": "22.267",
    "Longitude": "73.2227",
    "RegionCode": "VAD",
    "State": "Gujarat",
    "SubRegionCode": "VAD",
    "VenueAddress": "Amar Shraddha Society, Danteshwar, Tarsali, Vadodara, Gujarat 390004, India",
    "VenueCode": "BTMV",
    "VenueName": "Bansal Movieplex: Tarsali, Vadodara"
  },
  "CAGL": {
    "AvailableFormats": "3D|2D",
    "City": "Navi Mumbai",
    "Latitude": "19.1203",
    "Longitude": "73.0071",
    "RegionCode": "MUMBAI",
    "State": "Maharashtra",
    "SubRegionCode": "THAN",
    "VenueAddress": "Cinepolis India Pvt Ltd  Aurum Square, Aurum Q Parc, Ghansoli, Navi Mumbai, Maharashtra 400701, India",
    "VenueCode": "CAGL",
    "VenueName": "Cinepolis: Aurum, Ghansoli, Navi Mumbai"
  },
  "CBZZ": {
    "AvailableFormats": "2D",
    "City": "Jalpaiguri",
    "Latitude": "26.5285",
    "Longitude": "88.7193",
    "RegionCode": "JPG",
    "State": "West Bengal",
    "SubRegionCode": "JPG",
    "VenueAddress": "3rd Floor, Palm Plaza, Ukil Para, Silpasamiti Para, Opposite Union Bank, Jalpaiguri, West Bengal 735101, India",
    "VenueCode": "CBZZ",
    "VenueName": "Cinebazz: Jalpaiguri"
  },
  "CCEJ": {
    "AvailableFormats": "2D",
    "City": "Jharsuguda",
    "Latitude": "21.8501",
    "Longitude": "84.0135",
    "RegionCode": "JRSG",
    "State": "Odisha",
    "SubRegionCode": "JRSG",
    "VenueAddress": "MS Khata No 635, Sarbahal Road, Jharsuguda, Odisha 768201, India",
    "VenueCode": "CCEJ",
    "VenueName": "Chhotu Maharaj CineCafe: Jharsuguda"
  },
  "CCKW": {
    "AvailableFormats": "2D",
    "City": "Singrauli",
    "Latitude": "24.0772",
    "Longitude": "82.5888",
    "RegionCode": "SNGR",
    "State": "Madhya Pradesh",
    "SubRegionCode": "SNGR",
    "VenueAddress": "Carnival Jalsa Talkies, Village Kachni, Ward No. 28, Waidhan, Near Chauhan Sheetgrih, Singrauli, Madhya Pradesh 486886, India",
    "VenueCode": "CCKW",
    "VenueName": "My Cinemas: Singrauli"
  },
  "CCPC": {
    "AvailableFormats": "2D",
    "City": "Raisinghnagar",
    "Latitude": "29.5374",
    "Longitude": "73.4503",
    "RegionCode": "RSNG",
    "State": "Rajasthan",
    "SubRegionCode": "RSNG",
    "VenueAddress": "22 PS Road, Near - Raisingnagar railway station, Raisinghnagar, Rajasthan 335051, India",
    "VenueCode": "CCPC",
    "VenueName": "Cosmo Palace Cinema: Raisinghnagar"
  },
  "CCSI": {
    "AvailableFormats": "2D|3D",
    "City": "Siliguri",
    "Latitude": "26.7394",
    "Longitude": "88.4027",
    "RegionCode": "SILI",
    "State": "West Bengal",
    "SubRegionCode": "SILI",
    "VenueAddress": "Savin Plaza, Savin Kingdom,Hill Kart Road, Dagapur, Behind Baba Loknath Mandir, Siliguri, West Bengal 734003, India",
    "VenueCode": "CCSI",
    "VenueName": "Savin Cinemas: Siliguri"
  },
  "CDDP": {
    "AvailableFormats": "2D",
    "City": "Punalur",
    "Latitude": "9.02059",
    "Longitude": "76.9193",
    "RegionCode": "PUNA",
    "State": "Kerala",
    "SubRegionCode": "PUNA",
    "VenueAddress": "Market Road, Chemmanthoor, Punalur, Kerala 691305, India",
    "VenueCode": "CDDP",
    "VenueName": "Deva Carnival Cinemas: D Mall, Punalur"
  },
  "CEIM": {
    "AvailableFormats": "2D|3D",
    "City": "Vadodara",
    "Latitude": "22.3181",
    "Longitude": "73.228",
    "RegionCode": "ANKV",
    "State": "Gujarat",
    "SubRegionCode": "ANKV",
    "VenueAddress": "3rd/4th Floor Earth Icon,New VIP Ring Road, Khodiyar Nagar Char Rasta,Near, Uma Char Rasta, Opposite Venice Villa, Khodiyar Nagar,Kishanwadi, Vadodara, Gujarat 390022, India",
    "VenueCode": "CEIM",
    "VenueName": "Cinemarc: New VIP Road"
  },
  "CGCB": {
    "AvailableFormats": "",
    "City": "Bathinda",
    "Latitude": "30.1649",
    "Longitude": "74.9233",
    "RegionCode": "BHAT",
    "State": "Punjab",
    "SubRegionCode": "BHAT",
    "VenueAddress": "3rd Floor, Green city square, Near AIIMS hospital, Dabwali Road, Bathinda, Punjab 151001, India",
    "VenueCode": "CGCB",
    "VenueName": "Cinepolis: Green City Square, Bathinda"
  },
  "CGOS": {
    "AvailableFormats": "2D",
    "City": "Ahmedabad",
    "Latitude": "23.0157",
    "Longitude": "72.5294",
    "RegionCode": "AHD",
    "State": "Gujarat",
    "SubRegionCode": "AHD",
    "VenueAddress": "Near Shyamal, Cross Road, 132 Feet Ring Road, Ahmedabad, Gujarat 380015, India",
    "VenueCode": "CGOS",
    "VenueName": "City Gold Satellite: Ahmedabad"
  },
  "CHTI": {
    "AvailableFormats": "2D",
    "City": "Poovar",
    "Latitude": "8.31976",
    "Longitude": "77.0743",
    "RegionCode": "TRIV",
    "State": "Kerala",
    "SubRegionCode": "TRIV",
    "VenueAddress": "Cine Cafe Restaurant and Cineplex, Bridge Road, Opposite To Thuruthil Granite, Poovar, Kerala 695525, India",
    "VenueCode": "CHTI",
    "VenueName": "Chhotu Maharaj Cine Cafe: Poovar, Kerala"
  },
  "CIJA": {
    "AvailableFormats": "2D|3D",
    "City": "Delhi",
    "Latitude": "28.6109",
    "Longitude": "77.0938",
    "RegionCode": "NCR",
    "State": "NCR",
    "SubRegionCode": "DELHI",
    "VenueAddress": "Pankha Road, Block C 6A, Janakpuri, Delhi, NCR 110058, India",
    "VenueCode": "CIJA",
    "VenueName": "Cinepolis: Janak Cinema, New Delhi"
  },
  "CKKX": {
    "AvailableFormats": "2D|3D",
    "City": "Kankroli",
    "Latitude": "25.0525",
    "Longitude": "73.8843",
    "RegionCode": "KANL",
    "State": "Rajasthan",
    "SubRegionCode": "KANL",
    "VenueAddress": "2nd Floor, Krishna Ashish, TVS Circle, Mahadev Colony, Kankroli, Rajasthan 313324, India",
    "VenueCode": "CKKX",
    "VenueName": "Cine Square Cinemas: Kankroli"
  },
  "CLDR": {
    "AvailableFormats": "2D",
    "City": "Ramanathapuram",
    "Latitude": "9.35868",
    "Longitude": "78.8433",
    "RegionCode": "RAPU",
    "State": "Tamil Nadu",
    "SubRegionCode": "RAPU",
    "VenueAddress": "9R5V+F8C, Mandapam Road, Kadampa Nagar, Ramanathapuram, Tamil Nadu 623501, India",
    "VenueCode": "CLDR",
    "VenueName": "The Cine Lounge Dolby 7.1: GSM Mall Ramanathapuram"
  },
  "CLSB": {
    "AvailableFormats": "2D",
    "City": "Siwan",
    "Latitude": "26.2307",
    "Longitude": "84.3694",
    "RegionCode": "SWNB",
    "State": "Bihar",
    "SubRegionCode": "SWNB",
    "VenueAddress": "Chandrika Tower, Gaushala Road, Pakdi Bus Stand, Siwan, Bihar 841226, India",
    "VenueCode": "CLSB",
    "VenueName": "Connplex Cinemas (Luxuriance): Siwan"
  },
  "CMGJ": {
    "AvailableFormats": "2D",
    "City": "Godda",
    "Latitude": "24.8314",
    "Longitude": "87.21",
    "RegionCode": "GDDA",
    "State": "Jharkhand",
    "SubRegionCode": "GDDA",
    "VenueAddress": "Rooftop Of Reliance Smart Bazaar, Near Petrol Pump Bhagalpur Road, Godda, Jharkhand 814133, India",
    "VenueCode": "CMGJ",
    "VenueName": "Chhotu Maharaj Cine Cafe: Godda, Jharkhand"
  },
  "CMMP": {
    "AvailableFormats": "2D",
    "City": "Rampur",
    "Latitude": "28.7516",
    "Longitude": "79.0545",
    "RegionCode": "RAMU",
    "State": "Uttar Pradesh",
    "SubRegionCode": "RAMU",
    "VenueAddress": "Modi Mall, Modipur, Faizulla Nagar, Nh-24, Bareilly Road, Rampur, Uttar Pradesh 244901, India",
    "VenueCode": "CMMP",
    "VenueName": "Cinepolis: Modi Mall, Rampur"
  },
  "CMTU": {
    "AvailableFormats": "2D",
    "City": "Khatima",
    "Latitude": "28.924",
    "Longitude": "79.9753",
    "RegionCode": "KHTM",
    "State": "Uttarakhand",
    "SubRegionCode": "KHTM",
    "VenueAddress": "Mj Market, Tankapur Road, Opposite -  Prayas Hospital, Khatima, Uttarakhand 262308, India",
    "VenueCode": "CMTU",
    "VenueName": "Chhotu Maharaj Cine Cafe: Khatima,Uttarakhand"
  },
  "CMXN": {
    "AvailableFormats": "2D",
    "City": "Nimbahera",
    "Latitude": "24.6251",
    "Longitude": "74.6928",
    "RegionCode": "NIPA",
    "State": "Rajasthan",
    "SubRegionCode": "NIPA",
    "VenueAddress": "Chittorgarh Road, Mahesh Nagar, Kamdhaz Nagar, Nimbahera, Rajasthan 312601, India",
    "VenueCode": "CMXN",
    "VenueName": "Crazy Multiplex: Nimbahera"
  },
  "CNCY": {
    "AvailableFormats": "2D",
    "City": "Sagar",
    "Latitude": "23.8526",
    "Longitude": "78.7808",
    "RegionCode": "SAMP",
    "State": "Madhya Pradesh",
    "SubRegionCode": "SAMP",
    "VenueAddress": "National Highway No 26, Jhansi Road, Makronia Camp, Above Parinay Banquet Hall, Sagar, Madhya Pradesh 470004, India",
    "VenueCode": "CNCY",
    "VenueName": "Cine City: Sagar"
  },
  "CNPD": {
    "AvailableFormats": "2D",
    "City": "Chintalapudi",
    "Latitude": "17.0655",
    "Longitude": "80.983",
    "RegionCode": "CHPD",
    "State": "Andhra Pradesh",
    "SubRegionCode": "CHPD",
    "VenueAddress": "Chintalapudi - Eluru Road, Near Old Bus Stand, Chintalapudi, Andhra Pradesh 534460, India",
    "VenueCode": "CNPD",
    "VenueName": "Sarada Mini A/C Theatre: Chintalapudi"
  },
  "CNTX": {
    "AvailableFormats": "",
    "City": "Thane",
    "Latitude": "19.1927",
    "Longitude": "72.9686",
    "RegionCode": "MUMBAI",
    "State": "Maharashtra",
    "SubRegionCode": "THNE",
    "VenueAddress": "4TH Floor, Rhythm Building, Old Aaradhana Cinemas, L.B.S. Marg, M.D. Road, Panchpakhdi, Naupada, Thane (West), Thane, Maharashtra 400602, India",
    "VenueCode": "CNTX",
    "VenueName": "ICONIX CINEMAS: (OLD AARADHANA TALKIES) THANE"
  },
  "CONS": {
    "AvailableFormats": "2D",
    "City": "Ahmedabad",
    "Latitude": "23.0354",
    "Longitude": "72.5045",
    "RegionCode": "AHD",
    "State": "Gujarat",
    "SubRegionCode": "AHD",
    "VenueAddress": "2nd Floor, Shilp Epitome, Behind Rajpath Rangoli Road, Bodakdev, Ahmedabad, Gujarat 380054, India",
    "VenueCode": "CONS",
    "VenueName": "Connplex Cinemas (Luxuriance): SBR"
  },
  "CPAS": {
    "AvailableFormats": "2D|3D",
    "City": "Bhopal",
    "Latitude": "23.1829",
    "Longitude": "77.4564",
    "RegionCode": "BHOP",
    "State": "Madhya Pradesh",
    "SubRegionCode": "BHOP",
    "VenueAddress": "3rd Floor, Aashima Mall, Danish Nagar, Bawadia Kalan, Hoshingabad Road, Bhopal, Madhya Pradesh 462026, India",
    "VenueCode": "CPAS",
    "VenueName": "Cinepolis: Aashima Mall, Bhopal"
  },
  "CPFT": {
    "AvailableFormats": "3D|2D",
    "City": "Pune",
    "Latitude": "18.4686",
    "Longitude": "73.8198",
    "RegionCode": "PUNE",
    "State": "Maharashtra",
    "SubRegionCode": "PUNE",
    "VenueAddress": "Near Manik Baug Petrol Pump, Sinhagad Road, Pune, Maharashtra 411041, India",
    "VenueCode": "CPFT",
    "VenueName": "Fun Time Multiplex: Sinhagad Road"
  },
  "CPKT": {
    "AvailableFormats": "3D|2D",
    "City": "Pune",
    "Latitude": "18.4997",
    "Longitude": "73.821",
    "RegionCode": "PUNE",
    "State": "Maharashtra",
    "SubRegionCode": "PUNE",
    "VenueAddress": "Survey No.20/1,2, Kothrud, Near Tara Residency, Pune, Maharashtra 411038, India",
    "VenueCode": "CPKT",
    "VenueName": "City Pride: Kothrud"
  },
  "CPNL": {
    "AvailableFormats": "2D|3D",
    "City": "Ludhiana",
    "Latitude": "30.8826",
    "Longitude": "75.782",
    "RegionCode": "LUDH",
    "State": "Punjab",
    "SubRegionCode": "LUDH",
    "VenueAddress": "2nd Floor, MBD Neopolis Mall, Ferozepur Road, Ludhiana, Punjab 141004, India",
    "VenueCode": "CPNL",
    "VenueName": "Cinepolis: Nexus MBD, Ludhiana"
  },
  "CPSA": {
    "AvailableFormats": "2D",
    "City": "Solan",
    "Latitude": "30.92",
    "Longitude": "77.0961",
    "RegionCode": "SCO",
    "State": "Himachal Pradesh",
    "SubRegionCode": "SCO",
    "VenueAddress": "2nd floor, Center Prime Mall, Kalka - Shimla Road, Solan, Himachal Pradesh 173213, India",
    "VenueCode": "CPSA",
    "VenueName": "CP Cinemas (Haveli), Centre Prime Mall: Solan"
  },
  "CPVM": {
    "AvailableFormats": "3D|IMAX 2D|4DX|2D",
    "City": "Thane",
    "Latitude": "19.2088",
    "Longitude": "72.9709",
    "RegionCode": "MUMBAI",
    "State": "Maharashtra",
    "SubRegionCode": "THNE",
    "VenueAddress": "Viviana Mall, Eastern Express Highway, Laxmi Nagar, Thane (West), Thane, Maharashtra 400606, India",
    "VenueCode": "CPVM",
    "VenueName": "Cinepolis: Viviana Mall, Thane"
  },
  "CRXH": {
    "AvailableFormats": "2D",
    "City": "Halol",
    "Latitude": "22.4966",
    "Longitude": "73.4714",
    "RegionCode": "HALO",
    "State": "Gujarat",
    "SubRegionCode": "HALO",
    "VenueAddress": "Townsquare Mall, 3rd Floor Oppositie Fire Station, Halol, Gujarat 389350, India",
    "VenueCode": "CRXH",
    "VenueName": "Cinemera Multiplex: Halol"
  },
  "CSMD": {
    "AvailableFormats": "2D",
    "City": "Dhrangadhra",
    "Latitude": "23.0008",
    "Longitude": "71.4156",
    "RegionCode": "DHRN",
    "State": "Gujarat",
    "SubRegionCode": "DHRN",
    "VenueAddress": "Ahmedabad, Kutch Highway, Dhrangadhra, Gujarat 363310, India",
    "VenueCode": "CSMD",
    "VenueName": "Connplex Cinemas: Sir Jadeja, Dhrangadhra"
  },
  "CSTL": {
    "AvailableFormats": "2D|3D",
    "City": "Nawada",
    "Latitude": "24.8877",
    "Longitude": "85.5392",
    "RegionCode": "NAWD",
    "State": "Bihar",
    "SubRegionCode": "NAWD",
    "VenueAddress": "Natraj Picture Palace, New Area, Nawada, Nawada, Bihar 805110, India",
    "VenueCode": "CSTL",
    "VenueName": "Connplex Cinemas (Natraj): Nawada"
  },
  "CTLC": {
    "AvailableFormats": "2D",
    "City": "Chapra",
    "Latitude": "25.7875",
    "Longitude": "84.7145",
    "RegionCode": "CHPR",
    "State": "Bihar",
    "SubRegionCode": "CHPR",
    "VenueAddress": "Ware House Colony, Main Road, Near Gudri Chowk, Chapra, Bihar 841301, India",
    "VenueCode": "CTLC",
    "VenueName": "Cinemaoo The Luxury: Chapra"
  },
  "CTNR": {
    "AvailableFormats": "",
    "City": "Hyderabad",
    "Latitude": "17.503",
    "Longitude": "78.4773",
    "RegionCode": "HYD",
    "State": "Telangana",
    "SubRegionCode": "HYD",
    "VenueAddress": "Cinepolis TNR North City, SY No 85 and 89, NH-44, 7, Suchitra Road, NH-44, 7, Suchitra Road, Hyderabad, Telangana 500055, India",
    "VenueCode": "CTNR",
    "VenueName": "Cinepolis: TNR North City, Suchitra, Hyderabad"
  },
  "CUNT": {
    "AvailableFormats": "",
    "City": "Delhi",
    "Latitude": "28.5928",
    "Longitude": "77.0407",
    "RegionCode": "NCR",
    "State": "NCR",
    "SubRegionCode": "DELHI",
    "VenueAddress": "Cinepolis India Pvt Ltd, Plot No.5, 12, Metro Station Road, Pocket 8, Block B, Sector 12 Dwarka, Delhi, NCR 110078, India",
    "VenueCode": "CUNT",
    "VenueName": "Cinepolis: City Centre Dwarka,Delhi (Newly Opened)"
  },
  "CVTT": {
    "AvailableFormats": "2D",
    "City": "Tirupati",
    "Latitude": "13.6301",
    "Longitude": "79.424",
    "RegionCode": "TIRU",
    "State": "Andhra Pradesh",
    "SubRegionCode": "TIRU",
    "VenueAddress": "Jayasam Road, Tata Nagar, Tirupati, Andhra Pradesh 517501, India",
    "VenueCode": "CVTT",
    "VenueName": "CVS Movie Land A/c DTS: Tirupati"
  },
  "CXMH": {
    "AvailableFormats": "2D",
    "City": "Himmatnagar",
    "Latitude": "23.5823",
    "Longitude": "72.9728",
    "RegionCode": "HIMM",
    "State": "Gujarat",
    "SubRegionCode": "HIMM",
    "VenueAddress": "Devdhan Complex, Sahakari Jin Road, Near Jyoti Supermarket, Himmatnagar, Gujarat 383001, India",
    "VenueCode": "CXMH",
    "VenueName": "Cinemunch Mplex MCR: Himmatnagar"
  },
  "DAMD": {
    "AvailableFormats": "2D",
    "City": "Tirupur",
    "Latitude": "11.0991",
    "Longitude": "77.3444",
    "RegionCode": "AVII",
    "State": "Tamil Nadu",
    "SubRegionCode": "AVII",
    "VenueAddress": "State Highway 169, Puliyamara Thottam, Katapalayam, Near Arulmigu Sri Pattathaarasi Amman Thirukovil, Tirupur, Tamil Nadu 641604, India",
    "VenueCode": "DAMD",
    "VenueName": "Diamond Cinemas A/C 4K Dolby: Tirupur"
  },
  "DCCT": {
    "AvailableFormats": "2D",
    "City": "Thrissur",
    "Latitude": "10.5616",
    "Longitude": "76.2174",
    "RegionCode": "THSR",
    "State": "Kerala",
    "SubRegionCode": "THSR",
    "VenueAddress": "Thrissur - Shoranur Road, Padukad, Keltron Nagar, Kolazhy, Thrissur, Kerala 680010, India",
    "VenueCode": "DCCT",
    "VenueName": "Deepa Cinema 4K RGB Laser DTS X: Viyyur"
  },
  "DCPC": {
    "AvailableFormats": "2D",
    "City": "Paonta Sahib",
    "Latitude": "30.4362",
    "Longitude": "77.5773",
    "RegionCode": "POTA",
    "State": "Himachal Pradesh",
    "SubRegionCode": "POTA",
    "VenueAddress": "Purwala - Bharli Road, Badripur, Pataliyon, Paonta Sahib, Himachal Pradesh 172025, India",
    "VenueCode": "DCPC",
    "VenueName": "Dhishoom Cinemas: Paonta Sahib"
  },
  "DDRX": {
    "AvailableFormats": "2D|3D",
    "City": "Bhopal",
    "Latitude": "23.2301",
    "Longitude": "77.4921",
    "RegionCode": "BHOP",
    "State": "Madhya Pradesh",
    "SubRegionCode": "BHOP",
    "VenueAddress": "4th Floor, Regal Civic Centre, Regal Town, Crystal Ideal City, Bhopal, Madhya Pradesh 462022, India",
    "VenueCode": "DDRX",
    "VenueName": "DDX Regal Cinema Awadhpuri: Bhopal"
  },
  "DEVI": {
    "AvailableFormats": "2D",
    "City": "Ahmedabad",
    "Latitude": "23.073",
    "Longitude": "72.65",
    "RegionCode": "AHD",
    "State": "Gujarat",
    "SubRegionCode": "AHD",
    "VenueAddress": "Opp. Mahaprabhuji Bethak, Naroda, Near Axis Bank ATM, Ahmedabad, Gujarat 382330, India",
    "VenueCode": "DEVI",
    "VenueName": "Devi Multiplex: Naroda"
  },
  "DIMY": {
    "AvailableFormats": "2D",
    "City": "Yamunanagar",
    "Latitude": "30.1525",
    "Longitude": "77.3092",
    "RegionCode": "YAMU",
    "State": "Haryana",
    "SubRegionCode": "YAMU",
    "VenueAddress": "NH73A, Basant Nagar, Yamunanagar, Haryana 135004, India",
    "VenueCode": "DIMY",
    "VenueName": "Dimple Cineplex: Yamuna Nagar"
  },
  "DMAN": {
    "AvailableFormats": "2D",
    "City": "Anand",
    "Latitude": "22.5632",
    "Longitude": "72.9527",
    "RegionCode": "PETL",
    "State": "Gujarat",
    "SubRegionCode": "PETL",
    "VenueAddress": "100 Feet Road, Beside Vegetable Market, Ganesh Colony, Anand, Gujarat 388001, India",
    "VenueCode": "DMAN",
    "VenueName": "Diya Cinema: Anand"
  },
  "DNKM": {
    "AvailableFormats": "2D",
    "City": "Kollam",
    "Latitude": "8.89143",
    "Longitude": "76.6034",
    "RegionCode": "KOLM",
    "State": "Kerala",
    "SubRegionCode": "KOLM",
    "VenueAddress": "Kadapakkada, Kappalandimukku - Kadappakkada Road, Near The Hindu News Paper, Kollam, Kerala 691008, India",
    "VenueCode": "DNKM",
    "VenueName": "Dhanya Remya: Kollam"
  },
  "DRMY": {
    "AvailableFormats": "2D|3D",
    "City": "Mysuru (Mysore)",
    "Latitude": "12.3221",
    "Longitude": "76.6208",
    "RegionCode": "MYS",
    "State": "Karnataka",
    "SubRegionCode": "MYS",
    "VenueAddress": "Gokulam Road, Jayalakshmipuram, Behind BM Hospital, Mysuru (Mysore), Karnataka 570012, India",
    "VenueCode": "DRMY",
    "VenueName": "DRC Cinemas: BM Habitat Mall"
  },
  "DTPT": {
    "AvailableFormats": "2D",
    "City": "Kanhangad",
    "Latitude": "12.3209",
    "Longitude": "75.0851",
    "RegionCode": "KKNN",
    "State": "Kerala",
    "SubRegionCode": "KKNN",
    "VenueAddress": "Deepthi Cinemas,Railway Station, Puthiyavalapu, Opposite Kanhangad, Kanhangad, Kerala 671315, India",
    "VenueCode": "DTPT",
    "VenueName": "Deepthi Cinemas A/c 2K Dolby Atmos: Kanhangad"
  },
  "DVDC": {
    "AvailableFormats": "2D",
    "City": "Delhi",
    "Latitude": "28.6418",
    "Longitude": "77.2335",
    "RegionCode": "NCR",
    "State": "NCR",
    "SubRegionCode": "DELHI",
    "VenueAddress": "Opp LNJP, Asaf Ali Road Darya Ganj, Near Delhi Stock Exchange, Delhi, NCR 110002, India",
    "VenueCode": "DVDC",
    "VenueName": "Delite Cinema: Asaf Ali Road"
  },
  "ECDG": {
    "AvailableFormats": "2D",
    "City": "Deoghar",
    "Latitude": "24.4907",
    "Longitude": "86.6915",
    "RegionCode": "DOGH",
    "State": "Jharkhand",
    "SubRegionCode": "DOGH",
    "VenueAddress": "Central Plaza Mall, Netaji Subhash Chandra Road, Above Big Bazar, Deoghar, Jharkhand 814112, India",
    "VenueCode": "ECDG",
    "VenueName": "Eylex Cinemas: Deoghar"
  },
  "EEBC": {
    "AvailableFormats": "",
    "City": "Greater Noida",
    "Latitude": "28.464",
    "Longitude": "77.5078",
    "RegionCode": "NCR",
    "State": "NCR",
    "SubRegionCode": "GRET",
    "VenueAddress": "ANSAL PLAZA MALL SHOPPING COMPLEX, Pari Chowk, Amit Nagar, Greater Noida, NCR 201310, India",
    "VenueCode": "EEBC",
    "VenueName": "eBox Cinema: Ansal Plaza Mall, Greater Noida"
  },
  "EMNC": {
    "AvailableFormats": "IMAX 2D",
    "City": "Mumbai",
    "Latitude": "18.9323",
    "Longitude": "72.8279",
    "RegionCode": "MUMBAI",
    "State": "Maharashtra",
    "SubRegionCode": "MCENT",
    "VenueAddress": "Cambata Building, 42, Maharshi Karve Road, Churchgate, Mumbai, Maharashtra 400020, India",
    "VenueCode": "EMNC",
    "VenueName": "EROS INOX IMAX Cinema: Churchgate"
  },
  "ESCP": {
    "AvailableFormats": "2D",
    "City": "Patna",
    "Latitude": "25.6177",
    "Longitude": "85.1486",
    "RegionCode": "PATN",
    "State": "Bihar",
    "SubRegionCode": "PATN",
    "VenueAddress": "East of Gandhi Maidan, Near Kargil Chowk, Bakarganj, Patna, Bihar 800004, India",
    "VenueCode": "ESCP",
    "VenueName": "Elphinstone Cinema"
  },
  "ETTR": {
    "AvailableFormats": "2D",
    "City": "Tirukoilur",
    "Latitude": "11.9683",
    "Longitude": "79.2055",
    "RegionCode": "TRKR",
    "State": "Tamil Nadu",
    "SubRegionCode": "TRKR",
    "VenueAddress": "SH 9, Thirukoilure, Near Government Hospital, Tirukoilur, Tamil Nadu 605757, India",
    "VenueCode": "ETTR",
    "VenueName": "Eshwari Thiraiarangam A/C 4K Dolby Atmos"
  },
  "EYLH": {
    "AvailableFormats": "2D",
    "City": "Ranchi",
    "Latitude": "23.3328",
    "Longitude": "85.3171",
    "RegionCode": "RANC",
    "State": "Jharkhand",
    "SubRegionCode": "RANC",
    "VenueAddress": "Hinoo Main Road, Shukla Colony,Opposite River View Restaurant, Ranchi, Jharkhand 834002, India",
    "VenueCode": "EYLH",
    "VenueName": "Eylex Cinemas: Hinoo"
  },
  "FFCX": {
    "AvailableFormats": "2D|3D",
    "City": "Indore",
    "Latitude": "22.6197",
    "Longitude": "75.8018",
    "RegionCode": "IND",
    "State": "Madhya Pradesh",
    "SubRegionCode": "IND",
    "VenueAddress": "Fundore Mall, 1st floor, Ahead of Rau Circle and Opposite Guru Kripa Restaurant, Near Red Maple Mashal Resort, Rau, Indore, Madhya Pradesh 453331, India",
    "VenueCode": "FFCX",
    "VenueName": "Fundore Cinemas, Rau: Indore"
  },
  "FMKY": {
    "AvailableFormats": "2D|3D",
    "City": "Kalyan",
    "Latitude": "19.2299",
    "Longitude": "73.1232",
    "RegionCode": "MUMBAI",
    "State": "Maharashtra",
    "SubRegionCode": "KALYAN",
    "VenueAddress": "2nd Floor, Metro Junction Mall, Netivali Village, Kalyan Shilphata Road, Kalyan, Maharashtra 421306, India",
    "VenueCode": "FMKY",
    "VenueName": "INOX: Metro Mall Junction, Kalyan (E)"
  },
  "FNAS": {
    "AvailableFormats": "2D|3D",
    "City": "Amritsar",
    "Latitude": "31.62",
    "Longitude": "74.9068",
    "RegionCode": "AMRI",
    "State": "Punjab",
    "SubRegionCode": "AMRI",
    "VenueAddress": "Alpha One, Level-2, G.T. Road, Maqbool Pura, Amritsar, Punjab 143006, India",
    "VenueCode": "FNAS",
    "VenueName": "Cinepolis: Nexus Amritsar"
  },
  "FNJJ": {
    "AvailableFormats": "2D|3D",
    "City": "Jaipur",
    "Latitude": "26.9422",
    "Longitude": "75.771",
    "RegionCode": "JAIP",
    "State": "Rajasthan",
    "SubRegionCode": "JAIP",
    "VenueAddress": "Jhotwara Road, Plot No: 1/1, Triton Mega Mall, Jaipur, Rajasthan 302012, India",
    "VenueCode": "FNJJ",
    "VenueName": "Cinepolis: Triton Mega Mall, Jaipur"
  },
  "FQSA": {
    "AvailableFormats": "2D",
    "City": "Navi Mumbai",
    "Latitude": "19.066",
    "Longitude": "73.0083",
    "RegionCode": "MUMBAI",
    "State": "Maharashtra",
    "SubRegionCode": "THAN",
    "VenueAddress": "Sector 3, Sanpada, Navi Mumbai, Maharashtra 400705, India",
    "VenueCode": "FQSA",
    "VenueName": "Fun Square Cinema: Sanpada"
  },
  "FSTD": {
    "AvailableFormats": "2D",
    "City": "Jaipur",
    "Latitude": "26.9606",
    "Longitude": "75.7786",
    "RegionCode": "JAIP",
    "State": "Rajasthan",
    "SubRegionCode": "JAIP",
    "VenueAddress": "Vidyadhar Nagar, Times square Mall, Jaipur, Rajasthan 302039, India",
    "VenueCode": "FSTD",
    "VenueName": "Funstar Cinemas: Vidhyadhar Nagar, Jaipur"
  },
  "GAGC": {
    "AvailableFormats": "2D",
    "City": "Delhi",
    "Latitude": "28.6964",
    "Longitude": "77.3149",
    "RegionCode": "NCR",
    "State": "NCR",
    "SubRegionCode": "DELHI",
    "VenueAddress": "Main Road Nand Nagari, Kanchipuram, Community Centre, Village Mandoli, Delhi, NCR 110093, India",
    "VenueCode": "GAGC",
    "VenueName": "Gagan Theatre: Nand Nagri, Delhi"
  },
  "GATR": {
    "AvailableFormats": "2D",
    "City": "Rajahmundry",
    "Latitude": "17.003",
    "Longitude": "81.775",
    "RegionCode": "RJMU",
    "State": "Andhra Pradesh",
    "SubRegionCode": "RJMU",
    "VenueAddress": "Syamalamba Temple Road, Mangalavaripeta, Near Sri Vinayaka Temple, Rajahmundry, Andhra Pradesh 533101, India",
    "VenueCode": "GATR",
    "VenueName": "Apsara Laser R.G.B 4K Dolby Atmos: Rajahmundry"
  },
  "GCBB": {
    "AvailableFormats": "2D",
    "City": "Barshi",
    "Latitude": "18.2463",
    "Longitude": "75.6966",
    "RegionCode": "BRHI",
    "State": "Maharashtra",
    "SubRegionCode": "BRHI",
    "VenueAddress": "M.P complex 1551/1/2CD, Near by Hiremath Hospital, Subhas Nagar, Agalgoan Road, Solapur, Barshi, Maharashtra 413401, India",
    "VenueCode": "GCBB",
    "VenueName": "Golden Cinemax: Barshi"
  },
  "GCFK": {
    "AvailableFormats": "2D",
    "City": "Kochi",
    "Latitude": "9.95385",
    "Longitude": "76.2477",
    "RegionCode": "PALY",
    "State": "Kerala",
    "SubRegionCode": "PALY",
    "VenueAddress": "Pandikudy, Anavathil, Thamaraparambu, Chullickal, Near Keraleswaram Siva Temple, Kochi, Kerala 682001, India",
    "VenueCode": "GCFK",
    "VenueName": "G Cinemas Fort Kochi: 4K Dolby ATMOS"
  },
  "GCMC": {
    "AvailableFormats": "2D",
    "City": "Nedumkandam",
    "Latitude": "9.83834",
    "Longitude": "77.1577",
    "RegionCode": "NEDU",
    "State": "Kerala",
    "SubRegionCode": "NEDU",
    "VenueAddress": "Munnar Kumily Highway, Nedumkandam, Near State Bank of India, Nedumkandam, Kerala 685553, India",
    "VenueCode": "GCMC",
    "VenueName": "G Cinemax Multiplex"
  },
  "GCRT": {
    "AvailableFormats": "2D|3D",
    "City": "Ratlam",
    "Latitude": "23.3301",
    "Longitude": "75.0371",
    "RegionCode": "KHCU",
    "State": "Madhya Pradesh",
    "SubRegionCode": "KHCU",
    "VenueAddress": "2nd Floor, Gayatri Cinema Campus, Mission Hospital Road, Fun Buzz, Ratlam, Madhya Pradesh 457001, India",
    "VenueCode": "GCRT",
    "VenueName": "Gayatri Cinemas: Ratlam"
  },
  "GDAK": {
    "AvailableFormats": "2D",
    "City": "Attibele",
    "Latitude": "12.779",
    "Longitude": "77.7734",
    "RegionCode": "ATTO",
    "State": "Karnataka",
    "SubRegionCode": "ATTO",
    "VenueAddress": "Hosur Main Road, Next to Ganesh Temple, Attibele, Karnataka 562107, India",
    "VenueCode": "GDAK",
    "VenueName": "Gowrishankar DOLBY 7.1 RGB Laser: Attibele"
  },
  "GDCS": {
    "AvailableFormats": "2D",
    "City": "Silchar",
    "Latitude": "24.8284",
    "Longitude": "92.8033",
    "RegionCode": "SIL",
    "State": "Assam",
    "SubRegionCode": "SIL",
    "VenueAddress": "Entertainment Plaza, Barak Cha Sramik Union Building Complex, Sadarghat Road, Waris Industries, Silchar, Assam 788001, India",
    "VenueCode": "GDCS",
    "VenueName": "Gold Cinema, Sadarghat Road: Silchar"
  },
  "GDTY": {
    "AvailableFormats": "2D",
    "City": "Bengaluru",
    "Latitude": "13.0216",
    "Longitude": "77.5513",
    "RegionCode": "BANG",
    "State": "Karnataka",
    "SubRegionCode": "BANG",
    "VenueAddress": "46/2, Industrial Surab, Tumkur Road, Yeshwanthpur, Near Yeshwantpur Railway Station, Bengaluru, Karnataka 560022, India",
    "VenueCode": "GDTY",
    "VenueName": "Goverdhan Theatre: Yeshwantpur"
  },
  "GGCV": {
    "AvailableFormats": "2D",
    "City": "Vapi",
    "Latitude": "20.3756",
    "Longitude": "72.9212",
    "RegionCode": "VAPI",
    "State": "Gujarat",
    "SubRegionCode": "VAPI",
    "VenueAddress": "CM O No 11, Geet Cinema, Gunjan Road, GIDC, Vapi, Gujarat 396195, India",
    "VenueCode": "GGCV",
    "VenueName": "Gunjan Geet Cinema: Vapi"
  },
  "GKCP": {
    "AvailableFormats": "2D|3D",
    "City": "Chennai",
    "Latitude": "13.0337",
    "Longitude": "80.1611",
    "RegionCode": "CHEN",
    "State": "Tamil Nadu",
    "SubRegionCode": "CHEN",
    "VenueAddress": "No 93, Lakshmi Nagar, Near Madurai Kannappar Mess, Chennai, Tamil Nadu 600116, India",
    "VenueCode": "GKCP",
    "VenueName": "GK Cinemas RGB + Laser SRL 4D: Porur"
  },
  "GLXJ": {
    "AvailableFormats": "2D",
    "City": "Jaipur",
    "Latitude": "26.8337",
    "Longitude": "75.7783",
    "RegionCode": "JAIP",
    "State": "Rajasthan",
    "SubRegionCode": "JAIP",
    "VenueAddress": "SP, 9, Shipra Path, RIICO Industrial Area, Mansarovar, Jaipur, Rajasthan 302020, India",
    "VenueCode": "GLXJ",
    "VenueName": "Galaxy Cinema Mansarovar: Jaipur"
  },
  "GODH": {
    "AvailableFormats": "2D",
    "City": "Dharamsala",
    "Latitude": "32.2143",
    "Longitude": "76.3171",
    "RegionCode": "DMSL",
    "State": "Himachal Pradesh",
    "SubRegionCode": "DMSL",
    "VenueAddress": "Maximus Mall, Mann Filling Station, Kotwali Bazar, Dharamsala, Himachal Pradesh 176215, India",
    "VenueCode": "GODH",
    "VenueName": "Gold Cinema: Dharamsala"
  },
  "GPMF": {
    "AvailableFormats": "2D",
    "City": "Faridkot",
    "Latitude": "30.6768",
    "Longitude": "74.7611",
    "RegionCode": "DKOT",
    "State": "Punjab",
    "SubRegionCode": "DKOT",
    "VenueAddress": "Gills Palace, Circular Road, Balbir Basti, Faridkot, Punjab 151203, India",
    "VenueCode": "GPMF",
    "VenueName": "Gill Plaza Multiplex: Faridkot"
  },
  "GRNG": {
    "AvailableFormats": "",
    "City": "Ghaziabad",
    "Latitude": "28.6549",
    "Longitude": "77.4356",
    "RegionCode": "NCR",
    "State": "NCR",
    "SubRegionCode": "GHAZ",
    "VenueAddress": "C-115, Grand Trunk Road, Model Town East, Gandhi Nagar, Nehru Nagar III, Ghaziabad, NCR 201001, India",
    "VenueCode": "GRNG",
    "VenueName": "Grand Cinemaz@Choudhry Mall"
  },
  "GTCK": {
    "AvailableFormats": "2D",
    "City": "Trivandrum",
    "Latitude": "8.60425",
    "Longitude": "76.8156",
    "RegionCode": "VKAL",
    "State": "Kerala",
    "SubRegionCode": "VKAL",
    "VenueAddress": "Puthukurichy (P.O), Kaniyapuram, Near V Tracks Cinemas, Trivandrum, Kerala 695303, India",
    "VenueCode": "GTCK",
    "VenueName": "GTracks Screen 2 Sony 4K: Kadinamkulam"
  },
  "GTTA": {
    "AvailableFormats": "2D",
    "City": "Falakata",
    "Latitude": "26.5179",
    "Longitude": "89.2024",
    "RegionCode": "FALA",
    "State": "West Bengal",
    "SubRegionCode": "FALA",
    "VenueAddress": "Babupara, Near Netaji Road, Opposite Falakata Park, Falakata, West Bengal 735211, India",
    "VenueCode": "GTTA",
    "VenueName": "Gouri Talkies: Falakata"
  },
  "GWEK": {
    "AvailableFormats": "2D",
    "City": "Kallara",
    "Latitude": "9.70018",
    "Longitude": "76.4759",
    "RegionCode": "ETTU",
    "State": "Kerala",
    "SubRegionCode": "ETTU",
    "VenueAddress": "Kallara - Neendoor - Pravattom Road, Neendoor, Kallara, Kerala 686611, India",
    "VenueCode": "GWEK",
    "VenueName": "Goodwill Cinemas 4K RGB LASER Atmos 3D: Kallara"
  },
  "HARK": {
    "AvailableFormats": "2D",
    "City": "Jalalabad",
    "Latitude": "30.6096",
    "Longitude": "74.2555",
    "RegionCode": "JLAB",
    "State": "Punjab",
    "SubRegionCode": "JLAB",
    "VenueAddress": "Fazilka  Ferozpur Road, Aman Nagar, Near Bus Stand, Jalalabad, Punjab 152024, India",
    "VenueCode": "HARK",
    "VenueName": "Harkishan Cinema: Jalalabad"
  },
  "HFSV": {
    "AvailableFormats": "2D",
    "City": "Vasco Da Gama",
    "Latitude": "15.4",
    "Longitude": "73.8143",
    "RegionCode": "GOA",
    "State": "Goa",
    "SubRegionCode": "VAGG",
    "VenueAddress": "Vaddem, New Vaddem, FL  Gomes Road, Near Corporation Bank, Vasco Da Gama, Goa 403802, India",
    "VenueCode": "HFSV",
    "VenueName": "Z Square Cine Shivam: Vasco Da Gama"
  },
  "HOUT": {
    "AvailableFormats": "2D",
    "City": "Moranhat",
    "Latitude": "27.1869",
    "Longitude": "94.9144",
    "RegionCode": "MORH",
    "State": "Assam",
    "SubRegionCode": "MORH",
    "VenueAddress": "Peoli Nagar, AT Road, Near State Bank Of India, Moranhat, Assam 785670, India",
    "VenueCode": "HOUT",
    "VenueName": "Houseful Talkies: Moranhat"
  },
  "IAET": {
    "AvailableFormats": "2D",
    "City": "Baraut",
    "Latitude": "29.1011",
    "Longitude": "77.2744",
    "RegionCode": "BARL",
    "State": "Uttar Pradesh",
    "SubRegionCode": "BARL",
    "VenueAddress": "Binoli Road, Near Vishnu Palace, Baraut, Uttar Pradesh 250611, India",
    "VenueCode": "IAET",
    "VenueName": "Imusica Entertainment: Baraut"
  },
  "IEFM": {
    "AvailableFormats": "3D|2D",
    "City": "Faridabad",
    "Latitude": "28.4076",
    "Longitude": "77.3101",
    "RegionCode": "NCR",
    "State": "NCR",
    "SubRegionCode": "FARI",
    "VenueAddress": "EROS EF3 Mall 3rd Floor, Sector 20 - A, Mathura Road, Faridabad, NCR 121001, India",
    "VenueCode": "IEFM",
    "VenueName": "INOX: EF3 Mall, Faridabad"
  },
  "ILUM": {
    "AvailableFormats": "3D|2D",
    "City": "Lucknow",
    "Latitude": "26.8713",
    "Longitude": "80.9584",
    "RegionCode": "LUCK",
    "State": "Uttar Pradesh",
    "SubRegionCode": "LUCK",
    "VenueAddress": "INOX Leisure LTD, 2nd Floor, Umrao Mall, Mahanagar, Near Badshah Nagar Metro Station, Lucknow, Uttar Pradesh 226006, India",
    "VenueCode": "ILUM",
    "VenueName": "INOX: Umrao Mall, Mahanagar"
  },
  "IMOB": {
    "AvailableFormats": "2D|IMAX 2D|4DX|3D",
    "City": "Mumbai",
    "Latitude": "19.2218",
    "Longitude": "72.8629",
    "RegionCode": "MUMBAI",
    "State": "Maharashtra",
    "SubRegionCode": "MWEST",
    "VenueAddress": "Oberoi Sky City Mall, Datta Pada Road, Borivali East, Devi Pada Metro Station, Mumbai, Maharashtra 400066, India",
    "VenueCode": "IMOB",
    "VenueName": "INOX Megaplex: Sky City Mall, Borivali"
  },
  "INAP": {
    "AvailableFormats": "2D|3D",
    "City": "Udaipur",
    "Latitude": "24.5863",
    "Longitude": "73.7104",
    "RegionCode": "UDAI",
    "State": "Rajasthan",
    "SubRegionCode": "UDAI",
    "VenueAddress": "5th Floor,Lake City Mall, University Road, Ashok Nagar, Near Porwal Ji Ki Badi, Udaipur, Rajasthan 313001, India",
    "VenueCode": "INAP",
    "VenueName": "INOX: Lake City Mall"
  },
  "INBS": {
    "AvailableFormats": "2D",
    "City": "Jorhat",
    "Latitude": "26.7543",
    "Longitude": "94.2181",
    "RegionCode": "JORT",
    "State": "Assam",
    "SubRegionCode": "JORT",
    "VenueAddress": "4th Floor, ABS Mall, AT Rd, Gar-Ali, Opposite Prince Of Wales, Jorhat, Assam 785001, India",
    "VenueCode": "INBS",
    "VenueName": "INOX: ABS Mall, Jorhat"
  },
  "INER": {
    "AvailableFormats": "2D|3D",
    "City": "Kolkata",
    "Latitude": "22.5386",
    "Longitude": "88.3515",
    "RegionCode": "KOLK",
    "State": "West Bengal",
    "SubRegionCode": "KOLK",
    "VenueAddress": "Lala Lajpat, Rai Sarani, Bhawanipur, Kolkata, West Bengal 700020, India",
    "VenueCode": "INER",
    "VenueName": "INOX: Forum Mall, Elgin Road"
  },
  "INIC": {
    "AvailableFormats": "2D|3D",
    "City": "Indore",
    "Latitude": "22.7181",
    "Longitude": "75.8713",
    "RegionCode": "IND",
    "State": "Madhya Pradesh",
    "SubRegionCode": "IND",
    "VenueAddress": "170,R.N.T. Marg, Regal Square, Flim Colony, South Tukoganj, 4th Floor, Indore Central, Indore, Madhya Pradesh 452001, India",
    "VenueCode": "INIC",
    "VenueName": "INOX: Nexus Indore Central Mall, Regal Square"
  },
  "INMK": {
    "AvailableFormats": "2D|3D",
    "City": "Kolhapur",
    "Latitude": "16.6987",
    "Longitude": "74.2312",
    "RegionCode": "KOLH",
    "State": "Maharashtra",
    "SubRegionCode": "KOLH",
    "VenueAddress": "2nd Floor, Reliance Mega Mall, Old Dalal Market, Laxmipuri, Near Lakshmi Vilas bank, Kolhapur, Maharashtra 416002, India",
    "VenueCode": "INMK",
    "VenueName": "INOX: Reliance Mega Mall, Kolhapur"
  },
  "INPM": {
    "AvailableFormats": "3D|2D",
    "City": "Meerut",
    "Latitude": "28.9528",
    "Longitude": "77.7315",
    "RegionCode": "MERT",
    "State": "Uttar Pradesh",
    "SubRegionCode": "MERT",
    "VenueAddress": "PVS Multiplex India Ltd, PVS Mall, 2nd Floor, I Block, Shastri Nagar, Meerut, Uttar Pradesh 250001, India",
    "VenueCode": "INPM",
    "VenueName": "INOX: PVS Mall, Meerut"
  },
  "INRD": {
    "AvailableFormats": "3D|2D",
    "City": "Delhi",
    "Latitude": "28.6506",
    "Longitude": "77.1219",
    "RegionCode": "NCR",
    "State": "NCR",
    "SubRegionCode": "DELHI",
    "VenueAddress": "R Cube Monad Mall, Shivaji Place District Centre, Raja Garden, Delhi, NCR 110027, India",
    "VenueCode": "INRD",
    "VenueName": "INOX: RCube, Monad Mall: Delhi"
  },
  "INSG": {
    "AvailableFormats": "2D|3D",
    "City": "Gurugram (Gurgaon)",
    "Latitude": "28.4047",
    "Longitude": "76.9359",
    "RegionCode": "NCR",
    "State": "NCR",
    "SubRegionCode": "GURG",
    "VenueAddress": "INOX Leisure Ltd, 2nd Floor, Sapphire 90 Mall, sector 90, Haryana, Gurugram (Gurgaon), NCR 122505, India",
    "VenueCode": "INSG",
    "VenueName": "INOX Sapphire 90 Mall: Gurugram"
  },
  "INTS": {
    "AvailableFormats": "2D",
    "City": "Srinagar",
    "Latitude": "34.0652",
    "Longitude": "74.8456",
    "RegionCode": "SRNG",
    "State": "Jammu and Kashmir",
    "SubRegionCode": "SRNG",
    "VenueAddress": "Taksal Hospitality Pvt. Ltd. Khasra No: 946/802, Mouza, Shivpora, Srinagar, Jammu and Kashmir 190004, India",
    "VenueCode": "INTS",
    "VenueName": "INOX: Srinagar Shivpora"
  },
  "INVS": {
    "AvailableFormats": "2D",
    "City": "Madurai",
    "Latitude": "9.93825",
    "Longitude": "78.136",
    "RegionCode": "MADU",
    "State": "Tamil Nadu",
    "SubRegionCode": "MADU",
    "VenueAddress": "No. 31, 5th Floor, Vishaal De Mall, Gokhale Road, Chinna Chokkikulam, Madurai, Tamil Nadu 625002, India",
    "VenueCode": "INVS",
    "VenueName": "INOX: Vishaal De Mall"
  },
  "IOMM": {
    "AvailableFormats": "2D|3D",
    "City": "Gorakhpur",
    "Latitude": "26.7498",
    "Longitude": "83.4007",
    "RegionCode": "GRKP",
    "State": "Uttar Pradesh",
    "SubRegionCode": "GRKP",
    "VenueAddress": "INOX Leisure Ltd, 4th Floor, Orion Mall, Mohaddipur, Gorakhpur, Uttar Pradesh 273010, India",
    "VenueCode": "IOMM",
    "VenueName": "INOX: Orion Mall, Gorakhpur"
  },
  "IPPL": {
    "AvailableFormats": "2D|MX4D|IMAX 2D|3D|MX4D 3D",
    "City": "Lucknow",
    "Latitude": "26.8085",
    "Longitude": "81.0123",
    "RegionCode": "LUCK",
    "State": "Uttar Pradesh",
    "SubRegionCode": "LUCK",
    "VenueAddress": "INOX Leisure Ltd., 3rd Floor, Phoenix Palassio Mall Amar Saheed Path, Gomti Nagar Extension, Lucknow, Uttar Pradesh 226010, India",
    "VenueCode": "IPPL",
    "VenueName": "INOX: Megaplex Phoenix Palassio Mall"
  },
  "ISMR": {
    "AvailableFormats": "2D",
    "City": "Dharwad",
    "Latitude": "15.4452",
    "Longitude": "75.0136",
    "RegionCode": "DHAW",
    "State": "Karnataka",
    "SubRegionCode": "DHAW",
    "VenueAddress": "2nd Floor, Smart City Mall, Lakamanahalli, P B Road, Dharwad, Karnataka 580001, India",
    "VenueCode": "ISMR",
    "VenueName": "INOX: Smartcity Mall, Dharwad"
  },
  "IXIM": {
    "AvailableFormats": "2D",
    "City": "Jodhpur",
    "Latitude": "26.2195",
    "Longitude": "73.0422",
    "RegionCode": "JODH",
    "State": "Rajasthan",
    "SubRegionCode": "JODH",
    "VenueAddress": "1st Floor, Indiabulls Mega Mall, Vijayrajey Nagar, NH-65, Pali Road, Jodhpur, Rajasthan 342005, India",
    "VenueCode": "IXIM",
    "VenueName": "INOX: Indiabulls Mall, Jodhpur"
  },
  "JBCS": {
    "AvailableFormats": "2D",
    "City": "Kollam",
    "Latitude": "8.92847",
    "Longitude": "76.7067",
    "RegionCode": "KOLM",
    "State": "Kerala",
    "SubRegionCode": "KOLM",
    "VenueAddress": "Almavu Mukku Road, Nallila, Puliyila, Near Nallila Post Office, Kollam, Kerala 691515, India",
    "VenueCode": "JBCS",
    "VenueName": "JB Cinemas 4K 3D: Nallila"
  },
  "JCMN": {
    "AvailableFormats": "2D",
    "City": "Bhopal",
    "Latitude": "23.2335",
    "Longitude": "77.434",
    "RegionCode": "BHOP",
    "State": "Madhya Pradesh",
    "SubRegionCode": "BHOP",
    "VenueAddress": "Service Rd, Zone-I, MP Nagar, Near MP Education Board Office, Bhopal, Madhya Pradesh 462023, India",
    "VenueCode": "JCMN",
    "VenueName": "Jyoti Cineplex (New Seats): Bhopal"
  },
  "JETP": {
    "AvailableFormats": "2D",
    "City": "Pala",
    "Latitude": "9.71532",
    "Longitude": "76.6894",
    "RegionCode": "PALL",
    "State": "Kerala",
    "SubRegionCode": "PALL",
    "VenueAddress": "State Highway 32, Chakkampuzha Road, Near KSRTC Bus Stand, Pala, Kerala 686575, India",
    "VenueCode": "JETP",
    "VenueName": "Jo`s A/c 2k3D 7.1 Dolby Sound: Pala"
  },
  "JJPP": {
    "AvailableFormats": "2D",
    "City": "Hyderabad",
    "Latitude": "17.4951",
    "Longitude": "78.3341",
    "RegionCode": "HYD",
    "State": "Telangana",
    "SubRegionCode": "HYD",
    "VenueAddress": "Shop No. W-4, Tapadia Maruti Infinity Mall, Door No. 2-132, Chanda Nagar, Hyderabad, Telangana 500050, India",
    "VenueCode": "JJPP",
    "VenueName": "JP Cinemas: Chandanagar"
  },
  "JMJR": {
    "AvailableFormats": "2D|3D",
    "City": "Kolkata",
    "Latitude": "22.7127",
    "Longitude": "88.4753",
    "RegionCode": "BSRT",
    "State": "West Bengal",
    "SubRegionCode": "BSRT",
    "VenueAddress": "1/3 Jessore Road, Barasat, Near Duck Banglow More, Kolkata, West Bengal 700124, India",
    "VenueCode": "JMJR",
    "VenueName": "Jaya Cinemas: City Mall, Barasat"
  },
  "JRCR": {
    "AvailableFormats": "2D",
    "City": "Raghopur",
    "Latitude": "26.3047",
    "Longitude": "86.8414",
    "RegionCode": "RAHO",
    "State": "Bihar",
    "SubRegionCode": "RAHO",
    "VenueAddress": "Raghopur Police Station, Piprahi, National Highway 106, Near Ganesh Electronics, Raghopur, Bihar 852111, India",
    "VenueCode": "JRCR",
    "VenueName": "Jai Rajan Cinema: Raghopur"
  },
  "JTCP": {
    "AvailableFormats": "2D",
    "City": "Petlad",
    "Latitude": "22.4768",
    "Longitude": "72.8087",
    "RegionCode": "PETL",
    "State": "Gujarat",
    "SubRegionCode": "PETL",
    "VenueAddress": "Morarji Shopping Centre, College Chokdi, Sarvodaya Society, Petlad, Gujarat 388450, India",
    "VenueCode": "JTCP",
    "VenueName": "City Light Theatre: Petlad"
  },
  "JTMV": {
    "AvailableFormats": "2D",
    "City": "Chennai",
    "Latitude": "13.3357",
    "Longitude": "80.1947",
    "RegionCode": "CHEN",
    "State": "Tamil Nadu",
    "SubRegionCode": "CHEN",
    "VenueAddress": "57,Newcar Street, Thiruvallur Dist,NGO Nagar Extension,Chennai, Tamil Nadu 601204, India",
    "VenueCode": "JTMV",
    "VenueName": "VVM Cinemas 3D 2K AC Dts, Ponneri: Chennai"
  },
  "JTSB": {
    "AvailableFormats": "2D",
    "City": "Sathupally",
    "Latitude": "17.2113",
    "Longitude": "80.8334",
    "RegionCode": "SATH",
    "State": "Telangana",
    "SubRegionCode": "SATH",
    "VenueAddress": "Sathupally Main Road, Near State Bank of India, Sathupally, Telangana 507303, India",
    "VenueCode": "JTSB",
    "VenueName": "Sri Balaji Theater A/C Dts: Sathupally"
  },
  "JTVM": {
    "AvailableFormats": "2D",
    "City": "Anakapalle",
    "Latitude": "17.6903",
    "Longitude": "83.0088",
    "RegionCode": "ANKP",
    "State": "Andhra Pradesh",
    "SubRegionCode": "ANKP",
    "VenueAddress": "Number 11-4-22, Chinna Veedhi, Woodpeta, Anakapalle, Andhra Pradesh 531001, India",
    "VenueCode": "JTVM",
    "VenueName": "Venkateswara Movie Mart: Anakapalle"
  },
  "JYCR": {
    "AvailableFormats": "2D",
    "City": "Ramanathapuram",
    "Latitude": "9.36626",
    "Longitude": "78.8362",
    "RegionCode": "RAPU",
    "State": "Tamil Nadu",
    "SubRegionCode": "RAPU",
    "VenueAddress": "41/1 Devipattinam Road, Vaigai Nagar, Ramanathapuram, Tamil Nadu 623504, India",
    "VenueCode": "JYCR",
    "VenueName": "Jagan Theatre A/C Sony 4K 3D: Ramanathapuram"
  },
  "KAMP": {
    "AvailableFormats": "2D|3D",
    "City": "Jabalpur",
    "Latitude": "23.1652",
    "Longitude": "79.935",
    "RegionCode": "JABL",
    "State": "Madhya Pradesh",
    "SubRegionCode": "JABL",
    "VenueAddress": "4th floor, KA Mall, Jyoti talkies, Naudra Bridge, Jabalpur, Madhya Pradesh 482002, India",
    "VenueCode": "KAMP",
    "VenueName": "PVR: KA Mall, Jabalpur"
  },
  "KBPM": {
    "AvailableFormats": "2D",
    "City": "Pamuru",
    "Latitude": "15.0961",
    "Longitude": "79.4099",
    "RegionCode": "PMMR",
    "State": "Andhra Pradesh",
    "SubRegionCode": "PMMR",
    "VenueAddress": "Chitralaya Street, Near SBI, Pamuru, Andhra Pradesh 523108, India",
    "VenueCode": "KBPM",
    "VenueName": "KB Srinivasa A/C 2K Dolby 7.1: Pamuru"
  },
  "KCKN": {
    "AvailableFormats": "2D",
    "City": "Kondagaon",
    "Latitude": "19.5952",
    "Longitude": "81.6674",
    "RegionCode": "KNGN",
    "State": "Chhattisgarh",
    "SubRegionCode": "KNGN",
    "VenueAddress": "Bazar para, Near Sahu Communication, Kondagaon, Chhattisgarh 494226, India",
    "VenueCode": "KCKN",
    "VenueName": "Kishore Cineplex: Kondagaon"
  },
  "KCTK": {
    "AvailableFormats": "2D",
    "City": "Kochi",
    "Latitude": "10.1269",
    "Longitude": "76.199",
    "RegionCode": "PALY",
    "State": "Kerala",
    "SubRegionCode": "PALY",
    "VenueAddress": "Ayyampilly, Pallippuram Rd,Kochi, Near Rama Varma Union High School, Kochi, Kerala 682501, India",
    "VenueCode": "KCTK",
    "VenueName": "K Cinemas 4K Dolby Atmos Tripplebeam 3D: Cherai"
  },
  "KICS": {
    "AvailableFormats": "2D",
    "City": "Mulleria",
    "Latitude": "12.5319",
    "Longitude": "75.1562",
    "RegionCode": "KASA",
    "State": "Kerala",
    "SubRegionCode": "KASA",
    "VenueAddress": "Near Kaveri Auditorium, Kadakam, Near Kadakam Business Centre, Mulleria, Kerala 671542, India",
    "VenueCode": "KICS",
    "VenueName": "Kaveri Cinemas A/C DTS Dolby: Karmamthody"
  },
  "KKPE": {
    "AvailableFormats": "2D",
    "City": "Erode",
    "Latitude": "11.1297",
    "Longitude": "77.8609",
    "RegionCode": "KARU",
    "State": "Tamil Nadu",
    "SubRegionCode": "KARU",
    "VenueAddress": "State Highway 172A, Koluthupalayam, Erode, Near Kombanaipudur Bus Stop, Erode, Tamil Nadu 638152, India",
    "VenueCode": "KKPE",
    "VenueName": "Krishna Theatre Dolby 7.1: Koluthupalayam"
  },
  "KLSK": {
    "AvailableFormats": "2D",
    "City": "Kozhikode",
    "Latitude": "11.2586",
    "Longitude": "75.7825",
    "RegionCode": "KOZH",
    "State": "Kerala",
    "SubRegionCode": "KOZH",
    "VenueAddress": "Indira Gandhi Road, Opposite KSRTC Bus Terminal, Tazhekkod, Polpaya Mana, Near Hotel Royal Plaza, Kozhikode, Kerala 673004, India",
    "VenueCode": "KLSK",
    "VenueName": "Kairali Sree Theatre: Kozhikode"
  },
  "KOCI": {
    "AvailableFormats": "2D",
    "City": "Jaipur",
    "Latitude": "26.8127",
    "Longitude": "75.7783",
    "RegionCode": "JAIP",
    "State": "Rajasthan",
    "SubRegionCode": "JAIP",
    "VenueAddress": "Station Road, Sanganer, Bharave Colony, Dada Gurudev Nagar, Near Sri Laxmi, Mobile and Repairing, Jaipur, Rajasthan 302029, India",
    "VenueCode": "KOCI",
    "VenueName": "Kohinoor Cinema (Laser Dolby Atmos): Sanganer"
  },
  "KRIC": {
    "AvailableFormats": "2D",
    "City": "Songadh",
    "Latitude": "21.1669",
    "Longitude": "73.5642",
    "RegionCode": "SONG",
    "State": "Gujarat",
    "SubRegionCode": "SONG",
    "VenueAddress": "3rd and 4th Floor Krishna Mall, SBI Road, Navagam Fort Songadh Tapi, Near Vijaya Bank, Songadh, Gujarat 394670, India",
    "VenueCode": "KRIC",
    "VenueName": "Sanskruti Krishna Multiplex: Songadh"
  },
  "KRVM": {
    "AvailableFormats": "2D",
    "City": "Kottayi",
    "Latitude": "10.7651",
    "Longitude": "76.5441",
    "RegionCode": "PLKK",
    "State": "Kerala",
    "SubRegionCode": "PLKK",
    "VenueAddress": "Mankara-Palakkad Road, Ayyappankaavu, Kottayi, Kerala 678572, India",
    "VenueCode": "KRVM",
    "VenueName": "KRV Movies: Kottayi"
  },
  "KSSB": {
    "AvailableFormats": "2D",
    "City": "Durg",
    "Latitude": "21.1646",
    "Longitude": "81.2613",
    "RegionCode": "DURG",
    "State": "Chhattisgarh",
    "SubRegionCode": "DURG",
    "VenueAddress": "Mahalaxmi Market, Mini Mata Chowk, Pulgaon, Near Kapada Market, Durg, Chhattisgarh 491001, India",
    "VenueCode": "KSSB",
    "VenueName": "K Sera Sera Miniplex: Durg"
  },
  "KTEK": {
    "AvailableFormats": "2D",
    "City": "Kochi",
    "Latitude": "9.97858",
    "Longitude": "76.2826",
    "RegionCode": "PALY",
    "State": "Kerala",
    "SubRegionCode": "PALY",
    "VenueAddress": "Paza Hotel, Mahatma Gandhi Road, Shenoys - Ernakulam, Near Abad, Kochi, Kerala 682011, India",
    "VenueCode": "KTEK",
    "VenueName": "Kavitha Theatre 4K 3D Dolby 7.1: Ernakulam"
  },
  "KVSW": {
    "AvailableFormats": "2D",
    "City": "Chhatrapati Sambhajinagar (Aurangabad)",
    "Latitude": "19.8379",
    "Longitude": "75.2524",
    "RegionCode": "AURA",
    "State": "Maharashtra",
    "SubRegionCode": "AURA",
    "VenueAddress": "Khinvasara Business centre lot No. X-310/1 MIDC Waluj, More Chawk, Beside Police station, Chhatrapati Sambhaji Nagar, Chhatrapati Sambhajinagar (Aurangabad), Maharashtra 431136, India",
    "VenueCode": "KVSW",
    "VenueName": "Khinvasara Cineplex: Waluj"
  },
  "LCBK": {
    "AvailableFormats": "2D",
    "City": "Kolkata",
    "Latitude": "22.7273",
    "Longitude": "88.48",
    "RegionCode": "BSRT",
    "State": "West Bengal",
    "SubRegionCode": "BSRT",
    "VenueAddress": "Krishnanagar Road, Norpara Halabot Tala, Barasat, Opposite Union Bank Of India Barasat Branch, Kolkata, West Bengal 700125, India",
    "VenueCode": "LCBK",
    "VenueName": "Lali Cinema: Barasat"
  },
  "LCSO": {
    "AvailableFormats": "2D",
    "City": "Ottapalam",
    "Latitude": "10.7734",
    "Longitude": "76.4259",
    "RegionCode": "PLKK",
    "State": "Kerala",
    "SubRegionCode": "PLKK",
    "VenueAddress": "Ponnani Road, Lakkidi Koottupatha, Ottapalam, Kerala 679301, India",
    "VenueCode": "LCSO",
    "VenueName": "Ladder Cinemas: Ottapalam - 4k Dolby Atmos/2k 7.1"
  },
  "LICL": {
    "AvailableFormats": "2D",
    "City": "Kolkata",
    "Latitude": "22.3431",
    "Longitude": "88.4554",
    "RegionCode": "KOLK",
    "State": "West Bengal",
    "SubRegionCode": "KOLK",
    "VenueAddress": "Baruipur - Champahati - Ghatakpukur Road, Phooltala Gate No.2, West Road South Par, Santoshpur, Baruipur - Canning Road, Kolkata, West Bengal 743387, India",
    "VenueCode": "LICL",
    "VenueName": "Lila Cinema: Baruipur"
  },
  "LKRT": {
    "AvailableFormats": "2D",
    "City": "Korutla",
    "Latitude": "18.8266",
    "Longitude": "78.7124",
    "RegionCode": "KCKA",
    "State": "Telangana",
    "SubRegionCode": "KCKA",
    "VenueAddress": "Indira Road, Raheempura, Korutla, Telangana 505326, India",
    "VenueCode": "LKRT",
    "VenueName": "Laxmi AC Deluxe Theatre: Korutla"
  },
  "LMCR": {
    "AvailableFormats": "2D",
    "City": "Rohtak",
    "Latitude": "28.8906",
    "Longitude": "76.6042",
    "RegionCode": "ROH",
    "State": "Haryana",
    "SubRegionCode": "ROH",
    "VenueAddress": "Liberty Theatre, Delhi Road, Rohtak, Haryana 124001, India",
    "VenueCode": "LMCR",
    "VenueName": "Liberty Mycinemas: Rohtak"
  },
  "LRCP": {
    "AvailableFormats": "2D",
    "City": "Rampachodavaram",
    "Latitude": "17.439",
    "Longitude": "81.7737",
    "RegionCode": "RACD",
    "State": "Andhra Pradesh",
    "SubRegionCode": "RACD",
    "VenueAddress": "Rajahmundry - Bhadrachalam Highway, Near Tea Turn, Rampachodavaram, Andhra Pradesh 533288, India",
    "VenueCode": "LRCP",
    "VenueName": "Lalitha Talkies 2K A/C DTS: Rampachodavaram"
  },
  "LXCY": {
    "AvailableFormats": "2D",
    "City": "Yeola",
    "Latitude": "20.0442",
    "Longitude": "74.4859",
    "RegionCode": "YEOL",
    "State": "Maharashtra",
    "SubRegionCode": "YEOL",
    "VenueAddress": "Pardeshi Complex, Shani Patangan, Near Bus Stand, Yeola, Maharashtra 423401, India",
    "VenueCode": "LXCY",
    "VenueName": "Laxmi Cineplex: Yeola"
  },
  "MABC": {
    "AvailableFormats": "2D|3D",
    "City": "Ahmedabad",
    "Latitude": "23.1202",
    "Longitude": "72.5704",
    "RegionCode": "AHD",
    "State": "Gujarat",
    "SubRegionCode": "AHD",
    "VenueAddress": "Near KB Royal Pheonix, Opposite AMC Garden Chandkheda, Ahmedabad, Gujarat 382424, India",
    "VenueCode": "MABC",
    "VenueName": "Mukta A2 Cinemas: Chandkheda"
  },
  "MADC": {
    "AvailableFormats": "2D",
    "City": "Badnagar",
    "Latitude": "23.0591",
    "Longitude": "75.3722",
    "RegionCode": "BADA",
    "State": "Madhya Pradesh",
    "SubRegionCode": "BADA",
    "VenueAddress": "Swastik Enterprises, Diversion Road, Court Choraha, Badnagar, Madhya Pradesh 456771, India",
    "VenueCode": "MADC",
    "VenueName": "Madhuram Cineplex (The Box) Badnagar: Ujjain"
  },
  "MAJT": {
    "AvailableFormats": "2D",
    "City": "Kochi",
    "Latitude": "10.0448",
    "Longitude": "76.2176",
    "RegionCode": "PALY",
    "State": "Kerala",
    "SubRegionCode": "PALY",
    "VenueAddress": "Vypin - Pallipuram Road, Narakkal, Njarackal Ernakulam, Near Narakkal Gramapanchayath Karyalayam, Kochi, Kerala 682505, India",
    "VenueCode": "MAJT",
    "VenueName": "Majestic Multiplex 4K RGB Laser: Narakkal"
  },
  "MATK": {
    "AvailableFormats": "2D|3D",
    "City": "Pune",
    "Latitude": "18.5189",
    "Longitude": "73.9357",
    "RegionCode": "PUNE",
    "State": "Maharashtra",
    "SubRegionCode": "PUNE",
    "VenueAddress": "MovieMax, Amanora Town Centre, Amanora Park Town, Hadapsar, Pune, Maharashtra 411028, India",
    "VenueCode": "MATK",
    "VenueName": "MovieMax: Amanora Town Centre, Pune(Now Renovated)"
  },
  "MBBT": {
    "AvailableFormats": "2D",
    "City": "Kasaragod",
    "Latitude": "12.5024",
    "Longitude": "74.9892",
    "RegionCode": "KASA",
    "State": "Kerala",
    "SubRegionCode": "KASA",
    "VenueAddress": "KPR Rao Road, Kasaragod, Kasaragod, Kerala 671121, India",
    "VenueCode": "MBBT",
    "VenueName": "Magic Frames Mehboob Theatre Complex 4K: Kasaragod"
  },
  "MCAN": {
    "AvailableFormats": "3D|2D",
    "City": "Ulhasnagar",
    "Latitude": "19.2083",
    "Longitude": "73.1966",
    "RegionCode": "MUMBAI",
    "State": "Maharashtra",
    "SubRegionCode": "ULHA",
    "VenueAddress": "854, Kalyan - Badlapur Road, Wimco Naka Matoshree Nagar, Ambernath, Ulhasnagar, Maharashtra 421505, India",
    "VenueCode": "MCAN",
    "VenueName": "Miraj Cinemas, Star: Ambernath"
  },
  "MCDA": {
    "AvailableFormats": "2D",
    "City": "Dalli Rajhara",
    "Latitude": "20.5958",
    "Longitude": "81.0725",
    "RegionCode": "DALL",
    "State": "Chhattisgarh",
    "SubRegionCode": "DALL",
    "VenueAddress": "Chiklakasa, Durga Dalli Rajhara Road, Near Chikhlakasa Petrol Pump, Dalli Rajhara, Chhattisgarh 491228, India",
    "VenueCode": "MCDA",
    "VenueName": "Mathur Cineplex: Dalli Rajhara"
  },
  "MCGS": {
    "AvailableFormats": "2D",
    "City": "Gadhinglaj",
    "Latitude": "16.2176",
    "Longitude": "74.351",
    "RegionCode": "KOLH",
    "State": "Maharashtra",
    "SubRegionCode": "KOLH",
    "VenueAddress": "Doctor`s Colony, Gadinglaj Chandgad Road, Gadhinglaj, Maharashtra 416502, India",
    "VenueCode": "MCGS",
    "VenueName": "Maratha Chitra Mandir: Gadhinglaj"
  },
  "MCKT": {
    "AvailableFormats": "",
    "City": "Hyderabad",
    "Latitude": "17.3696",
    "Longitude": "78.5396",
    "RegionCode": "HYD",
    "State": "Telangana",
    "SubRegionCode": "HYD",
    "VenueAddress": "Laxmi Nagar Colony, Kothapet Road, Near Axis Bank, Hyderabad, Telangana 500102, India",
    "VenueCode": "MCKT",
    "VenueName": "Mahalaxmi Complex: Kothapet"
  },
  "MCNR": {
    "AvailableFormats": "",
    "City": "Raipur",
    "Latitude": "21.1704",
    "Longitude": "81.7708",
    "RegionCode": "RAIPUR",
    "State": "Chhattisgarh",
    "SubRegionCode": "RAIPUR",
    "VenueAddress": "GS Entertainment, 4th Floor, Block E9-B, Retail Complex, Central Business District, Sector - 21, Nava Raipur Atal Nagar, Raipur, Chhattisgarh 492101, India",
    "VenueCode": "MCNR",
    "VenueName": "Miraj Cinemas: CBD, Nava Raipur"
  },
  "MCSK": {
    "AvailableFormats": "",
    "City": "Chennai",
    "Latitude": "12.9059",
    "Longitude": "80.2092",
    "RegionCode": "CHEN",
    "State": "Tamil Nadu",
    "SubRegionCode": "CHEN",
    "VenueAddress": "Sekaran Mall, 4th and 5th Floor, Survey No.452(3), Village Perumbakkam, Taluk Sholinganallur, Kancheepuram, Chennai, Tamil Nadu 600100, India",
    "VenueCode": "MCSK",
    "VenueName": "Miraj Cinemas: Sekaran Mall, Perrumbakkam"
  },
  "MCTY": {
    "AvailableFormats": "2D|3D",
    "City": "Indore",
    "Latitude": "22.7451",
    "Longitude": "75.9038",
    "RegionCode": "IND",
    "State": "Madhya Pradesh",
    "SubRegionCode": "IND",
    "VenueAddress": "Miraj Velocity Multiplex, Scheme 94C, Ring Road Indore, Near Radisson Hotel, Indore, Madhya Pradesh 452010, India",
    "VenueCode": "MCTY",
    "VenueName": "Velocity III: Miraj Cinemas, Indore"
  },
  "MDDC": {
    "AvailableFormats": "",
    "City": "Delhi",
    "Latitude": "28.6752",
    "Longitude": "77.288",
    "RegionCode": "NCR",
    "State": "NCR",
    "SubRegionCode": "DELHI",
    "VenueAddress": "Miraj Cinema Shahdara, Plot no.-813/1,G.T.Road, 2nd Floor, Vikash Mall, Shahdara, Delhi, NCR 110032, India",
    "VenueCode": "MDDC",
    "VenueName": "Miraj Cinemas: Vikas Cinemall, Shahdara"
  },
  "MELD": {
    "AvailableFormats": "2D",
    "City": "Vizag (Visakhapatnam)",
    "Latitude": "17.7113",
    "Longitude": "83.3005",
    "RegionCode": "SABB",
    "State": "Andhra Pradesh",
    "SubRegionCode": "SABB",
    "VenueAddress": "Suryabagh, Jagadamba Junction, V Max Theatre, Vizag, Andhra Pradesh 530020, India",
    "VenueCode": "MELD",
    "VenueName": "Sri Melody HDR Dolby Atmos: Vizag"
  },
  "METH": {
    "AvailableFormats": "2D|3D",
    "City": "Ahmedabad",
    "Latitude": "23.1027",
    "Longitude": "72.5952",
    "RegionCode": "AHD",
    "State": "Gujarat",
    "SubRegionCode": "AHD",
    "VenueAddress": "4D Square Mall, Visat - Gandhinagar Highway, Ahmedabad, Gujarat 380005, India",
    "VenueCode": "METH",
    "VenueName": "PVR: Motera, Ahmedabad"
  },
  "MHKT": {
    "AvailableFormats": "2D",
    "City": "Kanpur",
    "Latitude": "26.4673",
    "Longitude": "80.3172",
    "RegionCode": "KANP",
    "State": "Uttar Pradesh",
    "SubRegionCode": "KANP",
    "VenueAddress": "1st Floor Ratan Himachal Mall Ghumti No-5, Naseemabad Road, Kaushalpuri Darshan Purwa, Kanpur, Uttar Pradesh 208012, India",
    "VenueCode": "MHKT",
    "VenueName": "Movietime Cinemas: Ratan Himachal Mall, Kanpur"
  },
  "MIRN": {
    "AvailableFormats": "2D|3D",
    "City": "Nandurbar",
    "Latitude": "21.3537",
    "Longitude": "74.2424",
    "RegionCode": "NDNB",
    "State": "Maharashtra",
    "SubRegionCode": "NDNB",
    "VenueAddress": "Nandurbar Business Centre, S. No 387/2, Surat Bypass Road, Nandurbar, Maharashtra 425412, India",
    "VenueCode": "MIRN",
    "VenueName": "Miraj Cinemas: NBC, Nandurbar"
  },
  "MJMM": {
    "AvailableFormats": "",
    "City": "Gurugram (Gurgaon)",
    "Latitude": "28.4793",
    "Longitude": "77.0829",
    "RegionCode": "NCR",
    "State": "NCR",
    "SubRegionCode": "GURG",
    "VenueAddress": "2nd Floor, MGF Metropolis Mall, Near MG Metro Station, Mehrauli-Gurgaon Road, Sector 28, Gurugram (Gurgaon), NCR 122002, India",
    "VenueCode": "MJMM",
    "VenueName": "Miraj Maximum: Metropollis Mall, Gurgaon"
  },
  "MLAM": {
    "AvailableFormats": "2D",
    "City": "Siliguri",
    "Latitude": "26.7299",
    "Longitude": "88.4321",
    "RegionCode": "SILI",
    "State": "West Bengal",
    "SubRegionCode": "SILI",
    "VenueAddress": "6th Floor, Himalayan Builders, ML Acropolis Mall, Sevoke Road, 2nd Mile, Opposite - Anandalok Hospital, Siliguri, West Bengal 734001, India",
    "VenueCode": "MLAM",
    "VenueName": "INOX: ML Acropolis Mall, Siliguri"
  },
  "MMAH": {
    "AvailableFormats": "2D|3D",
    "City": "Hyderabad",
    "Latitude": "17.4631",
    "Longitude": "78.5607",
    "RegionCode": "HYD",
    "State": "Telangana",
    "SubRegionCode": "HYD",
    "VenueAddress": "AMR Planet Mall,1,Rd,373/1 and 373.3, Trimulgherry, ECIL Road, Extn -  Moula Ali, Secunderabad, Extn - Moula Ali, Secunderabad, Hyderabad, Telangana 500040, India",
    "VenueCode": "MMAH",
    "VenueName": "MovieMax: AMR, ECIL Secunderabad"
  },
  "MMEN": {
    "AvailableFormats": "3D|2D",
    "City": "Nagpur",
    "Latitude": "21.143",
    "Longitude": "79.0803",
    "RegionCode": "NAGP",
    "State": "Maharashtra",
    "SubRegionCode": "NAGP",
    "VenueAddress": "MovieMax, 4th Floor, Variety Square, Sitabuldi, Nagpur, Maharashtra 440012, India",
    "VenueCode": "MMEN",
    "VenueName": "MovieMax: Eternity, Nagpur"
  },
  "MMMX": {
    "AvailableFormats": "2D",
    "City": "Ajmer",
    "Latitude": "26.4832",
    "Longitude": "74.665",
    "RegionCode": "AJMER",
    "State": "Rajasthan",
    "SubRegionCode": "AJMER",
    "VenueAddress": "Opposite Forest Department, Jaipur Road, Near Hyundai Showroom, Ajmer, Rajasthan 305001, India",
    "VenueCode": "MMMX",
    "VenueName": "MayaMandir Multiplex (Dolby Atmos Sound): Ajmer"
  },
  "MMVI": {
    "AvailableFormats": "2D",
    "City": "Irinjalakuda",
    "Latitude": "10.3507",
    "Longitude": "76.2139",
    "RegionCode": "THSR",
    "State": "Kerala",
    "SubRegionCode": "THSR",
    "VenueAddress": "Njavarikulam Road, Irinjalakuda, Near Chembakassery MultiMall, Irinjalakuda, Kerala 680121, India",
    "VenueCode": "MMVI",
    "VenueName": "Mas Movies Irinjalakuda"
  },
  "MNCV": {
    "AvailableFormats": "2D",
    "City": "Chevella",
    "Latitude": "17.3116",
    "Longitude": "78.138",
    "RegionCode": "CHEV",
    "State": "Telangana",
    "SubRegionCode": "CHEV",
    "VenueAddress": "Survey No.5/3 Part, Main Road, Near Aloor Chevella Vegetable Market, Chevella, Telangana 501503, India",
    "VenueCode": "MNCV",
    "VenueName": "Manikanta Theatre 70mm AC Dolby Atmos 2K: Chevella"
  },
  "MPDB": {
    "AvailableFormats": "3D|2D",
    "City": "Bhubaneswar",
    "Latitude": "20.2962",
    "Longitude": "85.835",
    "RegionCode": "JATN",
    "State": "Odisha",
    "SubRegionCode": "JATN",
    "VenueAddress": "Bhoi Nagar, Service Road, Vani Vihar, Near Sky Automobile, Bhubaneswar, Odisha 751022, India",
    "VenueCode": "MPDB",
    "VenueName": "Maharaja (Christie 4K, DOLBY ATMOS 64 CHANNEL)"
  },
  "MRGB": {
    "AvailableFormats": "2D",
    "City": "Bengaluru",
    "Latitude": "12.8906",
    "Longitude": "77.5622",
    "RegionCode": "BANG",
    "State": "Karnataka",
    "SubRegionCode": "BANG",
    "VenueAddress": "No 21/5A, Konanakunte Cross Marg, Konanakunte, Bengaluru, Karnataka 560062, India",
    "VenueCode": "MRGB",
    "VenueName": "Manasa RGB Laser ATMOS: Konanakunte"
  },
  "MRSW": {
    "AvailableFormats": "2D|3D",
    "City": "Vadodara",
    "Latitude": "22.2803",
    "Longitude": "73.1497",
    "RegionCode": "VAD",
    "State": "Gujarat",
    "SubRegionCode": "VAD",
    "VenueAddress": "Plot No. 28, Ward No. 11, Next to Sun Pharma Research Center, Sun Pharma Road, Soudagar Park, Tandalja, Vadodara, Gujarat 390012, India",
    "VenueCode": "MRSW",
    "VenueName": "Miraj Cinemas: SWC Mall"
  },
  "MSMC": {
    "AvailableFormats": "2D",
    "City": "Biaora",
    "Latitude": "23.927",
    "Longitude": "76.9134",
    "RegionCode": "BIAR",
    "State": "Madhya Pradesh",
    "SubRegionCode": "BIAR",
    "VenueAddress": "NH2, Old AB Road, Krishna Puram Colony, Biaora, Madhya Pradesh 465674, India",
    "VenueCode": "MSMC",
    "VenueName": "MSM Cineplex: Biaora"
  },
  "MTCR": {
    "AvailableFormats": "2D|3D",
    "City": "Mumbai",
    "Latitude": "19.0455",
    "Longitude": "72.9031",
    "RegionCode": "MUMBAI",
    "State": "Maharashtra",
    "SubRegionCode": "MCENT",
    "VenueAddress": "Old Basant Cinema, Wadavali Village, Vasant Vihar Complex Road, Vasant Vihar Complex, Chembur, Mumbai, Maharashtra 400074, India",
    "VenueCode": "MTCR",
    "VenueName": "Movietime Cubic Mall: Chembur"
  },
  "MTKR": {
    "AvailableFormats": "2D|3D",
    "City": "Karnal",
    "Latitude": "29.6969",
    "Longitude": "77.0014",
    "RegionCode": "KARN",
    "State": "Haryana",
    "SubRegionCode": "KARN",
    "VenueAddress": "Plot No 1, 4th Floor, Super Mall, Sector 12, Part 1, Karnal, Haryana 132001, India",
    "VenueCode": "MTKR",
    "VenueName": "Movietime Cinemas: Karnal"
  },
  "MTRA": {
    "AvailableFormats": "2D",
    "City": "Mylavaram",
    "Latitude": "16.7576",
    "Longitude": "80.6416",
    "RegionCode": "MYLA",
    "State": "Andhra Pradesh",
    "SubRegionCode": "MYLA",
    "VenueAddress": "Badrachalam Road, Near Shriram City Union Finance, Mylavaram, Andhra Pradesh 521230, India",
    "VenueCode": "MTRA",
    "VenueName": "Sangamithra Theater A/C 2K Dolby: Mylavaram"
  },
  "MUPX": {
    "AvailableFormats": "2D",
    "City": "Mahalingpur",
    "Latitude": "16.3903",
    "Longitude": "75.1067",
    "RegionCode": "MAGP",
    "State": "Karnataka",
    "SubRegionCode": "MAGP",
    "VenueAddress": "CMC No:880/1, Near Neelakanteshwara Temple, Mahalingpur, Karnataka 587312, India",
    "VenueCode": "MUPX",
    "VenueName": "Smart Moviz (Maruthi Cineplex): Mahalingpur"
  },
  "MWSS": {
    "AvailableFormats": "2D",
    "City": "Ghaziabad",
    "Latitude": "28.6828",
    "Longitude": "77.4287",
    "RegionCode": "NCR",
    "State": "NCR",
    "SubRegionCode": "GHAZ",
    "VenueAddress": "1st Floor, Plot No. A-1/1-7,8, 9, 13, 14, 15, 16 and 17, Site-III, Sihani Chungi, Meerut Road, Ghaziabad, NCR 201003, India",
    "VenueCode": "MWSS",
    "VenueName": "US Cinemas: Movie World, Sihani Chungi, Ghaziabad"
  },
  "MYAN": {
    "AvailableFormats": "2D|3D",
    "City": "Ahilyanagar (Ahmednagar)",
    "Latitude": "19.1313",
    "Longitude": "74.7301",
    "RegionCode": "AHMED",
    "State": "Maharashtra",
    "SubRegionCode": "AHMED",
    "VenueAddress": "Pipeline Road, Savedi, Ahilyanagar (Ahmednagar), Maharashtra 414003, India",
    "VenueCode": "MYAN",
    "VenueName": "MY Cinema: Ahilya Nagar"
  },
  "MYHJ": {
    "AvailableFormats": "2D",
    "City": "Karunagapally",
    "Latitude": "9.04943",
    "Longitude": "76.5355",
    "RegionCode": "KARG",
    "State": "Kerala",
    "SubRegionCode": "KARG",
    "VenueAddress": "Level 3, H and J Complex Mall, Lalaji Junction, Kollam, Near Municipal Office, Karunagapally, Kerala 690518, India",
    "VenueCode": "MYHJ",
    "VenueName": "MY Cinemas, H&J Complex: Karunagapally"
  },
  "NAGO": {
    "AvailableFormats": "2D",
    "City": "Nagaur",
    "Latitude": "27.1957",
    "Longitude": "73.7501",
    "RegionCode": "NAGR",
    "State": "Rajasthan",
    "SubRegionCode": "NAGR",
    "VenueAddress": "NH 65, Hanuman Bagh Colony,Bassi Mohalla, Nagaur, Rajasthan 341001, India",
    "VenueCode": "NAGO",
    "VenueName": "Laxmi Tara Cinema: Nagaur"
  },
  "NCHJ": {
    "AvailableFormats": "2D",
    "City": "Hajipur",
    "Latitude": "25.6942",
    "Longitude": "85.215",
    "RegionCode": "HAJI",
    "State": "Bihar",
    "SubRegionCode": "HAJI",
    "VenueAddress": "Ram Balak Chowk, Naveen Cinema Road, JP Colony, Yadav Nagar, Near Commmunity Hall, Hajipur, Bihar 844101, India",
    "VenueCode": "NCHJ",
    "VenueName": "Navin Cinema: Hajipur"
  },
  "NCSQ": {
    "AvailableFormats": "3D|2D",
    "City": "Guwahati",
    "Latitude": "26.1584",
    "Longitude": "91.6804",
    "RegionCode": "GUW",
    "State": "Assam",
    "SubRegionCode": "GUW",
    "VenueAddress": "PVR Limited, NCS Square Mall, A.T Road, Adabari, Guwahati, Assam 781012, India",
    "VenueCode": "NCSQ",
    "VenueName": "INOX: NCS Square, Guwahati"
  },
  "NEWS": {
    "AvailableFormats": "2D",
    "City": "Bhawanipatna",
    "Latitude": "19.9265",
    "Longitude": "83.1518",
    "RegionCode": "BHAW",
    "State": "Odisha",
    "SubRegionCode": "BHAW",
    "VenueAddress": "Bhawanipatna - Raipur Highway, Parmanandapur, Opposite of OMFED Dairy, Bhawanipatna, Odisha 766002, India",
    "VenueCode": "NEWS",
    "VenueName": "New Star Cineplex: Bhawanipatna"
  },
  "NLTC": {
    "AvailableFormats": "2D",
    "City": "Chennai",
    "Latitude": "12.9291",
    "Longitude": "80.1147",
    "RegionCode": "CHEN",
    "State": "Tamil Nadu",
    "SubRegionCode": "CHEN",
    "VenueAddress": "Rajaji Road, West Tambaram, Near Lenovo Store, Chennai, Tamil Nadu 600045, India",
    "VenueCode": "NLTC",
    "VenueName": "National Theatre 4K Dolby Atmos: Tambaram"
  },
  "NNNX": {
    "AvailableFormats": "2D",
    "City": "Thane",
    "Latitude": "19.3042",
    "Longitude": "73.0581",
    "RegionCode": "MUMBAI",
    "State": "Maharashtra",
    "SubRegionCode": "THNE",
    "VenueAddress": "267, Bazaar Peth Road, Nazarana Compound, Gokul Nagar, Bhiwandi, Thane, Maharashtra 421302, India",
    "VenueCode": "NNNX",
    "VenueName": "Nazrana Cinema: Bhiwandi"
  },
  "NSBR": {
    "AvailableFormats": "2D|3D",
    "City": "Bengaluru",
    "Latitude": "13.0183",
    "Longitude": "77.7625",
    "RegionCode": "HOKT",
    "State": "Karnataka",
    "SubRegionCode": "HOKT",
    "VenueAddress": "Inox Leisure Ltd., Leisure Ltd., 2nd Floor, SBR Horizon, Seegehalli, Whitefield-Hoskote Road, Bengaluru, Karnataka 560067, India",
    "VenueCode": "NSBR",
    "VenueName": "INOX:SBR Horizon, Seegehalli Whitefield-Hoskote Rd"
  },
  "NTHS": {
    "AvailableFormats": "2D",
    "City": "Sirsi",
    "Latitude": "14.6172",
    "Longitude": "74.8333",
    "RegionCode": "SRSI",
    "State": "Karnataka",
    "SubRegionCode": "SRSI",
    "VenueAddress": "SH 93, CP Bazar, Sirsi, Karnataka 581401, India",
    "VenueCode": "NTHS",
    "VenueName": "Nataraj Talkies: Sirsi, Karnataka"
  },
  "NVKH": {
    "AvailableFormats": "2D",
    "City": "Khajuraho",
    "Latitude": "24.8707",
    "Longitude": "79.9194",
    "RegionCode": "KHRH",
    "State": "Madhya Pradesh",
    "SubRegionCode": "KHRH",
    "VenueAddress": "Opp. Mata Mandir, Rajnagar, Khajuraho, Madhya Pradesh 471606, India",
    "VenueCode": "NVKH",
    "VenueName": "NVR Cinemas: Khajuraho"
  },
  "NWCC": {
    "AvailableFormats": "2D",
    "City": "Nainital",
    "Latitude": "29.3902",
    "Longitude": "79.4548",
    "RegionCode": "NAIN",
    "State": "Uttarakhand",
    "SubRegionCode": "NAIN",
    "VenueAddress": "Jubilee Hall Apartments, Mall Road,Mallital, Opp Nainital Stadium, Nainital, Uttarakhand 263002, India",
    "VenueCode": "NWCC",
    "VenueName": "New Capitol Cinema: Nainital"
  },
  "NYCH": {
    "AvailableFormats": "2D",
    "City": "Kanpur",
    "Latitude": "26.4617",
    "Longitude": "80.3593",
    "RegionCode": "KANP",
    "State": "Uttar Pradesh",
    "SubRegionCode": "KANP",
    "VenueAddress": "63/1A, Heer Palace,Sadr Bazaar, The Mall, Kanpur, Uttar Pradesh 208001, India",
    "VenueCode": "NYCH",
    "VenueName": "NY Cinemas: Heer Palace, Kanpur"
  },
  "NYTO": {
    "AvailableFormats": "2D",
    "City": "Aurangabad (Bihar)",
    "Latitude": "24.7466",
    "Longitude": "84.3803",
    "RegionCode": "AUBI",
    "State": "Bihar",
    "SubRegionCode": "AUBI",
    "VenueAddress": "Narendra Talkies, Yamunanagar Road, Aurangabad (Bihar), Bihar 824101, India",
    "VenueCode": "NYTO",
    "VenueName": "Narendra Talkies: Aurangabad"
  },
  "OMTP": {
    "AvailableFormats": "2D",
    "City": "Pandharkawada",
    "Latitude": "20.0224",
    "Longitude": "78.5446",
    "RegionCode": "PANR",
    "State": "Maharashtra",
    "SubRegionCode": "PANR",
    "VenueAddress": "Gandhi Ward, Ram Mandir Road, Pandharkawada, Maharashtra 445302, India",
    "VenueCode": "OMTP",
    "VenueName": "Om Cineplex: Pandharkawada"
  },
  "PAAD": {
    "AvailableFormats": "2D",
    "City": "Shadnagar",
    "Latitude": "17.0714",
    "Longitude": "78.2094",
    "RegionCode": "SHAD",
    "State": "Telangana",
    "SubRegionCode": "SHAD",
    "VenueAddress": "Christian Colony, Near Shadnagar Registration Office, Shadnagar, Telangana 509216, India",
    "VenueCode": "PAAD",
    "VenueName": "Parameswara 70MM: Shadnagar"
  },
  "PAJA": {
    "AvailableFormats": "",
    "City": "Agra",
    "Latitude": "27.2051",
    "Longitude": "78.0049",
    "RegionCode": "AGRA",
    "State": "Uttar Pradesh",
    "SubRegionCode": "AGRA",
    "VenueAddress": "Anjana Central Mall, 4th Floor, 3/2D Anjana Cinema Ghar, Lashkarpur, MG Road, Agra, Uttar Pradesh 282002, India",
    "VenueCode": "PAJA",
    "VenueName": "PVR: Anjana Mall, Agra"
  },
  "PBLL": {
    "AvailableFormats": "2D|3D",
    "City": "Faridabad",
    "Latitude": "28.388",
    "Longitude": "77.3215",
    "RegionCode": "NCR",
    "State": "NCR",
    "SubRegionCode": "FARI",
    "VenueAddress": "4th Floor, Pebble Down Town Mall, Sector 12, Faridabad, NCR 121007, India",
    "VenueCode": "PBLL",
    "VenueName": "PVR: Pebble Downtown Sec-12, Faridabad"
  },
  "PCBB": {
    "AvailableFormats": "",
    "City": "Biaora",
    "Latitude": "23.9174",
    "Longitude": "76.9178",
    "RegionCode": "BIAR",
    "State": "Madhya Pradesh",
    "SubRegionCode": "BIAR",
    "VenueAddress": "Puneet Movie Max Cinema, Old Suthaliya Road, Biaora (Rajgarh), Biaora, Madhya Pradesh 465674, India",
    "VenueCode": "PCBB",
    "VenueName": "Punit Movie Max (AC): Biaora"
  },
  "PCEL": {
    "AvailableFormats": "",
    "City": "Delhi",
    "Latitude": "28.6958",
    "Longitude": "77.1531",
    "RegionCode": "NCR",
    "State": "NCR",
    "SubRegionCode": "DELHI",
    "VenueAddress": "3rd Floor, One Unity Elegante Mall, NSP, Pitampura, Delhi, NCR 110034, India",
    "VenueCode": "PCEL",
    "VenueName": "PVR: Cinemagic, Unity One Elegante, NSP, Pitampura"
  },
  "PCMA": {
    "AvailableFormats": "2D",
    "City": "Manali",
    "Latitude": "32.2396",
    "Longitude": "77.1882",
    "RegionCode": "MANA",
    "State": "Himachal Pradesh",
    "SubRegionCode": "MANA",
    "VenueAddress": "The Mall Road, Near Indian Petrol Bunk, Manali, Himachal Pradesh 175131, India",
    "VenueCode": "PCMA",
    "VenueName": "Piccadily Multiplex: Manali"
  },
  "PCPY": {
    "AvailableFormats": "2D",
    "City": "Moyna",
    "Latitude": "22.2447",
    "Longitude": "87.7882",
    "RegionCode": "MAYN",
    "State": "West Bengal",
    "SubRegionCode": "MAYN",
    "VenueAddress": "Anandapur, District Purba Mednipur, Moyna, West Bengal 721629, India",
    "VenueCode": "PCPY",
    "VenueName": "Priya Cineplex: Moyna (Dolby 5.1)"
  },
  "PCWN": {
    "AvailableFormats": "2D",
    "City": "Pulpally",
    "Latitude": "11.7986",
    "Longitude": "76.1633",
    "RegionCode": "PULP",
    "State": "Kerala",
    "SubRegionCode": "PULP",
    "VenueAddress": "Staff Quarters, Pulpally Mullenkolly, Near BSNL Exchange, Pulpally, Kerala 673579, India",
    "VenueCode": "PCWN",
    "VenueName": "Penta Cinemas: Pulpally"
  },
  "PDEI": {
    "AvailableFormats": "3D|2D",
    "City": "Delhi",
    "Latitude": "28.5679",
    "Longitude": "77.2411",
    "RegionCode": "NCR",
    "State": "NCR",
    "SubRegionCode": "DELHI",
    "VenueAddress": "15, Feroze Gandhi Marg, Lajpat Nagar III, Near Lajpat Nagar Police Station, Delhi, NCR 110024, India",
    "VenueCode": "PDEI",
    "VenueName": "PVR: 3CS Lajpat Nagar, Delhi"
  },
  "PECD": {
    "AvailableFormats": "2D|3D",
    "City": "Delhi",
    "Latitude": "28.5842",
    "Longitude": "77.1907",
    "RegionCode": "NCR",
    "State": "NCR",
    "SubRegionCode": "DELHI",
    "VenueAddress": "PVR YPCC Mall, Yashwant Palace, Chanakyapuri, Delhi, NCR 110021, India",
    "VenueCode": "PECD",
    "VenueName": "PVR: ECX Chanakyapuri, Delhi"
  },
  "PFJJ": {
    "AvailableFormats": "2D|3D",
    "City": "Jalandhar",
    "Latitude": "31.3244",
    "Longitude": "75.5786",
    "RegionCode": "JALA",
    "State": "Punjab",
    "SubRegionCode": "JALA",
    "VenueAddress": "Old Post Office Road, Opposite Roxy Hotel, Jalandhar, Punjab 144001, India",
    "VenueCode": "PFJJ",
    "VenueName": "PVR: Friends, Jalandhar"
  },
  "PGND": {
    "AvailableFormats": "2D|3D",
    "City": "Greater Noida",
    "Latitude": "28.6061",
    "Longitude": "77.4294",
    "RegionCode": "NCR",
    "State": "NCR",
    "SubRegionCode": "GRET",
    "VenueAddress": "4th Floor, Gaur City Mall, Plot No. C-01B-GH-01, Sector 4, Greater Noida, NCR 201301, India",
    "VenueCode": "PGND",
    "VenueName": "PVR: Gaur City, Greater Noida"
  },
  "PICP": {
    "AvailableFormats": "2D",
    "City": "Perinthalmanna",
    "Latitude": "10.976190",
    "Longitude": "76.217047",
    "RegionCode": "PNTM",
    "State": "Kerala",
    "SubRegionCode": "PNTM",
    "VenueAddress": "Marketcity Mall, Kozhikode Road, Perinthalmanna, Kerala 679322, India",
    "VenueCode": "PICP",
    "VenueName": "Palaxi Cinemas: Perinthalmanna"
  },
  "PJCP": {
    "AvailableFormats": "2D|3D",
    "City": "Ranchi",
    "Latitude": "23.3786",
    "Longitude": "85.3148",
    "RegionCode": "RANC",
    "State": "Jharkhand",
    "SubRegionCode": "RANC",
    "VenueAddress": "3rd Floor, Mall of Ranchi, Ratu Road Chowk, Opposite Akashwani Kendra, Ranchi, Jharkhand 834001, India",
    "VenueCode": "PJCP",
    "VenueName": "PJP Cinemas: Mall of Ranchi"
  },
  "PKCM": {
    "AvailableFormats": "2D",
    "City": "Ranchi",
    "Latitude": "23.3809",
    "Longitude": "85.3",
    "RegionCode": "RANC",
    "State": "Jharkhand",
    "SubRegionCode": "RANC",
    "VenueAddress": "Galaxia Mall, Ratu Road, Ranchi, Jharkhand 834005, India",
    "VenueCode": "PKCM",
    "VenueName": "Popkorn Cinemas: Galaxia Mall, Ranchi"
  },
  "PLAK": {
    "AvailableFormats": "2D",
    "City": "Karkala",
    "Latitude": "13.2142",
    "Longitude": "74.9999",
    "RegionCode": "KARK",
    "State": "Karnataka",
    "SubRegionCode": "KARK",
    "VenueAddress": "Market Road, Near Karnataka Bank, Opposite Corporation Bank, Karkala, Karnataka 574104, India",
    "VenueCode": "PLAK",
    "VenueName": "Planet Cinema: A/C Digital (Karkala)"
  },
  "PMAK": {
    "AvailableFormats": "3D|2D",
    "City": "Anand",
    "Latitude": "22.542",
    "Longitude": "72.9472",
    "RegionCode": "AND",
    "State": "Gujarat",
    "SubRegionCode": "AND",
    "VenueAddress": "2nd Floor, Maruti Solaris Mall, Anand Sojitara Road, Anand, Gujarat 380001, India",
    "VenueCode": "PMAK",
    "VenueName": "PVR: Maruti Solaris, Anand"
  },
  "PMKM": {
    "AvailableFormats": "3D|2D|4DX",
    "City": "Mumbai",
    "Latitude": "19.087",
    "Longitude": "72.8903",
    "RegionCode": "MUMBAI",
    "State": "Maharashtra",
    "SubRegionCode": "MCENT",
    "VenueAddress": "Phoenix Market City, LBS Marg, Ashok Nagar, Near Kamani Junction, Kurla (W), Mumbai, Maharashtra 400072, India",
    "VenueCode": "PMKM",
    "VenueName": "PVR: Market City, Kurla (Premiere)"
  },
  "PMPU": {
    "AvailableFormats": "2D",
    "City": "Siddhpur",
    "Latitude": "23.9396",
    "Longitude": "72.3646",
    "RegionCode": "SIDD",
    "State": "Gujarat",
    "SubRegionCode": "SIDD",
    "VenueAddress": "Prayosha Plaza, Ahmedabad Palanpur Highway Road, Opposite GIDC, Siddhpur, Gujarat 384151, India",
    "VenueCode": "PMPU",
    "VenueName": "Planet Movieplex: Siddhpur"
  },
  "PNAD": {
    "AvailableFormats": "2D|3D",
    "City": "Delhi",
    "Latitude": "28.6331",
    "Longitude": "77.1387",
    "RegionCode": "NCR",
    "State": "NCR",
    "SubRegionCode": "DELHI",
    "VenueAddress": "Community Center, Goswami Girdhari Lal Marg, Industrial Area Phase I, Block B, Naraina Industrial Area Phase 1, Naraina, Delhi, NCR 110028, India",
    "VenueCode": "PNAD",
    "VenueName": "PVR: Naraina, Delhi"
  },
  "POOR": {
    "AvailableFormats": "2D",
    "City": "Ichchapuram",
    "Latitude": "19.1181",
    "Longitude": "84.6801",
    "RegionCode": "ICPR",
    "State": "Andhra Pradesh",
    "SubRegionCode": "ICPR",
    "VenueAddress": "Thoturu Road, Mandapalli Post, Opposite Basi Auto Work Centre, Ichchapuram, Andhra Pradesh 532312, India",
    "VenueCode": "POOR",
    "VenueName": "Poorna Theatre: Ichchapuram"
  },
  "PPGV": {
    "AvailableFormats": "2D|3D|ICE",
    "City": "Delhi",
    "Latitude": "28.5423",
    "Longitude": "77.1558",
    "RegionCode": "NCR",
    "State": "NCR",
    "SubRegionCode": "DELHI",
    "VenueAddress": "DLF Promenade Mall, 2nd Floor, Phase 2, Nelson Mandela Road, Vasant Kunj, Delhi, NCR 110070, India",
    "VenueCode": "PPGV",
    "VenueName": "PVR: Promenade, Vasant Kunj"
  },
  "PPPD": {
    "AvailableFormats": "2D|3D",
    "City": "Tirupati",
    "Latitude": "13.6341",
    "Longitude": "79.5046",
    "RegionCode": "TIRU",
    "State": "Andhra Pradesh",
    "SubRegionCode": "TIRU",
    "VenueAddress": "Gowri Nagar, GM Street, Tirupati, Andhra Pradesh 517520, India",
    "VenueCode": "PPPD",
    "VenueName": "Padma Picture Palace A/C 4K Dolby Atmos: Renigunta"
  },
  "PRCS": {
    "AvailableFormats": "2D",
    "City": "Hyderabad",
    "Latitude": "17.4396",
    "Longitude": "78.4986",
    "RegionCode": "HYD",
    "State": "Telangana",
    "SubRegionCode": "HYD",
    "VenueAddress": "73, Red Cross Road, Shivaji nagar, Secunderabad, Beside Passport Office, Hyderabad, Telangana 500003, India",
    "VenueCode": "PRCS",
    "VenueName": "Prashant Cinema: Secunderabad (Newly Renovated)"
  },
  "PRHT": {
    "AvailableFormats": "2D",
    "City": "Amravati",
    "Latitude": "20.9311",
    "Longitude": "77.7517",
    "RegionCode": "AMRA",
    "State": "Maharashtra",
    "SubRegionCode": "AMRA",
    "VenueAddress": "Prabhat Talkies, Jawahar Gate Road, Amravati Camp, Behind Mahila Vidyalaya, Amravati, Maharashtra 444602, India",
    "VenueCode": "PRHT",
    "VenueName": "Prabhat Talkies: Amravati"
  },
  "PRTN": {
    "AvailableFormats": "2D",
    "City": "Nandyal",
    "Latitude": "15.4857",
    "Longitude": "78.4871",
    "RegionCode": "NADY",
    "State": "Andhra Pradesh",
    "SubRegionCode": "NADY",
    "VenueAddress": "Atmakur Road, Telugu Peta, Nandyal, Andhra Pradesh 518501, India",
    "VenueCode": "PRTN",
    "VenueName": "Pratap Picture Palace A/C 4K DTS: Nandyal"
  },
  "PSLC": {
    "AvailableFormats": "2D",
    "City": "Bengaluru",
    "Latitude": "12.9259",
    "Longitude": "77.6754",
    "RegionCode": "BANG",
    "State": "Karnataka",
    "SubRegionCode": "BANG",
    "VenueAddress": "Soul Space Spirit Central M all, Outer Ring Road, Bellandur, Bengaluru, Karnataka 560037, India",
    "VenueCode": "PSLC",
    "VenueName": "PVR: Soul Spirit Central Mall, Bellandur"
  },
  "PSPR": {
    "AvailableFormats": "2D|4DX|ICE",
    "City": "Bengaluru",
    "Latitude": "12.8881",
    "Longitude": "77.5629",
    "RegionCode": "BANG",
    "State": "Karnataka",
    "SubRegionCode": "BANG",
    "VenueAddress": "Forum Mall, 3rd Floor, Konanakunte Cross, Kanakapura Road, South Bangalore, Bengaluru, Karnataka 560062, India",
    "VenueCode": "PSPR",
    "VenueName": "PVR: Superplex Forum Mall, Kanakapura Road"
  },