{
  "AACM": {
    "AvailableFormats": "2D",
    "City": "Raniganj",
    "Latitude": "23.6272",
    "Longitude": "87.1138",
    "RegionCode": "RNGJ",
    "State": "West Bengal",
    "SubRegionCode": "RNGJ",
    "VenueAddress": "N S B Road, P/O Raniganj, Raniganj, West Bengal 713347, India",
    "VenueCode": "AACM",
    "VenueName": "Anjana Chitra Mandir: Raniganj"
  },
  "AAPW": {
    "AvailableFormats": "2D",
    "City": "Warangal",
    "Latitude": "18.0077",
    "Longitude": "79.567",
    "RegionCode": "WAR",
    "State": "Telangana",
    "SubRegionCode": "WAR",
    "VenueAddress": "Ashoka A plex, Beside Warangal Hyderabad Highway, Near Govt Juniour College, Warangal, Telangana 506001, India",
    "VenueCode": "AAPW",
    "VenueName": "Asian Ashoka Air-Conditioned: Hanumakonda"
  },
  "ABCR": {
    "AvailableFormats": "",
    "City": "Vijayawada",
    "FirstTracked": "2026-07-14",
    "Latitude": "16.4859",
    "Longitude": "80.6828",
    "RegionCode": "VIJA",
    "State": "Andhra Pradesh",
    "SubRegionCode": "VIJA",
    "VenueAddress": "Elevate Mall, Pune-Machilipatnam Highway, Kanuru, Vijayawada, Andhra Pradesh 520007, India",
    "VenueCode": "ABCR",
    "VenueName": "ABR Cinemas Neo Screen X:  Kanuru, Vijayawada"
  },
  "ABTK": {
    "AvailableFormats": "",
    "City": "Kottayam",
    "Latitude": "9.58599",
    "Longitude": "76.5244",
    "RegionCode": "ETTU",
    "State": "Kerala",
    "SubRegionCode": "ETTU",
    "VenueAddress": "M.C Road, Opp Kalyan Jewellery, Near Asha Theatre, Kottayam, Kerala 686001, India",
    "VenueCode": "ABTK",
    "VenueName": "Abhilash Theatre 4K RGB Laser 3D: Kottayam"
  },
  "ACCD": {
    "AvailableFormats": "2D",
    "City": "Deoria",
    "Latitude": "26.2107",
    "Longitude": "83.9653",
    "RegionCode": "DEEO",
    "State": "Uttar Pradesh",
    "SubRegionCode": "DEEO",
    "VenueAddress": "Mod, Beside Union Bank Of India, Lakhu, Lar, Deoria, Uttar Pradesh 274502, India",
    "VenueCode": "ACCD",
    "VenueName": "Aura Cineplex: Lar, Deoria"
  },
  "ACHV": {
    "AvailableFormats": "2D",
    "City": "Vijayawada",
    "Latitude": "16.5133",
    "Longitude": "80.6259",
    "RegionCode": "VIJA",
    "State": "Andhra Pradesh",
    "SubRegionCode": "VIJA",
    "VenueAddress": "Governor Peta, Eluru Road, Opposite Swarna Mutiplex, Vijayawada, Andhra Pradesh 520002, India",
    "VenueCode": "ACHV",
    "VenueName": "Apsara Cinema House: Vijayawada"
  },
  "ACMG": {
    "AvailableFormats": "2D",
    "City": "Maharajganj",
    "Latitude": "27.1334",
    "Longitude": "83.5203",
    "RegionCode": "RAJG",
    "State": "Uttar Pradesh",
    "SubRegionCode": "RAJG",
    "VenueAddress": "Plot No 188, Mahuawa, NPP Maharajganj, Maharajganj, Uttar Pradesh 273303, India",
    "VenueCode": "ACMG",
    "VenueName": "Anant Cineplex: Maharajganj"
  },
  "ACPM": {
    "AvailableFormats": "2D",
    "City": "Hyderabad",
    "Latitude": "17.4676",
    "Longitude": "78.4282",
    "RegionCode": "HYD",
    "State": "Telangana",
    "SubRegionCode": "HYD",
    "VenueAddress": "Street Number 4, SP Nagar, Bharat Nagar,Moosapet, Opposite Sri Ramulu Theatre, Hyderabad, Telangana 500018, India",
    "VenueCode": "ACPM",
    "VenueName": "Asian Lakshmikala Cinepride: Moosapet"
  },
  "ACTZ": {
    "AvailableFormats": "2D",
    "City": "Tezpur",
    "Latitude": "26.6223",
    "Longitude": "92.7964",
    "RegionCode": "TEZP",
    "State": "Assam",
    "SubRegionCode": "TEZP",
    "VenueAddress": "Mahatma Gandhi Road, Near Annapurna Hotel, Tezpur, Assam 784001, India",
    "VenueCode": "ACTZ",
    "VenueName": "Anwar VRS Cinema: Tezpur"
  },
  "ADCU": {
    "AvailableFormats": "2D",
    "City": "Ujhani",
    "Latitude": "28.0031",
    "Longitude": "79.0155",
    "RegionCode": "UJHA",
    "State": "Uttar Pradesh",
    "SubRegionCode": "UJHA",
    "VenueAddress": "Mohalla Gaddi Tola Budaun Road, Near Krishna Colony, Ujhani, Uttar Pradesh 243639, India",
    "VenueCode": "ADCU",
    "VenueName": "ADS Cineplex: Ujhani"
  },
  "AGCD": {
    "AvailableFormats": "2D",
    "City": "Dindigul",
    "Latitude": "10.3655",
    "Longitude": "77.9815",
    "RegionCode": "DIND",
    "State": "Tamil Nadu",
    "SubRegionCode": "DIND",
    "VenueAddress": "15 A, Aarthi Theatre Road, Dindigul, Tamil Nadu 624001, India",
    "VenueCode": "AGCD",
    "VenueName": "Aarthi Grand Cineplex: Dindigul"
  },
  "AKCC": {
    "AvailableFormats": "2D",
    "City": "Cherupuzha",
    "Latitude": "12.27429",
    "Longitude": "75.36086",
    "RegionCode": "CRUZ",
    "State": "Kerala",
    "SubRegionCode": "CRUZ",
    "VenueAddress": "Cherupuzha Road, ., Cherupuzha, Kerala 670511, India",
    "VenueCode": "AKCC",
    "VenueName": "Ak CinePalace by Sj: 4K Dolby Atmos"
  },
  "AKTG": {
    "AvailableFormats": "2D",
    "City": "Gadarwara",
    "Latitude": "22.9202",
    "Longitude": "78.7821",
    "RegionCode": "GDWR",
    "State": "Madhya Pradesh",
    "SubRegionCode": "GDWR",
    "VenueAddress": "Alka Talkies Road, Vijay Colony, Bhabha Ward, Gadarwara, Madhya Pradesh 487551, India",
    "VenueCode": "AKTG",
    "VenueName": "Alka Talkies: Gadarwara"
  },
  "ALSN": {
    "AvailableFormats": "2D|3D",
    "City": "Kantabanji",
    "Latitude": "20.5061",
    "Longitude": "82.9221",
    "RegionCode": "KTBJ",
    "State": "Odisha",
    "SubRegionCode": "KTBJ",
    "VenueAddress": "Lathkend, PO - Salandi, PS - Belpada, Kantabanji, Odisha 767026, India",
    "VenueCode": "ALSN",
    "VenueName": "Alishan Central: Kantabanji"
  },
  "AMDE": {
    "AvailableFormats": "2D",
    "City": "Thiruthuraipoondi",
    "Latitude": "10.5366",
    "Longitude": "79.6368",
    "RegionCode": "THND",
    "State": "Tamil Nadu",
    "SubRegionCode": "THND",
    "VenueAddress": "SH 63,Railway Station Rd, Thiruthuraipoondi, Near Seematti Readymade Silks, Thiruthuraipoondi, Tamil Nadu 614713, India",
    "VenueCode": "AMDE",
    "VenueName": "AM Deluxe Theatre A/C: Thiruthuraipoondi"
  },
  "AMNG": {
    "AvailableFormats": "3D|2D",
    "City": "Nagpur",
    "Latitude": "21.086",
    "Longitude": "79.0911",
    "RegionCode": "NAGP",
    "State": "Maharashtra",
    "SubRegionCode": "NAGP",
    "VenueAddress": "2nd Floor, Jayanti Nagri 5 Mall, Besa Road, Above Haldirams, Nagpur, Maharashtra 440027, India",
    "VenueCode": "AMNG",
    "VenueName": "AM Cinema: Manish Nagar, Nagpur"
  },
  "AMZB": {
    "AvailableFormats": "2D",
    "City": "Zaheerabad",
    "Latitude": "17.6803",
    "Longitude": "77.6154",
    "RegionCode": "ZAGE",
    "State": "Telangana",
    "SubRegionCode": "ZAGE",
    "VenueAddress": "Main Road, Opposite to Bus Stand, Zaheerabad, Telangana 502220, India",
    "VenueCode": "AMZB",
    "VenueName": "Asian Sri Mohan: Zaheerabad"
  },
  "ANLS": {
    "AvailableFormats": "2D|3D",
    "City": "Shillong",
    "Latitude": "25.5738",
    "Longitude": "91.877",
    "RegionCode": "SHLG",
    "State": "Meghalaya",
    "SubRegionCode": "SHLG",
    "VenueAddress": "Anjalee Complex, 25 Cantonment, Shillong, Meghalaya 793001, India",
    "VenueCode": "ANLS",
    "VenueName": "Anjalee Cinema: Shillong"
  },
  "ANTM": {
    "AvailableFormats": "2D",
    "City": "Mangalagiri",
    "Latitude": "16.4263",
    "Longitude": "80.5671",
    "RegionCode": "MGLR",
    "State": "Andhra Pradesh",
    "SubRegionCode": "MGLR",
    "VenueAddress": "Trunk Road, Near - St.Francis English Medium School., Mangalagiri, Andhra Pradesh 522503, India",
    "VenueCode": "ANTM",
    "VenueName": "Annapurna Theater A/C Dts 2K: Mangalagiri"
  },
  "APCO": {
    "AvailableFormats": "2D",
    "City": "Orai",
    "Latitude": "25.9978",
    "Longitude": "79.4623",
    "RegionCode": "ORAI",
    "State": "Uttar Pradesh",
    "SubRegionCode": "ORAI",
    "VenueAddress": "NH 25, New Patel Nagar, Near Busy Beans Cafe, Orai, Uttar Pradesh 285001, India",
    "VenueCode": "APCO",
    "VenueName": "Archana Palace Cinemall: Orai"
  },
  "APRC": {
    "AvailableFormats": "2D|3D",
    "City": "Gaya",
    "Latitude": "24.7915",
    "Longitude": "84.9997",
    "RegionCode": "GAYA",
    "State": "Bihar",
    "SubRegionCode": "GAYA",
    "VenueAddress": "APR City Centre Mall, Rai Kasinath More, Near Gandhi Maidan, Gaya, Bihar 823001, India",
    "VenueCode": "APRC",
    "VenueName": "APR Cinemas (Dolby Atmos, Christie Laser): Gaya"
  },
  "ARAN": {
    "AvailableFormats": "2D",
    "City": "Mundra",
    "Latitude": "22.839",
    "Longitude": "69.7051",
    "RegionCode": "MUDA",
    "State": "Gujarat",
    "SubRegionCode": "MUDA",
    "VenueAddress": "1St Floor, P.No.4/2562, Om Orbit Shopping Mall, Vill.Nana Kapaya, Tal.Mundra, Kutch, Mundra, Gujarat 370421, India",
    "VenueCode": "ARAN",
    "VenueName": "Aradhaya Nova Cinemaz: Mundra"
  },
  "ARMH": {
    "AvailableFormats": "2D",
    "City": "Hyderabad",
    "Latitude": "17.4767",
    "Longitude": "78.5632",
    "RegionCode": "HYD",
    "State": "Telangana",
    "SubRegionCode": "HYD",
    "VenueAddress": "Anupuram Colony, Dr A S Rao Nagar Road, ECIL Main Road, Near Parivaar Banquet Halls, Hyderabad, Telangana 500062, India",
    "VenueCode": "ARMH",
    "VenueName": "Asian Radhika Multiplex: ECIL"
  },
  "ASBL": {
    "AvailableFormats": "2D",
    "City": "Siddipet",
    "Latitude": "18.1039",
    "Longitude": "78.8569",
    "RegionCode": "SDDP",
    "State": "Telangana",
    "SubRegionCode": "SDDP",
    "VenueAddress": "Srinivas Nagar, Siddipet - Karimnagar Road, Siddipet, Telangana 502103, India",
    "VenueCode": "ASBL",
    "VenueName": "Asian Balaji 70MM A/C: Siddipet"
  },
  "ASHO": {
    "AvailableFormats": "2D",
    "City": "Kalwakurthy",
    "Latitude": "16.6669",
    "Longitude": "78.4934",
    "RegionCode": "ACHM",
    "State": "Telangana",
    "SubRegionCode": "ACHM",
    "VenueAddress": "Kalwakurthy Road, Vidya Nagar, Gandhi Nagar, Near Sri Amma Hospital, Kalwakurthy, Telangana 509324, India",
    "VenueCode": "ASHO",
    "VenueName": "Ashoka Cinema: Kalwakurthy"
  },
  "ASMW": {
    "AvailableFormats": "2D",
    "City": "Warangal",
    "Latitude": "18.0046",
    "Longitude": "79.5629",
    "RegionCode": "WAR",
    "State": "Telangana",
    "SubRegionCode": "WAR",
    "VenueAddress": "Asian Sridevi Mall, Bus Stand Road, Sai Nagar, Hanmakonda, Warangal, Telangana 506001, India",
    "VenueCode": "ASMW",
    "VenueName": "Asian Sridevi Multiplex: Hanumakonda"
  },
  "ASSR": {
    "AvailableFormats": "2D",
    "City": "Siddipet",
    "Latitude": "18.0987",
    "Longitude": "78.8522",
    "RegionCode": "SDDP",
    "State": "Telangana",
    "SubRegionCode": "SDDP",
    "VenueAddress": "Aphb Colony, Shivaji Nagar, Hyderabad Road, Siddipet, Telangana 502103, India",
    "VenueCode": "ASSR",
    "VenueName": "Asian Srinivasa Deluxe: Siddipet"
  },
  "ATAG": {
    "AvailableFormats": "2D",
    "City": "Angul",
    "Latitude": "20.8411",
    "Longitude": "85.2256",
    "RegionCode": "ANGL",
    "State": "Odisha",
    "SubRegionCode": "ANGL",
    "VenueAddress": "Nuahata, Banarpal, Near Tata Steel, Near SBI ATM, Angul, Odisha 759128, India",
    "VenueCode": "ATAG",
    "VenueName": "Asha Cine Palace: Banarpal"
  },
  "ATJA": {
    "AvailableFormats": "2D|3D",
    "City": "Kolkata",
    "Latitude": "22.5081",
    "Longitude": "88.3203",
    "RegionCode": "BARR",
    "State": "West Bengal",
    "SubRegionCode": "BARR",
    "VenueAddress": "No.30, Diamond Harbour Road, Barabagan, Naskarpur, Behala, Kolkata, West Bengal 700038, India",
    "VenueCode": "ATJA",
    "VenueName": "SSR Ajanta Cinema: Behala"
  },
  "ATTR": {
    "AvailableFormats": "2D",
    "City": "Trivandrum",
    "Latitude": "8.48544",
    "Longitude": "76.9485",
    "RegionCode": "VKAL",
    "State": "Kerala",
    "SubRegionCode": "VKAL",
    "VenueAddress": "Power House Road, East Fort, Near State Bank Of India, Trivandrum, Kerala 695036, India",
    "VenueCode": "ATTR",
    "VenueName": "Ajanta Theatre 4K-Wide: Trivandrum"
  },
  "AVCK": {
    "AvailableFormats": "2D",
    "City": "Kozhikode",
    "Latitude": "11.2596",
    "Longitude": "75.7883",
    "RegionCode": "KOZH",
    "State": "Kerala",
    "SubRegionCode": "KOZH",
    "VenueAddress": "R.P.Mall, Mavoor Road, Opposite - Moffusil Bus Stand, Arayidathupalam, Kozhikode, Kerala 673001, India",
    "VenueCode": "AVCK",
    "VenueName": "Aashirvad Cineplexx: Kozhikode"
  },
  "AXAM": {
    "AvailableFormats": "2D",
    "City": "Amroha",
    "Latitude": "28.9054",
    "Longitude": "78.4811",
    "RegionCode": "AMRO",
    "State": "Uttar Pradesh",
    "SubRegionCode": "AMRO",
    "VenueAddress": "Kailsa Road, Chevara, Amroha, Uttar Pradesh 244221, India",
    "VenueCode": "AXAM",
    "VenueName": "Anand Cineplex: Amroha"
  },
  "BACS": {
    "AvailableFormats": "2D",
    "City": "Surat",
    "Latitude": "21.214",
    "Longitude": "72.8219",
    "RegionCode": "SURT",
    "State": "Gujarat",
    "SubRegionCode": "SURT",
    "VenueAddress": "72-78, Ved Road, Opposite Ramji Nagar Society, Fatakdawadi, Pandol, Industrial Estate, Katargam, Surat, Gujarat 395004, India",
    "VenueCode": "BACS",
    "VenueName": "Bajrang Cinema: Surat"
  },
  "BATK": {
    "AvailableFormats": "2D",
    "City": "Kanchipuram",
    "Latitude": "12.8294",
    "Longitude": "79.7001",
    "RegionCode": "MMNR",
    "State": "Tamil Nadu",
    "SubRegionCode": "MMNR",
    "VenueAddress": "Madam Thottam Street Madam, Pillaiyarpalayam, Kanchipuram, Tamil Nadu 631501, India",
    "VenueCode": "BATK",
    "VenueName": "Babu Cinemas - RGB Laser: Kanchipuram"
  },
  "BCCR": {
    "AvailableFormats": "3D|2D",
    "City": "Cooch Behar",
    "Latitude": "26.3296",
    "Longitude": "89.4426",
    "RegionCode": "COBE",
    "State": "West Bengal",
    "SubRegionCode": "COBE",
    "VenueAddress": "Bhavani Cinema, Keshav Road, Cooch Behar, West Bengal 736101, India",
    "VenueCode": "BCCR",
    "VenueName": "Bhavani Cinema: Cooch Behar"
  },
  "BGGM": {
    "AvailableFormats": "2D",
    "City": "Asansol",
    "Latitude": "23.6847",
    "Longitude": "86.9416",
    "RegionCode": "ASANSOL",
    "State": "West Bengal",
    "SubRegionCode": "ASANSOL",
    "VenueAddress": "Burnpur Road, Chitra More, Mouja  Santa, P.O  Hirapur, District  West Burdwan, Asansol, West Bengal 713325, India",
    "VenueCode": "BGGM",
    "VenueName": "Bioscope: Galaxy Mall, Asansol"
  },
  "BIJH": {
    "AvailableFormats": "2D",
    "City": "Jhabua",
    "Latitude": "22.7609",
    "Longitude": "74.5879",
    "RegionCode": "JHAB",
    "State": "Madhya Pradesh",
    "SubRegionCode": "JHAB",
    "VenueAddress": "Infront of College Ground, Ranapur Road, Jhabua, Madhya Pradesh 457661, India",
    "VenueCode": "BIJH",
    "VenueName": "B4 Cinema: Jhabua"
  },
  "BJTS": {
    "AvailableFormats": "2D",
    "City": "Chikkaballapur",
    "Latitude": "13.4311",
    "Longitude": "77.7307",
    "RegionCode": "CHIK",
    "State": "Karnataka",
    "SubRegionCode": "CHIK",
    "VenueAddress": "B B Road, Near Chikkaballapur Road, Chikkaballapur, Karnataka 562101, India",
    "VenueCode": "BJTS",
    "VenueName": "Balaji Talkies: Chikkaballapura"
  },
  "BLMX": {
    "AvailableFormats": "2D",
    "City": "Vadodara",
    "Latitude": "22.3035",
    "Longitude": "73.1383",
    "RegionCode": "ANKV",
    "State": "Gujarat",
    "SubRegionCode": "ANKV",
    "VenueAddress": "Bansal Mall,Gotri - Bhayli Rd, Nilamber Char Rasta,Near, Saiyed Vasna, Gotri, Vadodara, Gujarat 390021, India",
    "VenueCode": "BLMX",
    "VenueName": "Bansal Movieplex Gotri-Vasna Road: Vadodara"
  },
  "BOCK": {
    "AvailableFormats": "2D",
    "City": "Kuravilangad",
    "Latitude": "9.75721",
    "Longitude": "76.561",
    "RegionCode": "KURA",
    "State": "Kerala",
    "SubRegionCode": "KURA",
    "VenueAddress": "State Highway 1, Kurishupally, Kuravilangad, Near Global Collections, Kuravilangad, Kerala 686633, India",
    "VenueCode": "BOCK",
    "VenueName": "Bosco Cinemas: Kuravilangad"
  },
  "BSGB": {
    "AvailableFormats": "2D",
    "City": "Padubidri",
    "Latitude": "13.1406",
    "Longitude": "74.7739",
    "RegionCode": "PUYI",
    "State": "Karnataka",
    "SubRegionCode": "PUYI",
    "VenueAddress": "Bharath Cinemas,Door No: 1-95-1-37, 2nd Floor, Radha Market City, Near Bus Stand, Karkala Road, Padubidri, Karnataka 574111, India",
    "VenueCode": "BSGB",
    "VenueName": "Bharath Cinemas: Padubidri"
  },
  "BTDP": {
    "AvailableFormats": "2D",
    "City": "Dammapeta",
    "Latitude": "17.2667",
    "Longitude": "81.0117",
    "RegionCode": "DMPT",
    "State": "Telangana",
    "SubRegionCode": "DMPT",
    "VenueAddress": "Balaji Center, Dammapeta Main Road, Dammapeta, Telangana 507306, India",
    "VenueCode": "BTDP",
    "VenueName": "Balaji Talkies: Dammapeta"
  },
  "BWST": {
    "AvailableFormats": "2D",
    "City": "Surat",
    "Latitude": "21.1792",
    "Longitude": "72.9627",
    "RegionCode": "SURT",
    "State": "Gujarat",
    "SubRegionCode": "SURT",
    "VenueAddress": "574/2/1/ Chhatrala City Centre, MC Donalds Kadodara At - Umbhel, Near NH 8, Surat, Gujarat 394325, India",
    "VenueCode": "BWST",
    "VenueName": "Bollywood Cinema, Kadodara: Surat"
  },
  "CBMU": {
    "AvailableFormats": "3D|2D",
    "City": "Udaipur",
    "Latitude": "24.6123",
    "Longitude": "73.7026",
    "RegionCode": "UDAI",
    "State": "Rajasthan",
    "SubRegionCode": "UDAI",
    "VenueAddress": "4th Floor, The Celebration Mall, Sundercha N.H.- 8, Bhuwana, Opposite Devendra Dham Bhuwan, Udaipur, Rajasthan 313001, India",
    "VenueCode": "CBMU",
    "VenueName": "PVR: Celebration Mall, Udaipur"
  },
  "CCBA": {
    "AvailableFormats": "2D",
    "City": "Bagbahara",
    "Latitude": "21.0506",
    "Longitude": "82.3793",
    "RegionCode": "BBHA",
    "State": "Chhattisgarh",
    "SubRegionCode": "BBHA",
    "VenueAddress": "NH59, Bhawanipatna Raipur Highway, Near Post office, Bagbahara, Chhattisgarh 493449, India",
    "VenueCode": "CCBA",
    "VenueName": "City Cinema: Bagbahara"
  },
  "CCJR": {
    "AvailableFormats": "2D",
    "City": "Janjgir",
    "Latitude": "22.0117",
    "Longitude": "82.5759",
    "RegionCode": "JANR",
    "State": "Chhattisgarh",
    "SubRegionCode": "JANR",
    "VenueAddress": "Near A One Bakery, Link Road, Janjgir, Chhattisgarh 495668, India",
    "VenueCode": "CCJR",
    "VenueName": "City Cinema: Janjgir Naila"
  },
  "CCMO": {
    "AvailableFormats": "2D",
    "City": "Morbi",
    "Latitude": "22.7177",
    "Longitude": "70.7789",
    "RegionCode": "MOBI",
    "State": "Gujarat",
    "SubRegionCode": "MOBI",
    "VenueAddress": "Survey No-694 P 270, Lajai, Rajkot Road, Morbi, Gujarat 363650, India",
    "VenueCode": "CCMO",
    "VenueName": "Cine36 Cineplex: Morbi"
  },
  "CCPP": {
    "AvailableFormats": "2D",
    "City": "Phaltan",
    "Latitude": "17.9881",
    "Longitude": "74.4302",
    "RegionCode": "PHAL",
    "State": "Maharashtra",
    "SubRegionCode": "PHAL",
    "VenueAddress": "Namvaibhav Chitra mandir, Gajanan Chowk, Satara, Phaltan, Maharashtra 415523, India",
    "VenueCode": "CCPP",
    "VenueName": "Cinea City Pride: Phaltan"
  },
  "CCXR": {
    "AvailableFormats": "2D",
    "City": "Gurugram (Gurgaon)",
    "Latitude": "28.3933",
    "Longitude": "76.9769",
    "RegionCode": "NCR",
    "State": "NCR",
    "SubRegionCode": "GURG",
    "VenueAddress": "Entertainland Mall, Floreal Towers, Sector 83, Gurugram (Gurgaon), NCR 122012, India",
    "VenueCode": "CCXR",
    "VenueName": "Connplex Cinemas: Luxuriance, Gurgaon"
  },
  "CDWP": {
    "AvailableFormats": "",
    "City": "Surat",
    "FirstTracked": "2026-07-14",
    "Latitude": "21.1957",
    "Longitude": "72.8598",
    "RegionCode": "SURT",
    "State": "Gujarat",
    "SubRegionCode": "SURT",
    "VenueAddress": "4th Floor, DR World Mall, Aai Mata Road, Surat, Gujarat 395010, India",
    "VenueCode": "CDWP",
    "VenueName": "Coconut Cinema DR World Parvat Patiya: Surat"
  },
  "CFBS": {
    "AvailableFormats": "2D|IMAX 2D|4DX|3D",
    "City": "Bengaluru",
    "Latitude": "12.9894",
    "Longitude": "77.7279",
    "RegionCode": "HOKT",
    "State": "Karnataka",
    "SubRegionCode": "HOKT",
    "VenueAddress": "3rd Floor, Nexus Shantiniketan Mall, Opposite Manipal Hospital, ITPL Main Road, Whitefield, Bengaluru, Karnataka 560067, India",
    "VenueCode": "CFBS",
    "VenueName": "Cinepolis: Nexus Shantiniketan, Bengaluru"
  },
  "CGHH": {
    "AvailableFormats": "2D",
    "City": "Kakinada",
    "Latitude": "16.9573",
    "Longitude": "82.2365",
    "RegionCode": "KAKI",
    "State": "Andhra Pradesh",
    "SubRegionCode": "KAKI",
    "VenueAddress": "Cinema Hall Road, Surya Rao Peta, Opposite Municipal Office, Kakinada, Andhra Pradesh 533001, India",
    "VenueCode": "CGHH",
    "VenueName": "Chandra Guptha Complex Screen 2: Kakinada"
  },
  "CHGV": {
    "AvailableFormats": "2D",
    "City": "Belagavi (Belgaum)",
    "Latitude": "15.8594",
    "Longitude": "74.5122",
    "RegionCode": "BELG",
    "State": "Karnataka",
    "SubRegionCode": "BELG",
    "VenueAddress": "1724/A, Huns Talkies Road, Burud Galli, Nana Shankar Sheth Marg, Ravivar Peth, Near Karur Vysya Bank, Belagavi (Belgaum), Karnataka 590001, India",
    "VenueCode": "CHGV",
    "VenueName": "Chitra Talkies: Belagavi"
  },
  "CHTP": {
    "AvailableFormats": "2D",
    "City": "Manawar",
    "Latitude": "22.2379",
    "Longitude": "75.0863",
    "RegionCode": "MANW",
    "State": "Madhya Pradesh",
    "SubRegionCode": "MANW",
    "VenueAddress": "Singhana Road, Near Punjab National Bank, Manawar, Madhya Pradesh 454446, India",
    "VenueCode": "CHTP",
    "VenueName": "Chaitanya Plaza: Manawar"
  },
  "CIPC": {
    "AvailableFormats": "2D",
    "City": "Mahudha",
    "Latitude": "22.8185",
    "Longitude": "72.9388",
    "RegionCode": "MAHU",
    "State": "Gujarat",
    "SubRegionCode": "MAHU",
    "VenueAddress": "A-1, Kheda Road, Near Mahudha Town Bus Stand, Mahudha, Gujarat 387335, India",
    "VenueCode": "CIPC",
    "VenueName": "City Pulse Cinema: Mahudha"
  },
  "CKSA": {
    "AvailableFormats": "2D",
    "City": "Ahilyanagar (Ahmednagar)",
    "Latitude": "19.0913",
    "Longitude": "74.7454",
    "RegionCode": "AHMED",
    "State": "Maharashtra",
    "SubRegionCode": "AHMED",
    "VenueAddress": "302, 3rd Floor, Biz Bay One, Nagar-Sambhajinagar Road, Near Nagar College Gate, Above Zudio Store, Ahilyanagar (Ahmednagar), Maharashtra 414001, India",
    "VenueCode": "CKSA",
    "VenueName": "Cinelife K Sera Sera: Ahilyanagar"
  },
  "CLKP": {
    "AvailableFormats": "",
    "City": "Patna",
    "FirstTracked": "2026-07-14",
    "Latitude": "25.6025",
    "Longitude": "85.1453",
    "RegionCode": "PATN",
    "State": "Bihar",
    "SubRegionCode": "PATN",
    "VenueAddress": "Avnc lifestyles Nutan Complex, Kankarbagh, Near KKrish Hyundai, Patna, Bihar 800020, India",
    "VenueCode": "CLKP",
    "VenueName": "Connplex Cinemas Luxuriance: Kankarbagh, Patna"
  },
  "CMAU": {
    "AvailableFormats": "2D",
    "City": "Abu Road",
    "Latitude": "24.4982",
    "Longitude": "72.766",
    "RegionCode": "ABRD",
    "State": "Rajasthan",
    "SubRegionCode": "ABRD",
    "VenueAddress": "New Town Housing, Revdar Road, Manpur Rural, Abu Road, Rajasthan 307026, India",
    "VenueCode": "CMAU",
    "VenueName": "Cineplus Multiplex: Abu Road"
  },
  "CMLO": {
    "AvailableFormats": "2D",
    "City": "Cherpulassery",
    "Latitude": "10.8796",
    "Longitude": "76.3103",
    "RegionCode": "CHER",
    "State": "Kerala",
    "SubRegionCode": "CHER",
    "VenueAddress": "Pattambi - Cherpulassery Road, Behind BSNL Exchange, Cherpulassery, Kerala 679503, India",
    "VenueCode": "CMLO",
    "VenueName": "Magic Frames Devi Cinemas: Cherpulassery"
  },
  "CMRM": {
    "AvailableFormats": "",
    "City": "Rewa",
    "FirstTracked": "2026-07-14",
    "Latitude": "24.6463",
    "Longitude": "81.5341",
    "RegionCode": "RWAA",
    "State": "Madhya Pradesh",
    "SubRegionCode": "RWAA",
    "VenueAddress": "Bypass Road Mangawan, Post Office Mangawan, Near Hero Agency, Rewa, Madhya Pradesh 486111, India",
    "VenueCode": "CMRM",
    "VenueName": "Chhotu Maharaj: Rewa,MP"
  },
  "CMVB": {
    "AvailableFormats": "2D",
    "City": "Vikarabad",
    "Latitude": "17.3464",
    "Longitude": "77.9056",
    "RegionCode": "VKBD",
    "State": "Telangana",
    "SubRegionCode": "VKBD",
    "VenueAddress": "Vikarabad - Mominpet Road, Alampally, Near Petrol Pump, Opposite Fathe Garden Function Hall, Vikarabad, Telangana 501101, India",
    "VenueCode": "CMVB",
    "VenueName": "Cinemax: Vikarabad"
  },
  "CNAD": {
    "AvailableFormats": "",
    "City": "Ahmedabad",
    "FirstTracked": "2026-07-14",
    "Latitude": "23.163",
    "Longitude": "72.5399",
    "RegionCode": "AHD",
    "State": "Gujarat",
    "SubRegionCode": "AHD",
    "VenueAddress": "306-308, Center Point, Adani Shantigram Township, Khodiyar, Ahmedabad, Gujarat 382501, India",
    "VenueCode": "CNAD",
    "VenueName": "Connplex Cinemas (Luxuriance): Adani Shantigram"
  },
  "CNFX": {
    "AvailableFormats": "2D",
    "City": "Datia",
    "Latitude": "25.6653",
    "Longitude": "78.4609",
    "RegionCode": "DATI",
    "State": "Madhya Pradesh",
    "SubRegionCode": "DATI",
    "VenueAddress": "National Highway 44 Jhansi road, First floor Ratan mega mall, Near District and sessions court, Datia, Madhya Pradesh 475661, India",
    "VenueCode": "CNFX",
    "VenueName": "Cineflix Cinemas: Datia"
  },
  "CNPS": {
    "AvailableFormats": "3D|2D",
    "City": "Bilaspur",
    "Latitude": "22.071",
    "Longitude": "82.1504",
    "RegionCode": "BILA",
    "State": "Chhattisgarh",
    "SubRegionCode": "BILA",
    "VenueAddress": "4th Floor, Shri Krishna Central Mall, Vinoba Nagar, Bilaspur, Chhattisgarh 495001, India",
    "VenueCode": "CNPS",
    "VenueName": "Connplex Cinemas (Signature) : Bilaspur"
  },
  "CNWE": {
    "AvailableFormats": "2D|IMAX 2D|3D",
    "City": "Pune",
    "Latitude": "18.5625",
    "Longitude": "73.8072",
    "RegionCode": "PUNE",
    "State": "Maharashtra",
    "SubRegionCode": "PUNE",
    "VenueAddress": "5, Gurukul Park Road, Ward No. 8, Wireless Colony, Aundh, Pune, Maharashtra 411007, India",
    "VenueCode": "CNWE",
    "VenueName": "Cinepolis: Nexus WESTEND Mall Aundh, Pune"
  },
  "COPC": {
    "AvailableFormats": "2D",
    "City": "Raisinghnagar",
    "Latitude": "29.5374",
    "Longitude": "73.4503",
    "RegionCode": "RSNG",
    "State": "Rajasthan",
    "SubRegionCode": "RSNG",
    "VenueAddress": "22 PS Road, Near - Raisingnagar railway station, Raisinghnagar, Rajasthan 335051, India",
    "VenueCode": "COPC",
    "VenueName": "Cosmo Palace Cinema: Raisinghnagar"
  },
  "CPCM": {
    "AvailableFormats": "2D|3D",
    "City": "Mangalore",
    "Latitude": "12.8717",
    "Longitude": "74.8425",
    "RegionCode": "MLR",
    "State": "Karnataka",
    "SubRegionCode": "MLR",
    "VenueAddress": "K S Rao Road, Hampankatta, Mangalore, Karnataka 122002, India",
    "VenueCode": "CPCM",
    "VenueName": "Cinepolis: City Centre Mall, Mangaluru"
  },
  "CPIV": {
    "AvailableFormats": "2D|3D",
    "City": "Vadodara",
    "Latitude": "22.3227",
    "Longitude": "73.1662",
    "RegionCode": "VAD",
    "State": "Gujarat",
    "SubRegionCode": "VAD",
    "VenueAddress": "2nd Floor, Inorbit Mall,Nr. Gunjan Tower, Gorwa Road, Gorwa, Opp. Alembic School, Vadodara, Gujarat 390023, India",
    "VenueCode": "CPIV",
    "VenueName": "Cinepolis: Inorbit Vadodara Mall"
  },
  "CPLX": {
    "AvailableFormats": "2D",
    "City": "Jeypore",
    "Latitude": "18.8588",
    "Longitude": "82.5902",
    "RegionCode": "JEYP",
    "State": "Odisha",
    "SubRegionCode": "JEYP",
    "VenueAddress": "Industrial Estate, Jeypore Vizianagaram Road, Jeypore, Odisha 764001, India",
    "VenueCode": "CPLX",
    "VenueName": "Celebration Cineplex: Jeypore"
  },
  "CPOE": {
    "AvailableFormats": "2D",
    "City": "Bengaluru",
    "Latitude": "13.0018",
    "Longitude": "77.6329",
    "RegionCode": "BANG",
    "State": "Karnataka",
    "SubRegionCode": "BANG",
    "VenueAddress": "3rd floor, Orion Avenue Mall, Banasawadi Main Road, Maruti Seva Nagar, Bengaluru, Karnataka 560033, India",
    "VenueCode": "CPOE",
    "VenueName": "Cinepolis: Orion Avenue Mall, Banaswadi"
  },
  "CPSM": {
    "AvailableFormats": "2D",
    "City": "Ahmedabad",
    "Latitude": "23.1045",
    "Longitude": "72.5494",
    "RegionCode": "AHD",
    "State": "Gujarat",
    "SubRegionCode": "AHD",
    "VenueAddress": "Savvy Sawaraj Sports Club, 5th Floor, Vandematram Road, Near Godrej Garden City Road, Ahmedabad, Gujarat 382481, India",
    "VenueCode": "CPSM",
    "VenueName": "Savvy Swaraaj Miniplex: Gota, Ahmedabad"
  },
  "CRGM": {
    "AvailableFormats": "3D|2D",
    "City": "Gurugram (Gurgaon)",
    "Latitude": "28.3833",
    "Longitude": "77.0522",
    "RegionCode": "NCR",
    "State": "NCR",
    "SubRegionCode": "GURG",
    "VenueAddress": "Reach Airia Mall, 3rd Floor Sohna Road, Sector 68, Gurugram (Gurgaon), NCR 122103, India",
    "VenueCode": "CRGM",
    "VenueName": "Cinepolis: Airia Mall, Sohna Road, Gurgaon"
  },
  "CSCT": {
    "AvailableFormats": "2D",
    "City": "Tirupati",
    "Latitude": "13.6385",
    "Longitude": "79.4235",
    "RegionCode": "TIRU",
    "State": "Andhra Pradesh",
    "SubRegionCode": "TIRU",
    "VenueAddress": "RS Gardens, Leela Mahal Road, Tirupati, Andhra Pradesh 517501, India",
    "VenueCode": "CSCT",
    "VenueName": "CS Cinemas (Devendra Theater) A/C 4K Dolby Atmos"
  },
  "CSSA": {
    "AvailableFormats": "2D|3D",
    "City": "Ahilyanagar (Ahmednagar)",
    "Latitude": "19.1192",
    "Longitude": "74.7289",
    "RegionCode": "AHMED",
    "State": "Maharashtra",
    "SubRegionCode": "AHMED",
    "VenueAddress": "3rd Floor, Kohinoor Mall, Premdan Chowk, Opposite Big Bazar, Ahilyanagar (Ahmednagar), Maharashtra 414003, India",
    "VenueCode": "CSSA",
    "VenueName": "Connplex Cinemas: Ahilyanagar"
  },
  "CSTR": {
    "AvailableFormats": "2D",
    "City": "Rajkot",
    "Latitude": "22.276",
    "Longitude": "70.7415",
    "RegionCode": "RAJK",
    "State": "Gujarat",
    "SubRegionCode": "RAJK",
    "VenueAddress": "2nd Ring Road, Serenity Garden Road, Near Valupani restaurant, Rajkot, Gujarat 360004, India",
    "VenueCode": "CSTR",
    "VenueName": "Connplex Cinemas: Rajkot"
  },
  "CTMK": {
    "AvailableFormats": "2D",
    "City": "Korba",
    "Latitude": "22.3424",
    "Longitude": "82.6987",
    "RegionCode": "KRBA",
    "State": "Chhattisgarh",
    "SubRegionCode": "KRBA",
    "VenueAddress": "Purani Basti, Rani Road, Near Hotel Satkar Deluxe, Korba, Chhattisgarh 495677, India",
    "VenueCode": "CTMK",
    "VenueName": "Chitra Cinema: Korba"
  },
  "CTRR": {
    "AvailableFormats": "3D|2D",
    "City": "Mumbai",
    "Latitude": "19.0134",
    "Longitude": "72.8439",
    "RegionCode": "MUMBAI",
    "State": "Maharashtra",
    "SubRegionCode": "MCENT",
    "VenueAddress": "198, Dr. Baba Saheb Ambedkar Road, Dadar East, Mumbai, Maharashtra 400014, India",
    "VenueCode": "CTRR",
    "VenueName": "Chitra Cinema: Dadar (Newly Renovated)"
  },
  "CVDK": {
    "AvailableFormats": "2D|3D",
    "City": "Rajkot",
    "Latitude": "22.264",
    "Longitude": "70.7996",
    "RegionCode": "RAJK",
    "State": "Gujarat",
    "SubRegionCode": "RAJK",
    "VenueAddress": "Vandana Heritage 4th  and 5th Floor, Opposite Atika Railway Crossing, Gondal Road, Rajkot, Gujarat 360004, India",
    "VenueCode": "CVDK",
    "VenueName": "Cinepolis Vandana: Rajkot"
  },
  "CWTK": {
    "AvailableFormats": "2D",
    "City": "Kozhinjampara",
    "Latitude": "10.7368",
    "Longitude": "76.8327",
    "RegionCode": "PLKK",
    "State": "Kerala",
    "SubRegionCode": "PLKK",
    "VenueAddress": "Chittur Road, Near Bus Stand, Kozhinjampara, Kerala 678555, India",
    "VenueCode": "CWTK",
    "VenueName": "Cowmalya Theatre: Kozhinjampara"
  },
  "CYCM": {
    "AvailableFormats": "2D",
    "City": "Ambajogai",
    "Latitude": "18.7127",
    "Longitude": "76.5414",
    "RegionCode": "AMBG",
    "State": "Maharashtra",
    "SubRegionCode": "AMBG",
    "VenueAddress": "Flat no. New Survey No. 16/7, House no 278/279, Karkhana Road, Dist Beed, Jogaiwadi, Ambajogai, Maharashtra 431517, India",
    "VenueCode": "CYCM",
    "VenueName": "Citara Satyam Cinema: Ambajogai"
  },
  "DCAA": {
    "AvailableFormats": "",
    "City": "Barabanki",
    "FirstTracked": "2026-07-14",
    "Latitude": "26.9243",
    "Longitude": "81.1742",
    "RegionCode": "BARK",
    "State": "Uttar Pradesh",
    "SubRegionCode": "BARK",
    "VenueAddress": "Awadh avenue Mall, Awas Vikas Colony, Near RTO office, Barabanki, Uttar Pradesh 225001, India",
    "VenueCode": "DCAA",
    "VenueName": "DD Cinemas Awadh Avenue Mall: Barabanki"
  },
  "DCIN": {
    "AvailableFormats": "2D",
    "City": "Nagaon",
    "Latitude": "26.3528",
    "Longitude": "92.6713",
    "RegionCode": "NAAM",
    "State": "Assam",
    "SubRegionCode": "NAAM",
    "VenueAddress": "Divyajyoti Cinema Hall, Dhing Gate Flyover, Near Haibargaon Railway Station,Nagaon, Assam 782002, India",
    "VenueCode": "DCIN",
    "VenueName": "Divyajyoti Cinema: Nagaon"
  },
  "DCSP": {
    "AvailableFormats": "2D",
    "City": "Perumpuzha",
    "Latitude": "8.942322",
    "Longitude": "76.679475",
    "RegionCode": "PERU",
    "State": "Kerala",
    "SubRegionCode": "PERU",
    "VenueAddress": "Kundara Road, Perumpuzha, Perumpuzha, Kerala 691504, India",
    "VenueCode": "DCSP",
    "VenueName": "Devi Cinemas 4K Dolby Atmos: Perumpuzha Kundara"
  },
  "DEES": {
    "AvailableFormats": "2D",
    "City": "Markapur",
    "Latitude": "15.7435",
    "Longitude": "79.2716",
    "RegionCode": "MARK",
    "State": "Andhra Pradesh",
    "SubRegionCode": "MARK",
    "VenueAddress": "Bharathi Vidya Nikethan Road, Near Viswa Shanthi School Hostel, Markapur, Andhra Pradesh 523316, India",
    "VenueCode": "DEES",
    "VenueName": "Jagadeeswari Theatre A/C 4K Dolby Atmos: Markapur"
  },
  "DGGC": {
    "AvailableFormats": "2D",
    "City": "Goalpara",
    "Latitude": "26.1698",
    "Longitude": "90.6235",
    "RegionCode": "GOAL",
    "State": "Assam",
    "SubRegionCode": "GOAL",
    "VenueAddress": "Above Trends, Pancharatna Road, Near Canara Bank, Goalpara, Assam 783101, India",
    "VenueCode": "DGGC",
    "VenueName": "Diamond Cinema: Goalpara"
  },
  "DLCD": {
    "AvailableFormats": "2D",
    "City": "Itanagar",
    "Latitude": "27.1018",
    "Longitude": "93.6297",
    "RegionCode": "ITNG",
    "State": "Arunachal Pradesh",
    "SubRegionCode": "ITNG",
    "VenueAddress": "AAB Arcade Building, NH 415, Zero Point, Itanagar, Arunachal Pradesh 791111, India",
    "VenueCode": "DLCD",
    "VenueName": "Drodel Cineworld, Zero point: Itanagar"
  },
  "DMHA": {
    "AvailableFormats": "2D",
    "City": "Kalyani",
    "Latitude": "22.9673",
    "Longitude": "88.539",
    "RegionCode": "KALY",
    "State": "West Bengal",
    "SubRegionCode": "KALY",
    "VenueAddress": "2nd, Ward No 6 Balindi, Kalyani Road, Haringhata, Nadia, Kalyani, West Bengal 741246, India",
    "VenueCode": "DMHA",
    "VenueName": "Dolphin Multiplex: Haringhata (Dolby 7.1)"
  },
  "DNRP": {
    "AvailableFormats": "2D",
    "City": "Pathanamthitta",
    "Latitude": "9.26514",
    "Longitude": "76.7891",
    "RegionCode": "PTNM",
    "State": "Kerala",
    "SubRegionCode": "PTNM",
    "VenueAddress": "NH 183A Valanchuzhy, Pathanamthitta - Kadammanitta Road, Near Aananda Bavan Vegetarian Restaurant, Pathanamthitta, Kerala 689645, India",
    "VenueCode": "DNRP",
    "VenueName": "Dhanya Remya: Pathanamthitta"
  },
  "DRPV": {
    "AvailableFormats": "2D",
    "City": "kanchikacherla",
    "Latitude": "16.681",
    "Longitude": "80.3922",
    "RegionCode": "KNCH",
    "State": "Andhra Pradesh",
    "SubRegionCode": "KNCH",
    "VenueAddress": "D.No 13-191, Near IOC Bunk, NH65, kanchikacherla, Andhra Pradesh 521180, India",
    "VenueCode": "DRPV",
    "VenueName": "Dr. PV Rao Cineplex: Kanchikacherla"
  },
  "DTPY": {
    "AvailableFormats": "2D",
    "City": "Pondicherry",
    "Latitude": "11.8642",
    "Longitude": "79.7524",
    "RegionCode": "POND",
    "State": "Tamil Nadu",
    "SubRegionCode": "POND",
    "VenueAddress": "Madukarai Road, Karikalapakkam, Pondicherry, Tamil Nadu 605007, India",
    "VenueCode": "DTPY",
    "VenueName": "Divya Theatre A/C 4K RGB LASER: Pondicherry"
  },
  "DVMY": {
    "AvailableFormats": "2D",
    "City": "Salem",
    "Latitude": "11.6276",
    "Longitude": "78.1344",
    "RegionCode": "SALM",
    "State": "Tamil Nadu",
    "SubRegionCode": "SALM",
    "VenueAddress": "P M P Nagar, Kondalampatty Bypass, Salem, Tamil Nadu 636010, India",
    "VenueCode": "DVMY",
    "VenueName": "Dhivyam Cinemax 4K Dolby Atmos 3D: Salem"
  },
  "ECGH": {
    "AvailableFormats": "2D",
    "City": "Jamshedpur",
    "Latitude": "22.8441",
    "Longitude": "86.2163",
    "RegionCode": "JMDP",
    "State": "Jharkhand",
    "SubRegionCode": "JMDP",
    "VenueAddress": "Zone 1 Mall, 4th Floor Big Bazar Building, NH 33, Pardih, Dimna Road, Jamshedpur, Jharkhand 831012, India",
    "VenueCode": "ECGH",
    "VenueName": "Eylex Cinemas: Jamshedpur"
  },
  "EEBC": {
    "AvailableFormats": "",
    "City": "Greater Noida",
    "FirstTracked": "2026-07-14",
    "Latitude": "28.464",
    "Longitude": "77.5078",
    "RegionCode": "NCR",
    "State": "NCR",
    "SubRegionCode": "GRET",
    "VenueAddress": "ANSAL PLAZA MALL SHOPPING COMPLEX, Pari Chowk, Amit Nagar, Greater Noida, NCR 201310, India",
    "VenueCode": "EEBC",
    "VenueName": "eBox Cinema: Ansal Plaza Mall, Greater Noida"
  },
  "EMNC": {
    "AvailableFormats": "IMAX 2D",
    "City": "Mumbai",
    "Latitude": "18.9323",
    "Longitude": "72.8279",
    "RegionCode": "MUMBAI",
    "State": "Maharashtra",
    "SubRegionCode": "MCENT",
    "VenueAddress": "Cambata Building, 42, Maharshi Karve Road, Churchgate, Mumbai, Maharashtra 400020, India",
    "VenueCode": "EMNC",
    "VenueName": "EROS INOX IMAX Cinema: Churchgate"
  },
  "ESBW": {
    "AvailableFormats": "2D|3D",
    "City": "Pune",
    "Latitude": "18.5471",
    "Longitude": "73.9294",
    "RegionCode": "PUNE",
    "State": "Maharashtra",
    "SubRegionCode": "PUNE",
    "VenueAddress": "Old Mundhwa Road, Sector Number 3, Maruti Nagar, Kharadi, Wadgaon Sheri Bypass, Pune, Maharashtra 411014, India",
    "VenueCode": "ESBW",
    "VenueName": "Bollywood Multiplex: Kharadi"
  },
  "ETPB": {
    "AvailableFormats": "2D",
    "City": "Bhavnagar",
    "Latitude": "21.7716",
    "Longitude": "72.1462",
    "RegionCode": "BHNG",
    "State": "Gujarat",
    "SubRegionCode": "BHNG",
    "VenueAddress": "Shiva Blessing 2, Shilpi Nagar, Opposite Bhavnagar Municipal Corporation, Bhavnagar, Gujarat 364001, India",
    "VenueCode": "ETPB",
    "VenueName": "The Entertainment Park: Bhavnagar"
  },
  "EYHZ": {
    "AvailableFormats": "2D",
    "City": "Hazaribagh",
    "Latitude": "23.9914",
    "Longitude": "85.3541",
    "RegionCode": "HAZA",
    "State": "Jharkhand",
    "SubRegionCode": "HAZA",
    "VenueAddress": "Indralok Tower, 4th floor, Main Road Gwal Toli Chowk, Azad Mahalla, Hazaribagh, Jharkhand 825301, India",
    "VenueCode": "EYHZ",
    "VenueName": "Eylex Cinema: Hazaribagh"
  },
  "FDDH": {
    "AvailableFormats": "2D",
    "City": "Etawah",
    "Latitude": "26.7709",
    "Longitude": "79.0256",
    "RegionCode": "ETWH",
    "State": "Uttar Pradesh",
    "SubRegionCode": "ETWH",
    "VenueAddress": "Ram Lila Road, Anand Nagar, Lalpura, Etawah, Uttar Pradesh 206001, India",
    "VenueCode": "FDDH",
    "VenueName": "Fun DD Cinema: Etawah"
  },
  "FMJP": {
    "AvailableFormats": "3D|2D",
    "City": "Pune",
    "Latitude": "18.6486",
    "Longitude": "73.7847",
    "RegionCode": "PUNE",
    "State": "Maharashtra",
    "SubRegionCode": "PUNE",
    "VenueAddress": "Jai Ganesh Vision Mall, Akurdi Chowk, Ganga Nagar, Behind Greaves Cotton Company, Pune, Maharashtra 411035, India",
    "VenueCode": "FMJP",
    "VenueName": "INOX: Jai Ganesh, Akurdi"
  },
  "FNAN": {
    "AvailableFormats": "2D|3D",
    "City": "Mumbai",
    "Latitude": "19.1358",
    "Longitude": "72.8332",
    "RegionCode": "MUMBAI",
    "State": "Maharashtra",
    "SubRegionCode": "MWEST",
    "VenueAddress": "Plot No.844/4,Level 4, Shah Industrial Estate, Veera Desai Road, Andheri(West), Near ICICI Bank ATM, Mumbai, Maharashtra 400053, India",
    "VenueCode": "FNAN",
    "VenueName": "Cinepolis: Fun Republic Mall, Andheri (W)"
  },
  "FNGW": {
    "AvailableFormats": "2D|3D",
    "City": "Gwalior",
    "Latitude": "26.2094",
    "Longitude": "78.1663",
    "RegionCode": "GWAL",
    "State": "Madhya Pradesh",
    "SubRegionCode": "GWAL",
    "VenueAddress": "Dindayal City Mall, MLB Road, Lashkar, Opp Zoo, Gwalior, Madhya Pradesh 474001, India",
    "VenueCode": "FNGW",
    "VenueName": "Fun Cinemas: DD City Mall, Gwalior"
  },
  "FPPF": {
    "AvailableFormats": "2D",
    "City": "Ponkunnam",
    "Latitude": "9.56543",
    "Longitude": "76.7565",
    "RegionCode": "PONK",
    "State": "Kerala",
    "SubRegionCode": "PONK",
    "VenueAddress": "Post Office Road, Near Art Line Digital Studio, Ponkunnam, Kerala 686506, India",
    "VenueCode": "FPPF",
    "VenueName": "Focus Cinemas: Ponkunnam"
  },
  "FSMA": {
    "AvailableFormats": "2D",
    "City": "Angamaly",
    "Latitude": "10.2119",
    "Longitude": "76.4519",
    "RegionCode": "KLDY",
    "State": "Kerala",
    "SubRegionCode": "KLDY",
    "VenueAddress": "Canal Pass, Manjapra, Angamaly, Kerala 683581, India",
    "VenueCode": "FSMA",
    "VenueName": "Four Star Movies: Manjapra, Angamaly"
  },
  "GAGA": {
    "AvailableFormats": "2D",
    "City": "Nabarangpur",
    "Latitude": "19.2124",
    "Longitude": "82.5491",
    "RegionCode": "NAGU",
    "State": "Odisha",
    "SubRegionCode": "NAGU",
    "VenueAddress": "Glaze Hotel and Resorts Pvt Limited, National Highway, Chamuriyaguda, Nabarangpur, Odisha 764059, India",
    "VenueCode": "GAGA",
    "VenueName": "Glaze Cinemas: Nabarangpur"
  },
  "GATP": {
    "AvailableFormats": "2D",
    "City": "Palakollu",
    "Latitude": "16.5176",
    "Longitude": "81.7184",
    "RegionCode": "PLKL",
    "State": "Andhra Pradesh",
    "SubRegionCode": "PLKL",
    "VenueAddress": "PP Road, Near Krishna Bhavani Hospital, Palakollu, Andhra Pradesh 534260, India",
    "VenueCode": "GATP",
    "VenueName": "Geetha Annapurna Theatre: Palakollu"
  },
  "GCBA": {
    "AvailableFormats": "2D",
    "City": "Barnala",
    "Latitude": "30.2621",
    "Longitude": "75.2356",
    "RegionCode": "BAR",
    "State": "Punjab",
    "SubRegionCode": "BAR",
    "VenueAddress": "Bathinda Road, Near T-Point, Barnala, Punjab 148101, India",
    "VenueCode": "GCBA",
    "VenueName": "GE Cinemas: Barnala"
  },
  "GCFA": {
    "AvailableFormats": "2D",
    "City": "Fulkusma",
    "Latitude": "22.7119",
    "Longitude": "86.8696",
    "RegionCode": "FULK",
    "State": "West Bengal",
    "SubRegionCode": "FULK",
    "VenueAddress": "Gandheswari Chitralaya, Bankura Road, Fulkusma, West Bengal 722134, India",
    "VenueCode": "GCFA",
    "VenueName": "Gandheswari Chitralaya: Fulkushma"
  },
  "GCMA": {
    "AvailableFormats": "2D",
    "City": "Morena",
    "Latitude": "26.4905",
    "Longitude": "77.9869",
    "RegionCode": "MRMP",
    "State": "Madhya Pradesh",
    "SubRegionCode": "MRMP",
    "VenueAddress": "Hariraj Palace, M S Road, Morena, Madhya Pradesh 476001, India",
    "VenueCode": "GCMA",
    "VenueName": "Gold Cinema: Morena"
  },
  "GCRP": {
    "AvailableFormats": "2D",
    "City": "Chennai",
    "Latitude": "13.0999",
    "Longitude": "80.1795",
    "RegionCode": "CHEN",
    "State": "Tamil Nadu",
    "SubRegionCode": "CHEN",
    "VenueAddress": "64, Periyar Nagar, Mes Colony, Chennai, Tamil Nadu 600050, India",
    "VenueCode": "GCRP",
    "VenueName": "Green Cinemas 4K Atmos, PLF: Padi"
  },
  "GCYC": {
    "AvailableFormats": "2D",
    "City": "Yewat",
    "Latitude": "18.4758",
    "Longitude": "74.2682",
    "RegionCode": "YEWE",
    "State": "Maharashtra",
    "SubRegionCode": "YEWE",
    "VenueAddress": "Yawat Dorgewadi Road, Yavat, Yewat, Maharashtra 412214, India",
    "VenueCode": "GCYC",
    "VenueName": "Gunjan Cinema: Yewat"
  },
  "GDCP": {
    "AvailableFormats": "",
    "City": "Jaipur",
    "FirstTracked": "2026-07-14",
    "Latitude": "26.9355",
    "Longitude": "75.7919",
    "RegionCode": "JAIP",
    "State": "Rajasthan",
    "SubRegionCode": "JAIP",
    "VenueAddress": "City Plaza Mall, Jhotwara Road, Sindhi Colony, Bani Park, Jaipur, Rajasthan 302016, India",
    "VenueCode": "GDCP",
    "VenueName": "Gold Cinema: City Plaza, Bani Park (Newly Opened)"
  },
  "GDTH": {
    "AvailableFormats": "3D|2D",
    "City": "Thane",
    "Latitude": "19.1905",
    "Longitude": "72.9766",
    "RegionCode": "MUMBAI",
    "State": "Maharashtra",
    "SubRegionCode": "THNE",
    "VenueAddress": "Prabhat Plaza, 3rd Floor, Station Road, Shivaji Road, Near Talao Pali, Thane, Maharashtra 400601, India",
    "VenueCode": "GDTH",
    "VenueName": "Gold  Cinema: Shivaji Road, Thane (W)"
  },
  "GGCS": {
    "AvailableFormats": "2D",
    "City": "Seethathodu",
    "Latitude": "9.325442",
    "Longitude": "76.969631",
    "RegionCode": "SXCF",
    "State": "Kerala",
    "SubRegionCode": "SXCF",
    "VenueAddress": "Gavi Shopping Complex, Chittar, Angamoozhy Road, Seethathodu, Kerala 689667, India",
    "VenueCode": "GGCS",
    "VenueName": "Gavi Galaxi Cinemas: Seethathodu"
  },
  "GKCC": {
    "AvailableFormats": "2D",
    "City": "Coimbatore",
    "Latitude": "10.9543",
    "Longitude": "76.7892",
    "RegionCode": "COIM",
    "State": "Tamil Nadu",
    "SubRegionCode": "COIM",
    "VenueAddress": "Siruvani Road, Alandurai, Near Canara Bank, Coimbatore, Tamil Nadu 641010, India",
    "VenueCode": "GKCC",
    "VenueName": "Gokulam Cinemas A/C 2K: Coimbatore"
  },
  "GLOB": {
    "AvailableFormats": "3D|2D",
    "City": "Belagavi (Belgaum)",
    "Latitude": "15.8516",
    "Longitude": "74.5054",
    "RegionCode": "BELG",
    "State": "Karnataka",
    "SubRegionCode": "BELG",
    "VenueAddress": "Camp Area, Khanapur Road, Opposite Hotel Pranaam, Belagavi (Belgaum), Karnataka 590001, India",
    "VenueCode": "GLOB",
    "VenueName": "Globe Cinemas: Camp Area"
  },
  "GOCS": {
    "AvailableFormats": "2D|3D",
    "City": "Mumbai",
    "Latitude": "19.0895",
    "Longitude": "72.8393",
    "RegionCode": "MUMBAI",
    "State": "Maharashtra",
    "SubRegionCode": "MWEST",
    "VenueAddress": "2nd Floor, Milan Garment Hub, Milan Subway Road, Santacruz West, Mumbai, Maharashtra 400054, India",
    "VenueCode": "GOCS",
    "VenueName": "Gold Cinema: Santacruz (W)"
  },
  "GPKA": {
    "AvailableFormats": "2D",
    "City": "Seoni",
    "Latitude": "22.0777",
    "Longitude": "79.5459",
    "RegionCode": "SEON",
    "State": "Madhya Pradesh",
    "SubRegionCode": "SEON",
    "VenueAddress": "Gopika Cinema and Shopping Mall, Nagpur Road, Seoni, Madhya Pradesh 480661, India",
    "VenueCode": "GPKA",
    "VenueName": "Gopika Cinema: Seoni"
  },
  "GRGA": {
    "AvailableFormats": "3D|2D",
    "City": "Guwahati",
    "Latitude": "26.1288",
    "Longitude": "91.811",
    "RegionCode": "GUW",
    "State": "Assam",
    "SubRegionCode": "GUW",
    "VenueAddress": "6th Floor, NRB City Mall, GS Raod, Sixmile, Khanapara, Guwahati, Assam 781022, India",
    "VenueCode": "GRGA",
    "VenueName": "Grand Royal Cines, Sixmile: Guwahati"
  },
  "GTBY": {
    "AvailableFormats": "2D",
    "City": "Bellary",
    "Latitude": "15.1441",
    "Longitude": "76.9284",
    "RegionCode": "BLRY",
    "State": "Karnataka",
    "SubRegionCode": "BLRY",
    "VenueAddress": "Natraj Theater Royal Circle, Natraj Theater Complex, Old Katte Gudda, Cowl Bazaar, Bellary, Karnataka 583101, India",
    "VenueCode": "GTBY",
    "VenueName": "Ganga Theatre: Bellary"
  },
  "GTSG": {
    "AvailableFormats": "2D",
    "City": "Gudivada",
    "Latitude": "16.4378",
    "Longitude": "80.9924",
    "RegionCode": "GUDI",
    "State": "Andhra Pradesh",
    "SubRegionCode": "GUDI",
    "VenueAddress": "D.No 11-235, Eluru Road, Gudivada, Andhra Pradesh 521301, India",
    "VenueCode": "GTSG",
    "VenueName": "G3 Theatres Sindhura: Gudivada"
  },
  "GVCP": {
    "AvailableFormats": "2D",
    "City": "Pileru",
    "Latitude": "13.6577",
    "Longitude": "78.9366",
    "RegionCode": "PLRU",
    "State": "Andhra Pradesh",
    "SubRegionCode": "PLRU",
    "VenueAddress": "Off National Highway 205, Piler, Pileru, Andhra Pradesh 517214, India",
    "VenueCode": "GVCP",
    "VenueName": "GV Cinemas (Ajantha Theater): Pileru"
  },
  "HANS": {
    "AvailableFormats": "",
    "City": "Chalisgaon",
    "FirstTracked": "2026-07-14",
    "Latitude": "20.4616",
    "Longitude": "74.9972",
    "RegionCode": "CHLS",
    "State": "Maharashtra",
    "SubRegionCode": "CHLS",
    "VenueAddress": "92, Ganesh Nagar, Hans Theatre Road, Chalisgaon, Maharashtra 424101, India",
    "VenueCode": "HANS",
    "VenueName": "Raj Chitramandir: Chalisgaon"
  },
  "HFSQ": {
    "AvailableFormats": "2D",
    "City": "Bicholim",
    "Latitude": "15.5878",
    "Longitude": "73.9441",
    "RegionCode": "GOA",
    "State": "Goa",
    "SubRegionCode": "BICG",
    "VenueAddress": "Bicholim Road, Bicholim, Near Dreams Bakery, Bicholim, Goa 403504, India",
    "VenueCode": "HFSQ",
    "VenueName": "Z Square Hira Talkies: Bicholim"
  },
  "HMHD": {
    "AvailableFormats": "2D|3D",
    "City": "Hyderabad",
    "Latitude": "17.4445",
    "Longitude": "78.3882",
    "RegionCode": "HYD",
    "State": "Telangana",
    "SubRegionCode": "HYD",
    "VenueAddress": "Hitech City Road, Sri Sai Nagar, Madhapur, Near State Bank Of India, Hyderabad, Telangana 500034, India",
    "VenueCode": "HMHD",
    "VenueName": "BR Hitech 70mm: Madhapur"
  },
  "HVCA": {
    "AvailableFormats": "2D",
    "City": "Ahmedabad",
    "Latitude": "23.0115",
    "Longitude": "72.5976",
    "RegionCode": "AHD",
    "State": "Gujarat",
    "SubRegionCode": "AHD",
    "VenueAddress": "1st Floor, Eka Club by TransStadia, Kankaria Lake, Opposite Gate No.3, Ahmedabad, Gujarat 380022, India",
    "VenueCode": "HVCA",
    "VenueName": "Havelock Cineflix Cinemas: Maninagar, Ahmedabad"
  },
  "IDEN": {
    "AvailableFormats": "2D",
    "City": "Delhi",
    "Latitude": "28.5513",
    "Longitude": "77.2515",
    "RegionCode": "NCR",
    "State": "NCR",
    "SubRegionCode": "DELHI",
    "VenueAddress": "Lower Ground Floor, Epicuria, TDI South Bridge, Nehru Place Metro Station, PD Area, Delhi, NCR 110019, India",
    "VenueCode": "IDEN",
    "VenueName": "INOX: Insignia At Epicuria, Nehru Place"
  },
  "ILCM": {
    "AvailableFormats": "3D|2D",
    "City": "Lucknow",
    "Latitude": "26.8886",
    "Longitude": "81.0554",
    "RegionCode": "LUCK",
    "State": "Uttar Pradesh",
    "SubRegionCode": "LUCK",
    "VenueAddress": "INOX  Leisure LTD, 3rd Floor, Crown Mall, Faizabad Road, Atif Vihar, Opposite BBD University, Lucknow, Uttar Pradesh 226028, India",
    "VenueCode": "ILCM",
    "VenueName": "INOX: Crown Mall, Lucknow"
  },
  "IMKN": {
    "AvailableFormats": "2D|3D",
    "City": "Kolkata",
    "Latitude": "22.7032",
    "Longitude": "88.4718",
    "RegionCode": "KOLK",
    "State": "West Bengal",
    "SubRegionCode": "KOLK",
    "VenueAddress": "3rd Floor, Star Mall, 74/Mall/1 Jessore Road (North), Sisir Kunja,Madhyamgram, Kolkata, West Bengal 700129, India",
    "VenueCode": "IMKN",
    "VenueName": "INOX: Star Mall, Madhyamgram"
  },
  "INAG": {
    "AvailableFormats": "3D|2D",
    "City": "Guwahati",
    "Latitude": "26.1495",
    "Longitude": "91.7858",
    "RegionCode": "GUW",
    "State": "Assam",
    "SubRegionCode": "GUW",
    "VenueAddress": "Aurus Mall, 5th Floor, G.S. Road, Dispur, Guwahati, Assam 781006, India",
    "VenueCode": "INAG",
    "VenueName": "INOX: Aurus, Guwahati"
  },
  "INBM": {
    "AvailableFormats": "2D|3D",
    "City": "Bengaluru",
    "Latitude": "12.966",
    "Longitude": "77.7179",
    "RegionCode": "HOKT",
    "State": "Karnataka",
    "SubRegionCode": "HOKT",
    "VenueAddress": "INOX Leisure Ltd, 4th Floor, Brookefield Mall, Kundalahalli Main Road, Bengaluru, Karnataka 560037, India",
    "VenueCode": "INBM",
    "VenueName": "INOX: Brookefield Mall"
  },
  "INEL": {
    "AvailableFormats": "2D|3D",
    "City": "Lucknow",
    "Latitude": "26.788",
    "Longitude": "80.9105",
    "RegionCode": "LUCK",
    "State": "Uttar Pradesh",
    "SubRegionCode": "LUCK",
    "VenueAddress": "3rd Floor, Emerald Mall, CP 138, Sector D1, LDA Colony, Ashiyana, Lucknow, Uttar Pradesh 226012, India",
    "VenueCode": "INEL",
    "VenueName": "INOX: Megaplex Emerald, Lucknow"
  },
  "INHD": {
    "AvailableFormats": "2D",
    "City": "Kolkata",
    "Latitude": "22.5649",
    "Longitude": "88.3592",
    "RegionCode": "KOLK",
    "State": "West Bengal",
    "SubRegionCode": "KOLK",
    "VenueAddress": "76, Ganesh Chandra Avenue, Bow Bazaar, Dharmatala, Near Chandni Chowk Metro Station, Kolkata, West Bengal 700013, India",
    "VenueCode": "INHD",
    "VenueName": "Hind INOX: Kolkata"
  },
  "INMG": {
    "AvailableFormats": "2D|3D",
    "City": "Goa",
    "Latitude": "15.2848",
    "Longitude": "73.9576",
    "RegionCode": "GOA",
    "State": "Goa",
    "SubRegionCode": "GOA",
    "VenueAddress": "G Wing, Osia Commercial Arcade, SGPDA Market Complex, Goa, Goa 403601, India",
    "VenueCode": "INMG",
    "VenueName": "INOX: Osia G Wing Margao, Goa"
  },
  "INOM": {
    "AvailableFormats": "2D",
    "City": "Salem",
    "Latitude": "11.6745",
    "Longitude": "78.1326",
    "RegionCode": "SALM",
    "State": "Tamil Nadu",
    "SubRegionCode": "SALM",
    "VenueAddress": "1st Floor, Reliance Mall, Five Roads Junction, Meyyanur, Salem, Tamil Nadu 636004, India",
    "VenueCode": "INOM",
    "VenueName": "INOX: Reliance Mall, Salem"
  },
  "INQM": {
    "AvailableFormats": "2D|3D",
    "City": "Kolkata",
    "Latitude": "22.5393",
    "Longitude": "88.3657",
    "RegionCode": "BARR",
    "State": "West Bengal",
    "SubRegionCode": "BARR",
    "VenueAddress": "4th Floor,Quest Mall, Syed Amir Ali Avenue, Opposite Our Lady Queen Of The Missions School, Kolkata, West Bengal 700017, India",
    "VenueCode": "INQM",
    "VenueName": "INOX: Quest Mall"
  },
  "INSC": {
    "AvailableFormats": "2D|3D",
    "City": "Thrissur",
    "Latitude": "10.5504",
    "Longitude": "76.1838",
    "RegionCode": "MANR",
    "State": "Kerala",
    "SubRegionCode": "MANR",
    "VenueAddress": "INOX Leisure Ltd, 2nd Floor, Sobha City Mall, Puzhakkal, Thrissur, Kerala 680553, India",
    "VenueCode": "INSC",
    "VenueName": "INOX: Sobha City Mall"
  },
  "INTN": {
    "AvailableFormats": "3D|2D",
    "City": "Patna",
    "Latitude": "25.6057",
    "Longitude": "85.1337",
    "RegionCode": "PATN",
    "State": "Bihar",
    "SubRegionCode": "PATN",
    "VenueAddress": "PVR INOX Limited, KP Mall, 4th Floor, Budha Marg, Patna, Bihar 800001, India",
    "VenueCode": "INTN",
    "VenueName": "INOX: Ashok, Patna"
  },
  "INVP": {
    "AvailableFormats": "2D",
    "City": "Vijayawada",
    "Latitude": "16.5026",
    "Longitude": "80.6599",
    "RegionCode": "KADU",
    "State": "Andhra Pradesh",
    "SubRegionCode": "KADU",
    "VenueAddress": "3rd Floor, LEPL Icon, RTC Colony, Benz Circle, Patamata, Near Maris Stella College, Vijayawada, Andhra Pradesh 520010, India",
    "VenueCode": "INVP",
    "VenueName": "INOX: LEPL Icon, Patamata"
  },
  "IOMG": {
    "AvailableFormats": "2D|3D",
    "City": "Greater Noida",
    "Latitude": "28.4888",
    "Longitude": "77.5145",
    "RegionCode": "NCR",
    "State": "NCR",
    "SubRegionCode": "GRET",
    "VenueAddress": "INOX Leisure Ltd, 2nd Floor, Omaxe Connaught Place Mall, H Block, Sector Beta- 2, Greater Noida, NCR 201308, India",
    "VenueCode": "IOMG",
    "VenueName": "INOX: Omaxe Connaught Place Mall, Greater Noida"
  },
  "IPMJ": {
    "AvailableFormats": "2D|3D",
    "City": "Delhi",
    "Latitude": "28.5371",
    "Longitude": "77.2831",
    "RegionCode": "NCR",
    "State": "NCR",
    "SubRegionCode": "DELHI",
    "VenueAddress": "3rd Floor, Pacific Mall, Mathura Road, Delhi, NCR 110076, India",
    "VenueCode": "IPMJ",
    "VenueName": "INOX: Pacific Mall, Jasola"
  },
  "ISMG": {
    "AvailableFormats": "3D|2D",
    "City": "Ghaziabad",
    "Latitude": "28.6342",
    "Longitude": "77.3695",
    "RegionCode": "MRDG",
    "State": "NCR",
    "SubRegionCode": "MRDG",
    "VenueAddress": "Shipra Mall, 3rd Floor, Plot No.9, Vaibhav Khand, Indira Puram, Ghaziabad, NCR 201014, India",
    "VenueCode": "ISMG",
    "VenueName": "INOX: Shipra Mall, Ghaziabad"
  },
  "IVNM": {
    "AvailableFormats": "",
    "City": "Hyderabad",
    "Latitude": "17.4946",
    "Longitude": "78.3549",
    "RegionCode": "HYD",
    "State": "Telangana",
    "SubRegionCode": "HYD",
    "VenueAddress": "6th floor, SMR Vinay Metro Mall, Miyapur, Hyderabad, Telangana 500049, India",
    "VenueCode": "IVNM",
    "VenueName": "INOX: SMR Vinay Metro Mall, Dolby ATMOS: Miyapur"
  },
  "JAYD": {
    "AvailableFormats": "2D",
    "City": "Tirupati",
    "Latitude": "13.631",
    "Longitude": "79.4247",
    "RegionCode": "TIRU",
    "State": "Andhra Pradesh",
    "SubRegionCode": "TIRU",
    "VenueAddress": "Mallaiah Gunta Katta, Tata Nagar, Tirupati, Andhra Pradesh 517501, India",
    "VenueCode": "JAYD",
    "VenueName": "NVR Jaysyam A/C 4K Dolby Atmos: Tirupati"
  },
  "JCHB": {
    "AvailableFormats": "2D",
    "City": "Chapra",
    "Latitude": "25.7839",
    "Longitude": "84.7407",
    "RegionCode": "CHPR",
    "State": "Bihar",
    "SubRegionCode": "CHPR",
    "VenueAddress": "Sri Nandan Path Road, Dahiyawan Tola, Near Astha Nursing Home, Chapra, Bihar 841301, India",
    "VenueCode": "JCHB",
    "VenueName": "Jyoti Cinema: Chapra"
  },
  "JDDD": {
    "AvailableFormats": "2D|3D",
    "City": "Ranchi",
    "Latitude": "23.358",
    "Longitude": "85.3247",
    "RegionCode": "RANC",
    "State": "Jharkhand",
    "SubRegionCode": "RANC",
    "VenueAddress": "JD High Street Mall, 07th Floor, Mahatma Gandhi Main Road, Opposite - GEL Church Complex, Ranchi, Jharkhand 834001, India",
    "VenueCode": "JDDD",
    "VenueName": "JD Cinemas: JD HI Street Mall, Ranchi"
  },
  "JJCK": {
    "AvailableFormats": "2D",
    "City": "Siddharthnagar",
    "Latitude": "27.2892",
    "Longitude": "83.0831",
    "RegionCode": "SIDZ",
    "State": "Uttar Pradesh",
    "SubRegionCode": "SIDZ",
    "VenueAddress": "Tetri Bazar Town, Tetari Bazar, Siddharthnagar, Uttar Pradesh 272207, India",
    "VenueCode": "JJCK",
    "VenueName": "Jyoti Cineplex: Siddharthnagar"
  },
  "JMBA": {
    "AvailableFormats": "2D",
    "City": "Buchireddypalem",
    "Latitude": "14.5351",
    "Longitude": "79.8773",
    "RegionCode": "BCHR",
    "State": "Andhra Pradesh",
    "SubRegionCode": "BCHR",
    "VenueAddress": "Buchi Old, Bus stand, SH 57, Nagamambapuram, Buchireddypalem, Andhra Pradesh 524305, India",
    "VenueCode": "JMBA",
    "VenueName": "Jameela Mahal: Buchireddypalem"
  },
  "JPCC": {
    "AvailableFormats": "2D",
    "City": "Chhatarpur",
    "Latitude": "24.9439",
    "Longitude": "79.564",
    "RegionCode": "CHHT",
    "State": "Madhya Pradesh",
    "SubRegionCode": "CHHT",
    "VenueAddress": "JP Paradise, Peptech Town, Nowgong Road, National Highway 39, Chhatarpur, Madhya Pradesh 471001, India",
    "VenueCode": "JPCC",
    "VenueName": "JP Cinemas: Chhatarpur"
  },
  "JTBP": {
    "AvailableFormats": "2D",
    "City": "Warangal",
    "Latitude": "18.000055",
    "Longitude": "79.588167",
    "RegionCode": "WAR",
    "State": "Telangana",
    "SubRegionCode": "WAR",
    "VenueAddress": "Hyderabad-Warangal-Bhopalpatnam Road, Rahamatnagar, Main Road, Warangal, Telangana 506003, India",
    "VenueCode": "JTBP",
    "VenueName": "Bhavani Picture Palace: Kazipet"
  },
  "JTLT": {
    "AvailableFormats": "2D",
    "City": "Narasannapeta",
    "Latitude": "18.4161",
    "Longitude": "84.0412",
    "RegionCode": "NRPT",
    "State": "Andhra Pradesh",
    "SubRegionCode": "NRPT",
    "VenueAddress": "Maruthi Nagar, Near LIC Office, Narasannapeta, Andhra Pradesh 532421, India",
    "VenueCode": "JTLT",
    "VenueName": "Sri Lakshmi Talkies AC DTS: Narasannapeta"
  },
  "JTPT": {
    "AvailableFormats": "2D",
    "City": "Tenali",
    "Latitude": "16.2406",
    "Longitude": "80.6425",
    "RegionCode": "TENA",
    "State": "Andhra Pradesh",
    "SubRegionCode": "TENA",
    "VenueAddress": "D.No.8-10-1, TS No 20, Ward No.7, Block No.3, Giri Road, Morrispet, Balajirao Pet, Near Railway Station, Tenali, Andhra Pradesh 522202, India",
    "VenueCode": "JTPT",
    "VenueName": "Priya Sri Priya Complex: Tenali"
  },
  "JTTS": {
    "AvailableFormats": "2D",
    "City": "Sangareddy",
    "Latitude": "17.6148",
    "Longitude": "78.0788",
    "RegionCode": "SARE",
    "State": "Telangana",
    "SubRegionCode": "SARE",
    "VenueAddress": "2, Rajampet Road, Veerabhadranagar, Ahmed Nagar, Near Income Tax Office, Sangareddy, Telangana 502001, India",
    "VenueCode": "JTTS",
    "VenueName": "Rukmini Theatre: Sangareddy"
  },
  "JVTB": {
    "AvailableFormats": "2D",
    "City": "Bodinayakanur",
    "Latitude": "10.01",
    "Longitude": "77.3497",
    "RegionCode": "BODI",
    "State": "Tamil Nadu",
    "SubRegionCode": "BODI",
    "VenueAddress": "Ammankulam, Subanchetty Street, Near Pandyan Grama Bank, Bodinayakanur, Tamil Nadu 625513, India",
    "VenueCode": "JVTB",
    "VenueName": "Theatre Jivan: Bodi"
  },
  "KACR": {
    "AvailableFormats": "2D",
    "City": "Arambagh",
    "Latitude": "22.8852",
    "Longitude": "87.7866",
    "RegionCode": "AMBH",
    "State": "West Bengal",
    "SubRegionCode": "AMBH",
    "VenueAddress": "SH2, Near Karuna Market, Arambagh, West Bengal 712601, India",
    "VenueCode": "KACR",
    "VenueName": "Karuna Cinema: Arambagh"
  },
  "KAVE": {
    "AvailableFormats": "2D",
    "City": "Coimbatore",
    "Latitude": "11.0192",
    "Longitude": "76.9639",
    "RegionCode": "COIM",
    "State": "Tamil Nadu",
    "SubRegionCode": "COIM",
    "VenueAddress": "No 167, Dr Rajendraprasad Road (100 ft road), Karpagam Cine Complex, Gandhipuram, Coimbatore, Tamil Nadu 641012, India",
    "VenueCode": "KAVE",
    "VenueName": "Kaveri Cinema: Coimbatore"
  },
  "KCJS": {
    "AvailableFormats": "2D",
    "City": "Jhansi",
    "Latitude": "25.4482",
    "Longitude": "78.5675",
    "RegionCode": "JNSI",
    "State": "Uttar Pradesh",
    "SubRegionCode": "JNSI",
    "VenueAddress": "Civil Lines-5, 165, Prathvipur, Jhansi Elite - Shivpuri Road, Behind HDFC Bank, Jhansi, Uttar Pradesh 284001, India",
    "VenueCode": "KCJS",
    "VenueName": "Khilona Cinema: Jhansi"
  },
  "KCPM": {
    "AvailableFormats": "2D",
    "City": "Pattambi",
    "Latitude": "10.8016",
    "Longitude": "76.1664",
    "RegionCode": "PTMB",
    "State": "Kerala",
    "SubRegionCode": "PTMB",
    "VenueAddress": "Puthiya Gate, Koppam - Muthuthala Road, Perumudiyur P.O, Pattambi, Kerala 679303, India",
    "VenueCode": "KCPM",
    "VenueName": "Krishna Cineplex: 4K RGB Laser 3D Dolby Atmos"
  },
  "KFMT": {
    "AvailableFormats": "2D",
    "City": "Thalikulam",
    "Latitude": "10.4413",
    "Longitude": "76.0938",
    "RegionCode": "THAI",
    "State": "Kerala",
    "SubRegionCode": "THAI",
    "VenueAddress": "Karthika Movies, National Highway 66, Thalikulam, Kerala 680569, India",
    "VenueCode": "KFMT",
    "VenueName": "Karthika Fun Movies Thalikulam RGB 4K Laser Atmos"
  },
  "KKCI": {
    "AvailableFormats": "2D|3D",
    "City": "Imphal",
    "Latitude": "24.7699",
    "Longitude": "93.9367",
    "RegionCode": "IMPH",
    "State": "Manipur",
    "SubRegionCode": "IMPH",
    "VenueAddress": "Kumecs Infratech, Kumecs City Centre, Kakwa, Imphal West, Imphal, Manipur 795008, India",
    "VenueCode": "KKCI",
    "VenueName": "Kumecs Cinema: Imphal"
  },
  "KLJL": {
    "AvailableFormats": "2D",
    "City": "Yellandu",
    "Latitude": "17.5843",
    "Longitude": "80.329",
    "RegionCode": "YRLL",
    "State": "Telangana",
    "SubRegionCode": "YRLL",
    "VenueAddress": "Bhagya Nagar, Thanda, Yellandu, Telangana 507123, India",
    "VenueCode": "KLJL",
    "VenueName": "Kalanjali Theater: Yellandu"
  },
  "KMPG": {
    "AvailableFormats": "2D",
    "City": "Ganapavaram",
    "Latitude": "16.7032",
    "Longitude": "81.4632",
    "RegionCode": "GANP",
    "State": "Andhra Pradesh",
    "SubRegionCode": "GANP",
    "VenueAddress": "Ganapavaram - Pippara Road, Near Ganapavaram Panchayat Office, Ganapavaram, Andhra Pradesh 534198, India",
    "VenueCode": "KMPG",
    "VenueName": "Kumari Picture Palace A/C Dts: Ganapavaram"
  },
  "KPPB": {
    "AvailableFormats": "2D",
    "City": "Bahraich",
    "Latitude": "27.5715",
    "Longitude": "81.6027",
    "RegionCode": "BHRH",
    "State": "Uttar Pradesh",
    "SubRegionCode": "BHRH",
    "VenueAddress": "Kanoon Go Pura South, Brahmnipura, Near Disha Complex, Bahraich, Uttar Pradesh 271801, India",
    "VenueCode": "KPPB",
    "VenueName": "K Cinemas: Bahraich"
  },
  "KRJG": {
    "AvailableFormats": "2D",
    "City": "Jaggampeta",
    "Latitude": "17.1752",
    "Longitude": "82.0621",
    "RegionCode": "JAGG",
    "State": "Andhra Pradesh",
    "SubRegionCode": "JAGG",
    "VenueAddress": "Jaggampeta-Ramavaram Road, Near Bank of Baroda, Jaggampeta, Andhra Pradesh 533435, India",
    "VenueCode": "KRJG",
    "VenueName": "Krishnaveni Theatre: Jaggampeta"
  },
  "KSES": {
    "AvailableFormats": "2D",
    "City": "Vasco Da Gama",
    "Latitude": "15.3971",
    "Longitude": "73.813",
    "RegionCode": "PANA",
    "State": "Goa",
    "SubRegionCode": "PANA",
    "VenueAddress": "1930 Vasco, Opposite The  HQ, Swatantra Path, Vasco Da Gama, Goa 403802, India",
    "VenueCode": "KSES",
    "VenueName": "1930 Vasco"
  },
  "KSTK": {
    "AvailableFormats": "2D",
    "City": "Chennai",
    "Latitude": "13.0316",
    "Longitude": "80.2065",
    "RegionCode": "CHEN",
    "State": "Tamil Nadu",
    "SubRegionCode": "CHEN",
    "VenueAddress": "No-4, Pillaiyar Koil St, Jafferkhanpet, Chennai, Tamil Nadu 600083, India",
    "VenueCode": "KSTK",
    "VenueName": "Kasi Talkies Dolby Atmos: Ashok Nagar"
  },
  "KTJG": {
    "AvailableFormats": "",
    "City": "Jaggampeta",
    "FirstTracked": "2026-07-14",
    "Latitude": "17.1752",
    "Longitude": "82.0621",
    "RegionCode": "JAGG",
    "State": "Andhra Pradesh",
    "SubRegionCode": "JAGG",
    "VenueAddress": "Jaggampeta-Ramavaram Road, Near Bank of Baroda, Jaggampeta, Andhra Pradesh 533435, India",
    "VenueCode": "KTJG",
    "VenueName": "Krishnaveni Theatre: Jaggampeta"
  },
  "KYID": {
    "AvailableFormats": "2D",
    "City": "Indore",
    "Latitude": "22.667",
    "Longitude": "75.8225",
    "RegionCode": "IND",
    "State": "Madhya Pradesh",
    "SubRegionCode": "IND",
    "VenueAddress": "Kalyan Cinemas, Kalyan Mall, 340, Sukhnivas Road, Dutt Nagar, Rajendra Nagar, Next to D Mart, Indore, Madhya Pradesh 452012, India",
    "VenueCode": "KYID",
    "VenueName": "Kalyan Cinemas: Rajendra Nagar, Indore"
  },
  "LCDA": {
    "AvailableFormats": "2D",
    "City": "Theni",
    "Latitude": "10.1265",
    "Longitude": "77.5375",
    "RegionCode": "THEN",
    "State": "Tamil Nadu",
    "SubRegionCode": "THEN",
    "VenueAddress": "1/348 State Bank Colony, Keelavadakarai, Periyakulam, Theni, Tamil Nadu 625601, India",
    "VenueCode": "LCDA",
    "VenueName": "Lucky Cinemas Dolby Atmos: Periyakulam"
  },
  "LCTM": {
    "AvailableFormats": "2D",
    "City": "Trivandrum",
    "Latitude": "8.48838",
    "Longitude": "76.9519",
    "RegionCode": "VKAL",
    "State": "Kerala",
    "SubRegionCode": "VKAL",
    "VenueAddress": "KSRTC Bus Terminal Complex, Thampanoor, Thiruvananthapuram, Near Ponnara Sreedhar Park, Trivandrum, Kerala 695014, India",
    "VenueCode": "LCTM",
    "VenueName": "Lenin Cinemas 4K 3D Dolby Atmos KSFDC: Trivandrum"
  },
  "LISA": {
    "AvailableFormats": "2D",
    "City": "Sehore",
    "Latitude": "23.2016",
    "Longitude": "77.0796",
    "RegionCode": "SEHO",
    "State": "Madhya Pradesh",
    "SubRegionCode": "SEHO",
    "VenueAddress": "42, Sindhi Colony, Main Road, Near State bank of India, Next to City Post Office, Sehore, Madhya Pradesh 466001, India",
    "VenueCode": "LISA",
    "VenueName": "Lisa Multiplex Screen 1: Sehore"
  },
  "LKTH": {
    "AvailableFormats": "2D",
    "City": "Bengaluru",
    "Latitude": "12.9253",
    "Longitude": "77.6076",
    "RegionCode": "HOKT",
    "State": "Karnataka",
    "SubRegionCode": "HOKT",
    "VenueAddress": "Near to Bangalore Dairy BTM Layout, Balaji Nagar, Tavarekere Road, Opposite to Forum Mall, Bengaluru, Karnataka 560081, India",
    "VenueCode": "LKTH",
    "VenueName": "Lakshmi Cinema 4K Dolby Atmos RGB Laser Tavarekere"
  },
  "LMHO": {
    "AvailableFormats": "2D|3D",
    "City": "Hosur",
    "Latitude": "12.7422",
    "Longitude": "77.8288",
    "RegionCode": "HSUR",
    "State": "Tamil Nadu",
    "SubRegionCode": "HSUR",
    "VenueAddress": "Survy No- 518/1A, Plot No.205-A, NHS Hosur, Phase VII, Krishnagiri, Hosur, Tamil Nadu 635109, India",
    "VenueCode": "LMHO",
    "VenueName": "Lakshmi Cinemas RGB Laser QSC Dolby Atmos: Hosur"
  },
  "LSCM": {
    "AvailableFormats": "2D",
    "City": "Gurugram (Gurgaon)",
    "Latitude": "28.4347",
    "Longitude": "77.0681",
    "RegionCode": "NCR",
    "State": "NCR",
    "SubRegionCode": "GURG",
    "VenueAddress": "Mall Fifty One 104, Sector 51, Gurugram (Gurgaon), NCR 122003, India",
    "VenueCode": "LSCM",
    "VenueName": "Legend Cinema Lounges: Mall Fifty One, Gurgaon"
  },
  "LXTK": {
    "AvailableFormats": "2D",
    "City": "Kakinada",
    "Latitude": "16.9442",
    "Longitude": "82.2361",
    "RegionCode": "KAKI",
    "State": "Andhra Pradesh",
    "SubRegionCode": "KAKI",
    "VenueAddress": "D No. 42-1-11, Vallabhai Street, Cinema Road, Suryanarayana Puram, Kakinada, Andhra Pradesh 533001, India",
    "VenueCode": "LXTK",
    "VenueName": "Laxmi  A/C  Dts 2K: Kakinada"
  },
  "MABI": {
    "AvailableFormats": "2D|3D",
    "City": "Bhilai",
    "Latitude": "21.2125",
    "Longitude": "81.4321",
    "RegionCode": "BHILAI",
    "State": "Chhattisgarh",
    "SubRegionCode": "BHILAI",
    "VenueAddress": "Nagar Palika Road, Shanti Nagar, Charoda, Near Jila Sahakari Kendriya Bank Maryadit Bank, Bhilai, Chhattisgarh 490021, India",
    "VenueCode": "MABI",
    "VenueName": "Mukta A2 Cinema, Babyloon (Bhilai 3): Bhilai"
  },
  "MAFC": {
    "AvailableFormats": "2D",
    "City": "Sangli",
    "Latitude": "16.8603",
    "Longitude": "74.5698",
    "RegionCode": "SANG",
    "State": "Maharashtra",
    "SubRegionCode": "SANG",
    "VenueAddress": "3rd Floor, SFC Mega Mall, Station Road, Sangli, Maharashtra 416416, India",
    "VenueCode": "MAFC",
    "VenueName": "Mukta A2 Cinemas: SFC Mega Mall, Sangli"
  },
  "MAJU": {
    "AvailableFormats": "2D",
    "City": "Bhusawal",
    "Latitude": "21.0482",
    "Longitude": "75.7777",
    "RegionCode": "BHUS",
    "State": "Maharashtra",
    "SubRegionCode": "BHUS",
    "VenueAddress": "Juna Satara, Mahatma Fule Nagar, Mamaji Talkies Road, Bhusawal, Maharashtra 425201, India",
    "VenueCode": "MAJU",
    "VenueName": "Shree Mamaji Talkies: Bhusawal"
  },
  "MATN": {
    "AvailableFormats": "2D|3D",
    "City": "Ahmedabad",
    "Latitude": "23.0145",
    "Longitude": "72.5174",
    "RegionCode": "AHD",
    "State": "Gujarat",
    "SubRegionCode": "AHD",
    "VenueAddress": "Ratnanjali Infra LLP, 2nd Floor, 208 To 215, Ratnanjali Square, Near Gloriya Restaurant, Prerna Tirth Road, Prahladnagar, Ahmedabad, Gujarat 380015, India",
    "VenueCode": "MATN",
    "VenueName": "Mukta A2 Cinemas: Ratnanjali Square Satellite"
  },
  "MBCR": {
    "AvailableFormats": "2D|3D",
    "City": "Jodhpur",
    "Latitude": "26.2837",
    "Longitude": "73.0383",
    "RegionCode": "JODH",
    "State": "Rajasthan",
    "SubRegionCode": "JODH",
    "VenueAddress": "Blue City Mall, 3rd Floor, Circuit House Road, Jodhpur, Rajasthan 342001, India",
    "VenueCode": "MBCR",
    "VenueName": "Miraj Cinemas: Blue City Mall, Jodhpur"
  },
  "MCAZ": {
    "AvailableFormats": "",
    "City": "Delhi",
    "Latitude": "28.7099",
    "Longitude": "77.1782",
    "RegionCode": "NCR",
    "State": "NCR",
    "SubRegionCode": "DELHI",
    "VenueAddress": "Aakash Cinema Complex, 2nd Floor, Naniwala Bagh, Azadpur, Delhi, NCR 110033, India",
    "VenueCode": "MCAZ",
    "VenueName": "Miraj Cinemas: Aakash, Azadpur"
  },
  "MCDE": {
    "AvailableFormats": "",
    "City": "Delhi",
    "Latitude": "28.6384",
    "Longitude": "77.107",
    "RegionCode": "NCR",
    "State": "NCR",
    "SubRegionCode": "DELHI",
    "VenueAddress": "Plot No. S-26, Ajay Enclave, Meenakshi Garden, Subhash Nagar, New Delhi, Delhi, NCR 110018, India",
    "VenueCode": "MCDE",
    "VenueName": "Miraj Cinemas: Ivory Tower, Subhash Nagar"
  },
  "MCIK": {
    "AvailableFormats": "2D",
    "City": "Kochi",
    "Latitude": "10.0799",
    "Longitude": "76.2704",
    "RegionCode": "PALY",
    "State": "Kerala",
    "SubRegionCode": "PALY",
    "VenueAddress": "Chettibhagam Main Rd, Varapuzha, Near Christ The King Roman Catholic Church, Kochi, Kerala 683517, India",
    "VenueCode": "MCIK",
    "VenueName": "M Cinemas 4K 3D Dolby ATMOS: Varapuzha"
  },
  "MCKT": {
    "AvailableFormats": "",
    "City": "Hyderabad",
    "FirstTracked": "2026-07-14",
    "Latitude": "17.3696",
    "Longitude": "78.5396",
    "RegionCode": "HYD",
    "State": "Telangana",
    "SubRegionCode": "HYD",
    "VenueAddress": "Laxmi Nagar Colony, Kothapet Road, Near Axis Bank, Hyderabad, Telangana 500102, India",
    "VenueCode": "MCKT",
    "VenueName": "Mahalaxmi Complex: Kothapet"
  },
  "MCNR": {
    "AvailableFormats": "",
    "City": "Raipur",
    "Latitude": "21.1704",
    "Longitude": "81.7708",
    "RegionCode": "RAIPUR",
    "State": "Chhattisgarh",
    "SubRegionCode": "RAIPUR",
    "VenueAddress": "GS Entertainment, 4th Floor, Block E9-B, Retail Complex, Central Business District, Sector - 21, Nava Raipur Atal Nagar, Raipur, Chhattisgarh 492101, India",
    "VenueCode": "MCNR",
    "VenueName": "Miraj Cinemas: CBD, Nava Raipur"
  },
  "MCSK": {
    "AvailableFormats": "",
    "City": "Chennai",
    "Latitude": "12.9059",
    "Longitude": "80.2092",
    "RegionCode": "CHEN",
    "State": "Tamil Nadu",
    "SubRegionCode": "CHEN",
    "VenueAddress": "Sekaran Mall, 4th and 5th Floor, Survey No.452(3), Village Perumbakkam, Taluk Sholinganallur, Kancheepuram, Chennai, Tamil Nadu 600100, India",
    "VenueCode": "MCSK",
    "VenueName": "Miraj Cinemas: Sekaran Mall, Perrumbakkam"
  },
  "MCTY": {
    "AvailableFormats": "2D|3D",
    "City": "Indore",
    "Latitude": "22.7451",
    "Longitude": "75.9038",
    "RegionCode": "IND",
    "State": "Madhya Pradesh",
    "SubRegionCode": "IND",
    "VenueAddress": "Miraj Velocity Multiplex, Scheme 94C, Ring Road Indore, Near Radisson Hotel, Indore, Madhya Pradesh 452010, India",
    "VenueCode": "MCTY",
    "VenueName": "Velocity III: Miraj Cinemas, Indore"
  },
  "MDDC": {
    "AvailableFormats": "",
    "City": "Delhi",
    "Latitude": "28.6752",
    "Longitude": "77.288",
    "RegionCode": "NCR",
    "State": "NCR",
    "SubRegionCode": "DELHI",
    "VenueAddress": "Miraj Cinema Shahdara, Plot no.-813/1,G.T.Road, 2nd Floor, Vikash Mall, Shahdara, Delhi, NCR 110032, India",
    "VenueCode": "MDDC",
    "VenueName": "Miraj Cinemas: Vikas Cinemall, Shahdara"
  },
  "MELD": {
    "AvailableFormats": "2D",
    "City": "Vizag (Visakhapatnam)",
    "Latitude": "17.7113",
    "Longitude": "83.3005",
    "RegionCode": "SABB",
    "State": "Andhra Pradesh",
    "SubRegionCode": "SABB",
    "VenueAddress": "Suryabagh, Jagadamba Junction, V Max Theatre, Vizag, Andhra Pradesh 530020, India",
    "VenueCode": "MELD",
    "VenueName": "Sri Melody HDR Dolby Atmos: Vizag"
  },
  "METH": {
    "AvailableFormats": "2D|3D",
    "City": "Ahmedabad",
    "Latitude": "23.1027",
    "Longitude": "72.5952",
    "RegionCode": "AHD",
    "State": "Gujarat",
    "SubRegionCode": "AHD",
    "VenueAddress": "4D Square Mall, Visat - Gandhinagar Highway, Ahmedabad, Gujarat 380005, India",
    "VenueCode": "METH",
    "VenueName": "PVR: Motera, Ahmedabad"
  },
  "MHKT": {
    "AvailableFormats": "2D",
    "City": "Kanpur",
    "Latitude": "26.4673",
    "Longitude": "80.3172",
    "RegionCode": "KANP",
    "State": "Uttar Pradesh",
    "SubRegionCode": "KANP",
    "VenueAddress": "1st Floor Ratan Himachal Mall Ghumti No-5, Naseemabad Road, Kaushalpuri Darshan Purwa, Kanpur, Uttar Pradesh 208012, India",
    "VenueCode": "MHKT",
    "VenueName": "Movietime Cinemas: Ratan Himachal Mall, Kanpur"
  },
  "MIRN": {
    "AvailableFormats": "2D|3D",
    "City": "Nandurbar",
    "Latitude": "21.3537",
    "Longitude": "74.2424",
    "RegionCode": "NDNB",
    "State": "Maharashtra",
    "SubRegionCode": "NDNB",
    "VenueAddress": "Nandurbar Business Centre, S. No 387/2, Surat Bypass Road, Nandurbar, Maharashtra 425412, India",
    "VenueCode": "MIRN",
    "VenueName": "Miraj Cinemas: NBC, Nandurbar"
  },
  "MJMM": {
    "AvailableFormats": "",
    "City": "Gurugram (Gurgaon)",
    "Latitude": "28.4793",
    "Longitude": "77.0829",
    "RegionCode": "NCR",
    "State": "NCR",
    "SubRegionCode": "GURG",
    "VenueAddress": "2nd Floor, MGF Metropolis Mall, Near MG Metro Station, Mehrauli-Gurgaon Road, Sector 28, Gurugram (Gurgaon), NCR 122002, India",
    "VenueCode": "MJMM",
    "VenueName": "Miraj Maximum: Metropollis Mall, Gurgaon"
  },
  "MLAM": {
    "AvailableFormats": "2D",
    "City": "Siliguri",
    "Latitude": "26.7299",
    "Longitude": "88.4321",
    "RegionCode": "SILI",
    "State": "West Bengal",
    "SubRegionCode": "SILI",
    "VenueAddress": "6th Floor, Himalayan Builders, ML Acropolis Mall, Sevoke Road, 2nd Mile, Opposite - Anandalok Hospital, Siliguri, West Bengal 734001, India",
    "VenueCode": "MLAM",
    "VenueName": "INOX: ML Acropolis Mall, Siliguri"
  },
  "MMAH": {
    "AvailableFormats": "2D|3D",
    "City": "Hyderabad",
    "Latitude": "17.4631",
    "Longitude": "78.5607",
    "RegionCode": "HYD",
    "State": "Telangana",
    "SubRegionCode": "HYD",
    "VenueAddress": "AMR Planet Mall,1,Rd,373/1 and 373.3, Trimulgherry, ECIL Road, Extn -  Moula Ali, Secunderabad, Extn - Moula Ali, Secunderabad, Hyderabad, Telangana 500040, India",
    "VenueCode": "MMAH",
    "VenueName": "MovieMax: AMR, ECIL Secunderabad"
  },
  "MMEN": {
    "AvailableFormats": "3D|2D",
    "City": "Nagpur",
    "Latitude": "21.143",
    "Longitude": "79.0803",
    "RegionCode": "NAGP",
    "State": "Maharashtra",
    "SubRegionCode": "NAGP",
    "VenueAddress": "MovieMax, 4th Floor, Variety Square, Sitabuldi, Nagpur, Maharashtra 440012, India",
    "VenueCode": "MMEN",
    "VenueName": "MovieMax: Eternity, Nagpur"
  },
  "MMMX": {
    "AvailableFormats": "2D",
    "City": "Ajmer",
    "Latitude": "26.4832",
    "Longitude": "74.665",
    "RegionCode": "AJMER",
    "State": "Rajasthan",
    "SubRegionCode": "AJMER",
    "VenueAddress": "Opposite Forest Department, Jaipur Road, Near Hyundai Showroom, Ajmer, Rajasthan 305001, India",
    "VenueCode": "MMMX",
    "VenueName": "MayaMandir Multiplex (Dolby Atmos Sound): Ajmer"
  },
  "MMVI": {
    "AvailableFormats": "2D",
    "City": "Irinjalakuda",
    "Latitude": "10.3507",
    "Longitude": "76.2139",
    "RegionCode": "THSR",
    "State": "Kerala",
    "SubRegionCode": "THSR",
    "VenueAddress": "Njavarikulam Road, Irinjalakuda, Near Chembakassery MultiMall, Irinjalakuda, Kerala 680121, India",
    "VenueCode": "MMVI",
    "VenueName": "Mas Movies Irinjalakuda"
  },
  "MNCV": {
    "AvailableFormats": "2D",
    "City": "Chevella",
    "Latitude": "17.3116",
    "Longitude": "78.138",
    "RegionCode": "CHEV",
    "State": "Telangana",
    "SubRegionCode": "CHEV",
    "VenueAddress": "Survey No.5/3 Part, Main Road, Near Aloor Chevella Vegetable Market, Chevella, Telangana 501503, India",
    "VenueCode": "MNCV",
    "VenueName": "Manikanta Theatre 70mm AC Dolby Atmos 2K: Chevella"
  },
  "MPDB": {
    "AvailableFormats": "3D|2D",
    "City": "Bhubaneswar",
    "Latitude": "20.2962",
    "Longitude": "85.835",
    "RegionCode": "JATN",
    "State": "Odisha",
    "SubRegionCode": "JATN",
    "VenueAddress": "Bhoi Nagar, Service Road, Vani Vihar, Near Sky Automobile, Bhubaneswar, Odisha 751022, India",
    "VenueCode": "MPDB",
    "VenueName": "Maharaja (Christie 4K, DOLBY ATMOS 64 CHANNEL)"
  },
  "MRGB": {
    "AvailableFormats": "2D",
    "City": "Bengaluru",
    "Latitude": "12.8906",
    "Longitude": "77.5622",
    "RegionCode": "BANG",
    "State": "Karnataka",
    "SubRegionCode": "BANG",
    "VenueAddress": "No 21/5A, Konanakunte Cross Marg, Konanakunte, Bengaluru, Karnataka 560062, India",
    "VenueCode": "MRGB",
    "VenueName": "Manasa RGB Laser ATMOS: Konanakunte"
  },
  "MRSS": {
    "AvailableFormats": "2D",
    "City": "Changaramkulam",
    "Latitude": "10.7363",
    "Longitude": "76.029",
    "RegionCode": "EDPL",
    "State": "Kerala",
    "SubRegionCode": "EDPL",
    "VenueAddress": "Kunnamkulam Road, Changaramkulam, Opposite essar pterol pump, Changaramkulam, Kerala 679591, India",
    "VenueCode": "MRSS",
    "VenueName": "Mars Cinemas 4K Dolby Atmos: Changaramkulam"
  },
  "MSMA": {
    "AvailableFormats": "2D|3D",
    "City": "Kolkata",
    "Latitude": "22.5777",
    "Longitude": "88.4008",
    "RegionCode": "KOLK",
    "State": "West Bengal",
    "SubRegionCode": "KOLK",
    "VenueAddress": "Mani Square Mall,Plot No 164/1, EM Bypass Road, Beside Apollo Gleaneagles Hospital, Kolkata, West Bengal 700054, India",
    "VenueCode": "MSMA",
    "VenueName": "PVR: Mani Square Mall, Kolkata"
  },
  "MTCM": {
    "AvailableFormats": "2D",
    "City": "Chidambaram",
    "Latitude": "11.3949",
    "Longitude": "79.7012",
    "RegionCode": "CHID",
    "State": "Tamil Nadu",
    "SubRegionCode": "CHID",
    "VenueAddress": "SP Kovil Street, OP Main Road, Near Gm Vandayar Thirumana Mahal, Chidambaram, Tamil Nadu 608001, India",
    "VenueCode": "MTCM",
    "VenueName": "Mariyappa Theatre: Chidambaram"
  },
  "MTJA": {
    "AvailableFormats": "2D",
    "City": "Jammu",
    "Latitude": "32.7274",
    "Longitude": "74.8458",
    "RegionCode": "JAMM",
    "State": "Jammu and Kashmir",
    "SubRegionCode": "JAMM",
    "VenueAddress": "K C Central, Indira Theater, Canal Road, Jammu Tawi, Near The Raymond Shop, Jammu, Jammu and Kashmir 180002, India",
    "VenueCode": "MTJA",
    "VenueName": "Movietime Cinemas: Jammu"
  },
  "MTPK": {
    "AvailableFormats": "2D",
    "City": "Palakollu",
    "Latitude": "16.514",
    "Longitude": "81.731",
    "RegionCode": "PLKL",
    "State": "Andhra Pradesh",
    "SubRegionCode": "PLKL",
    "VenueAddress": "Penumadam Road, Near Market Yard, Palakollu, Andhra Pradesh 534260, India",
    "VenueCode": "MTPK",
    "VenueName": "Maruthi Theatre: Palakollu"
  },
  "MTZH": {
    "AvailableFormats": "2D",
    "City": "Zaheerabad",
    "Latitude": "17.6818",
    "Longitude": "77.6163",
    "RegionCode": "ZAGE",
    "State": "Telangana",
    "SubRegionCode": "ZAGE",
    "VenueAddress": "Main Road, Market Yard, Next to Andhra Bank, Near Zaheerabad Bus Depot, Zaheerabad, Telangana 502220, India",
    "VenueCode": "MTZH",
    "VenueName": "Asian Maheshwari 70MM A/C DTS: Zaheerabad"
  },
  "MVKH": {
    "AvailableFormats": "2D",
    "City": "Pollachi",
    "Latitude": "10.6558",
    "Longitude": "77.0055",
    "RegionCode": "POLL",
    "State": "Tamil Nadu",
    "SubRegionCode": "POLL",
    "VenueAddress": "19/1, Market Road, Theppakulam St, Vinayagar Kovil, Pollachi, Tamil Nadu 642001, India",
    "VenueCode": "MVKH",
    "VenueName": "Murukalaya & Vishal Cinema 4K Dolby Atmos:Pollachi"
  },
  "MXCS": {
    "AvailableFormats": "2D|3D",
    "City": "Greater Noida",
    "Latitude": "28.458",
    "Longitude": "77.5281",
    "RegionCode": "NCR",
    "State": "NCR",
    "SubRegionCode": "GRET",
    "VenueAddress": "MSX CINEMA, 3rd Floor, Sec-19, Block F, Industrial Area, Greater Noida, NCR 201310, India",
    "VenueCode": "MXCS",
    "VenueName": "MSX Cinemas: Greater Noida"
  },
  "MYCT": {
    "AvailableFormats": "2D",
    "City": "Thalayolaparambu",
    "Latitude": "9.78555",
    "Longitude": "76.4529",
    "RegionCode": "THAL",
    "State": "Kerala",
    "SubRegionCode": "THAL",
    "VenueAddress": "Thalayolaparambu P.O,Kottayam, Ernakulam Road, Ernakulam Road, Near Bharat Petrol Pump, Thalayolaparambu, Kerala 686605, India",
    "VenueCode": "MYCT",
    "VenueName": "MY Cinemas: Thalayolaparambu, Kerala"
  },
  "NACK": {
    "AvailableFormats": "2D",
    "City": "Kolkata",
    "Latitude": "22.5009",
    "Longitude": "88.3486",
    "RegionCode": "KOLK",
    "State": "West Bengal",
    "SubRegionCode": "KOLK",
    "VenueAddress": "85, Prince Anwar Shah Road, Tollygunge, Rajendra Prasad Colony, Kolkata, West Bengal 700033, India",
    "VenueCode": "NACK",
    "VenueName": "Navina Cinema: Tollygunge"
  },
  "NCCK": {
    "AvailableFormats": "2D",
    "City": "Naharlagun",
    "Latitude": "27.1088",
    "Longitude": "93.696",
    "RegionCode": "NAHA",
    "State": "Arunachal Pradesh",
    "SubRegionCode": "NAHA",
    "VenueAddress": "NH 52A, Cona, Opposite Moody Monk, Naharlagun, Arunachal Pradesh 791110, India",
    "VenueCode": "NCCK",
    "VenueName": "A National Cinema: Market Area, Naharlagun"
  },
  "NCMB": {
    "AvailableFormats": "2D",
    "City": "Buchireddypalem",
    "Latitude": "14.5346",
    "Longitude": "79.8791",
    "RegionCode": "BCHR",
    "State": "Andhra Pradesh",
    "SubRegionCode": "BCHR",
    "VenueAddress": "Nellore Road, Nagamambapuram, Buchireddypalem, Andhra Pradesh 524305, India",
    "VenueCode": "NCMB",
    "VenueName": "Naaz Cinemas: Buchireddypalem"
  },
  "NECF": {
    "AvailableFormats": "2D",
    "City": "Jhansi",
    "Latitude": "25.4482",
    "Longitude": "78.5695",
    "RegionCode": "JNSI",
    "State": "Uttar Pradesh",
    "SubRegionCode": "JNSI",
    "VenueAddress": "Rani Jhansi Road, Prathvipur, Civil Lines, Jhansi, Uttar Pradesh 284001, India",
    "VenueCode": "NECF",
    "VenueName": "Elite Cinema: Jhansi"
  },
  "NKCL": {
    "AvailableFormats": "2D",
    "City": "Lakhimpur",
    "Latitude": "27.2374",
    "Longitude": "94.1065",
    "RegionCode": "LAHA",
    "State": "Assam",
    "SubRegionCode": "LAHA",
    "VenueAddress": "Adarsha Market Complex, North Lakhimpur, CD Road, Near State Bank of India, Lakhimpur, Assam 787001, India",
    "VenueCode": "NKCL",
    "VenueName": "A Nakshatra Cinemas: Lakhimpur"
  },
  "NMXS": {
    "AvailableFormats": "2D",
    "City": "Silvassa",
    "Latitude": "20.2751",
    "Longitude": "73.0098",
    "RegionCode": "SILV",
    "State": "Gujarat",
    "SubRegionCode": "SILV",
    "VenueAddress": "Plot No. 2, Sr. No. 876/1/1/3, Bavisa Falia, Near Shree Sai Mobile Shop, Silvassa, Gujarat 396230, India",
    "VenueCode": "NMXS",
    "VenueName": "New Max Cinema: Silvassa"
  },
  "NRBL": {
    "AvailableFormats": "2D",
    "City": "Bengaluru",
    "Latitude": "12.9979",
    "Longitude": "77.5528",
    "RegionCode": "HOKT",
    "State": "Karnataka",
    "SubRegionCode": "HOKT",
    "VenueAddress": "2nd Block, 1762, Dr Rajkumar Road, 2nd Block, Mariappanapalya, Rajajinagar, Bengaluru, Karnataka 560021, India",
    "VenueCode": "NRBL",
    "VenueName": "Navrang Theatre: Rajaji Nagar"
  },
  "NTBT": {
    "AvailableFormats": "",
    "City": "Bantumilli",
    "FirstTracked": "2026-07-14",
    "Latitude": "16.3719",
    "Longitude": "81.2702",
    "RegionCode": "BANT",
    "State": "Andhra Pradesh",
    "SubRegionCode": "BANT",
    "VenueAddress": "Local Road Nataraj Theatre, Loclaroad, Bantumilli, Andhra Pradesh 521324, India",
    "VenueCode": "NTBT",
    "VenueName": "Nataraj Theater: Bantumilli"
  },
  "NTPU": {
    "AvailableFormats": "2D",
    "City": "Pudunagaram",
    "Latitude": "10.6814",
    "Longitude": "76.6736",
    "RegionCode": "PLKK",
    "State": "Kerala",
    "SubRegionCode": "PLKK",
    "VenueAddress": "Koduvayur, Palakkad, Pudunagaram, Kerala 678503, India",
    "VenueCode": "NTPU",
    "VenueName": "New Theatre 2K 3D Dolby Atmos: Pudunagaram"
  },
  "NVRN": {
    "AvailableFormats": "2D",
    "City": "Vijayawada",
    "Latitude": "16.5095",
    "Longitude": "80.6272",
    "RegionCode": "KADU",
    "State": "Andhra Pradesh",
    "SubRegionCode": "KADU",
    "VenueAddress": "Buckinghampeta, Palaparthi Vari Street, Near Help Hospitals, Vijayawada, Andhra Pradesh 520002, India",
    "VenueCode": "NVRN",
    "VenueName": "Navarang Theatre: Vijayawada"
  },
  "NYAG": {
    "AvailableFormats": "",
    "City": "Ahmedabad",
    "Latitude": "23.1176",
    "Longitude": "72.6098",
    "RegionCode": "AHD",
    "State": "Gujarat",
    "SubRegionCode": "AHD",
    "VenueAddress": "Aamrakunj Arne, 44TP Road, Nigam Nagar, Chandkheda, Near Gwalbhog, Ahmedabad, Gujarat 382424, India",
    "VenueCode": "NYAG",
    "VenueName": "Devgn CineX: Chandkheda, Ahmedabad"
  },
  "NYRG": {
    "AvailableFormats": "2D|3D",
    "City": "Guwahati",
    "Latitude": "26.1662",
    "Longitude": "91.7678",
    "RegionCode": "GUW",
    "State": "Assam",
    "SubRegionCode": "GUW",
    "VenueAddress": "3rd Floor, GHY 5, Roodraksh Mall, GS Road, Bhangagarh, Kamrup Metropolitan, Guwahati, Assam 781003, India",
    "VenueCode": "NYRG",
    "VenueName": "Ajay Devgn`s NY Cinemas: Roodraksh Mall, Guwahati"
  },
  "OCUR": {
    "AvailableFormats": "2D",
    "City": "Valsad",
    "Latitude": "20.5415",
    "Longitude": "72.9106",
    "RegionCode": "VLSD",
    "State": "Gujarat",
    "SubRegionCode": "VLSD",
    "VenueAddress": "Unique Resort and Lifestyle, Bhagod, Near to manav trust, Valsad, Gujarat 396001, India",
    "VenueCode": "OCUR",
    "VenueName": "Opera Cinema: Unique Resort & Lifestyle"
  },
  "ONEG": {
    "AvailableFormats": "",
    "City": "Gurugram (Gurgaon)",
    "FirstTracked": "2026-07-14",
    "Latitude": "28.4615",
    "Longitude": "77.0527",
    "RegionCode": "NCR",
    "State": "NCR",
    "SubRegionCode": "GURG",
    "VenueAddress": "Star Mall 2nd floor, NH 8, Gurugram (Gurgaon), NCR 122001, India",
    "VenueCode": "ONEG",
    "VenueName": "1 Cinema Powered by Mukta A2, Star Mall: Gurugram"
  },
  "PACN": {
    "AvailableFormats": "2D",
    "City": "Nagpur",
    "Latitude": "21.1392",
    "Longitude": "79.0792",
    "RegionCode": "NAGP",
    "State": "Maharashtra",
    "SubRegionCode": "NAGP",
    "VenueAddress": "Panchsheel Square 1, New Ramdaspeth, Panchshil Chowk, Nagpur, Maharashtra 440012, India",
    "VenueCode": "PACN",
    "VenueName": "Panchsheel Cinema: Nagpur"
  },
  "PAXA": {
    "AvailableFormats": "2D",
    "City": "Kozhikode",
    "Latitude": "11.2485",
    "Longitude": "75.8336",
    "RegionCode": "KOZH",
    "State": "Kerala",
    "SubRegionCode": "KOZH",
    "VenueAddress": "Third floor, Hilite Mall, Poovangal, Kozhikode, Kerala 673014, India",
    "VenueCode": "PAXA",
    "VenueName": "Palaxi Cinemas HiLITE MALL: Kozhikode"
  },
  "PBRM": {
    "AvailableFormats": "2D",
    "City": "Chennai",
    "Latitude": "13.1123",
    "Longitude": "80.2363",
    "RegionCode": "CHEN",
    "State": "Tamil Nadu",
    "SubRegionCode": "CHEN",
    "VenueAddress": "2nd Floor, Spectrum The Grand Venus Mall,Paper Mills Road, Perambur, Chennai, Tamil Nadu 600011, India",
    "VenueCode": "PBRM",
    "VenueName": "PVR: Perambur, Spectrum Mall"
  },
  "PCCF": {
    "AvailableFormats": "2D",
    "City": "Faridabad",
    "Latitude": "28.4454",
    "Longitude": "77.3157",
    "RegionCode": "NCR",
    "State": "NCR",
    "SubRegionCode": "FARI",
    "VenueAddress": "Pristine Mall, Sector 31, Near Punjab National Bank, Faridabad, NCR 121001, India",
    "VenueCode": "PCCF",
    "VenueName": "Pristine Mall: Sec-31, Faridabad"
  },
  "PCKC": {
    "AvailableFormats": "2D",
    "City": "Kangra",
    "Latitude": "32.1162",
    "Longitude": "76.2826",
    "RegionCode": "KANG",
    "State": "Himachal Pradesh",
    "SubRegionCode": "KANG",
    "VenueAddress": "Dharamshala Palampur Road, Near Fortis Hospital, Kangra, Himachal Pradesh 176001, India",
    "VenueCode": "PCKC",
    "VenueName": "Prime Cinemas: Kangra"
  },
  "PCNM": {
    "AvailableFormats": "2D",
    "City": "Kochi",
    "Latitude": "9.9396",
    "Longitude": "76.3311",
    "RegionCode": "PALY",
    "State": "Kerala",
    "SubRegionCode": "PALY",
    "VenueAddress": "Nucleus Mall, Maradu, Kochi-Madurai-Tondi Point Hwy, Kochi, Kerala 682304, India",
    "VenueCode": "PCNM",
    "VenueName": "PAN Cinemas Nucleus Mall 4K ATMOS"
  },
  "PCSK": {
    "AvailableFormats": "2D",
    "City": "Kanpur",
    "Latitude": "26.5596",
    "Longitude": "80.2186",
    "RegionCode": "KANP",
    "State": "Uttar Pradesh",
    "SubRegionCode": "KANP",
    "VenueAddress": "Shadipur, Mandhana, Kanpur, Uttar Pradesh 209217, India",
    "VenueCode": "PCSK",
    "VenueName": "PP Cinemall: Mandhana, Kanpur"
  },
  "PDCP": {
    "AvailableFormats": "2D|3D|ICE|ICE 3D",
    "City": "Pune",
    "Latitude": "18.538",
    "Longitude": "73.9079",
    "RegionCode": "PUNE",
    "State": "Maharashtra",
    "SubRegionCode": "PUNE",
    "VenueAddress": "KOPA Mall,37 H.No.3 Plus 4/2, Ghorpadi, Mundhwa Road, Pune, Maharashtra 411001, India",
    "VenueCode": "PDCP",
    "VenueName": "PVR: Directors Cut, KOPA, Pune"
  },
  "PDRD": {
    "AvailableFormats": "2D|3D",
    "City": "Bengaluru",
    "Latitude": "12.9741",
    "Longitude": "77.5521",
    "RegionCode": "HOKT",
    "State": "Karnataka",
    "SubRegionCode": "HOKT",
    "VenueAddress": "92, Magadi Road Tollgate, Next To GT World Mall, Bengaluru, Karnataka 560023, India",
    "VenueCode": "PDRD",
    "VenueName": "Prasanna Digital 4K Cinema: Magadi Road"
  },
  "PETK": {
    "AvailableFormats": "2D",
    "City": "Kharsia",
    "Latitude": "21.9837",
    "Longitude": "83.1068",
    "RegionCode": "KHAS",
    "State": "Chhattisgarh",
    "SubRegionCode": "KHAS",
    "VenueAddress": "Near Hotel Pihu palace, Kharsia - Dabhara Road, Kharsia, Chhattisgarh 496661, India",
    "VenueCode": "PETK",
    "VenueName": "Pihu Entertainment: Kharsia"
  },
  "PGFD": {
    "AvailableFormats": "2D|3D|4DX",
    "City": "Bengaluru",
    "Latitude": "12.9404",
    "Longitude": "77.525",
    "RegionCode": "BANG",
    "State": "Karnataka",
    "SubRegionCode": "BANG",
    "VenueAddress": "PVR Global Mall, 3rd Floor Mysore Road , Pantharapalya, Kengeri Hobli, South Taluk, Nayanda Halli, Bengaluru, Karnataka 560039, India",
    "VenueCode": "PGFD",
    "VenueName": "PVR: Global Mall, Mysore Road, Bengaluru"
  },
  "PGWB": {
    "AvailableFormats": "2D",
    "City": "Bengaluru",
    "Latitude": "12.9742",
    "Longitude": "77.552",
    "RegionCode": "HOKT",
    "State": "Karnataka",
    "SubRegionCode": "HOKT",
    "VenueAddress": "92, Magadi Road Tollgate, Magadi Road, Next to Prasanna Theatre, Bengaluru, Karnataka 560023, India",
    "VenueCode": "PGWB",
    "VenueName": "PVR: GT World Mall, Magadi Road"
  },
  "PIMH": {
    "AvailableFormats": "2D|3D|4DX|4DX 3D",
    "City": "Hyderabad",
    "Latitude": "17.4209",
    "Longitude": "78.4553",
    "RegionCode": "HYD",
    "State": "Telangana",
    "SubRegionCode": "HYD",
    "VenueAddress": "Level 5, Shop No.01, Hyderabad Next Galleria@Irrum Manzil, Survey No. TS.No.3/1, Ward No. 85,  Block-E, Khairatabad, Hyderabad, Telangana 500082, India",
    "VenueCode": "PIMH",
    "VenueName": "PVR: Irrum Manzil, Hyderabad"
  },
  "PJMS": {
    "AvailableFormats": "2D",
    "City": "Berhampur",
    "Latitude": "19.3149",
    "Longitude": "84.7984",
    "RegionCode": "BERP",
    "State": "Odisha",
    "SubRegionCode": "BERP",
    "VenueAddress": "New Bus Stand Road, Baikuntha Nagar, Berhampur, Odisha 760001, India",
    "VenueCode": "PJMS",
    "VenueName": "PJ Movies (Payal Talkies): Berhampur"
  },
  "PKKW": {
    "AvailableFormats": "2D|3D",
    "City": "Gwalior",
    "Latitude": "26.2194",
    "Longitude": "78.1877",
    "RegionCode": "GWAL",
    "State": "Madhya Pradesh",
    "SubRegionCode": "GWAL",
    "VenueAddress": "3rd Floor, Keshar Towers, Race Course Road, Gwalior, Madhya Pradesh 474005, India",
    "VenueCode": "PKKW",
    "VenueName": "PVR: Keshar Towers, Gwalior"
  },
  "PLTT": {
    "AvailableFormats": "2D",
    "City": "Trichy",
    "Latitude": "10.8151",
    "Longitude": "78.6933",
    "RegionCode": "TRIC",
    "State": "Tamil Nadu",
    "SubRegionCode": "TRIC",
    "VenueAddress": "162, Madurai Road, Palakarai, Sangillyandapuram, Opposite Inspector of Matriculation Schools, Education Office, Trichy, Tamil Nadu 620008, India",
    "VenueCode": "PLTT",
    "VenueName": "Palace Theatre: Tiruchirappalli"
  },
  "PMBR": {
    "AvailableFormats": "3D|2D",
    "City": "Bengaluru",
    "Latitude": "13.0557",
    "Longitude": "77.7637",
    "RegionCode": "HOKT",
    "State": "Karnataka",
    "SubRegionCode": "HOKT",
    "VenueAddress": "Orion Uptown Mall, 2nd Floor, Survey No. 49-51, Huskar Village, Bidarahalli Hobli, Kattamnallur, Sanntammanahalli, Bengaluru, Karnataka 560049, India",
    "VenueCode": "PMBR",
    "VenueName": "PVR: Orion Uptown, Old Madras Road, Bengaluru"
  },
  "PMMI": {
    "AvailableFormats": "2D|3D",
    "City": "Chandigarh",
    "Latitude": "30.6787",
    "Longitude": "76.7223",
    "RegionCode": "CHD",
    "State": "Punjab",
    "SubRegionCode": "CHD",
    "VenueAddress": "2nd Floor CP67 Mall, Sector 67, Sahibzada Ajit Singh Nagar, Chandigarh, Punjab 160062, India",
    "VenueCode": "PMMI",
    "VenueName": "PVR: CP67 Mall, Mohali"
  },
  "PMSJ": {
    "AvailableFormats": "2D",
    "City": "Jammu",
    "Latitude": "32.7288",
    "Longitude": "74.8471",
    "RegionCode": "JAMM",
    "State": "Jammu and Kashmir",
    "SubRegionCode": "JAMM",
    "VenueAddress": "3rd Floor, Palm Island Mall, Canal Road, Jammu, Jammu and Kashmir 180016, India",
    "VenueCode": "PMSJ",
    "VenueName": "Platinum Movietime SPA: Palm Island Mall, Jammu"
  },
  "PNNG": {
    "AvailableFormats": "2D|3D",
    "City": "Hyderabad",
    "Latitude": "17.4294",
    "Longitude": "78.4501",
    "RegionCode": "HYD",
    "State": "Telangana",
    "SubRegionCode": "HYD",
    "VenueAddress": "Next Galleria Mall, 4th Floor, PVR Limited, Panjagutta, Opposite Panjaguttta Metro Station, Hyderabad, Telangana 500082, India",
    "VenueCode": "PNNG",
    "VenueName": "PVR: Next Galleria Mall, Panjagutta"
  },
  "PPAG": {
    "AvailableFormats": "2D",
    "City": "Agra",
    "Latitude": "27.1417",
    "Longitude": "78.0461",
    "RegionCode": "AGRA",
    "State": "Uttar Pradesh",
    "SubRegionCode": "AGRA",
    "VenueAddress": "Kaharai Mod, Shamsabad Road Near, Near Mar Thoma Centre Agra, Agra, Uttar Pradesh 282001, India",
    "VenueCode": "PPAG",
    "VenueName": "Panna Palace: Agra"
  },
  "PPMF": {
    "AvailableFormats": "2D|3D",
    "City": "Faridabad",
    "Latitude": "28.3861",
    "Longitude": "77.299",
    "RegionCode": "NCR",
    "State": "NCR",
    "SubRegionCode": "FARI",
    "VenueAddress": "The Mall Of Faridabad NIT Bus Stand, K L Mehta Road, 01, New Industrial Township, Faridabad, NCR 121001, India",
    "VenueCode": "PPMF",
    "VenueName": "PVR: Pacific Mall (The Mall of Faridabad NIT)"
  },
  "PPXL": {
    "AvailableFormats": "2D|3D",
    "City": "Lucknow",
    "Latitude": "26.7991",
    "Longitude": "80.8961",
    "RegionCode": "LUCK",
    "State": "Uttar Pradesh",
    "SubRegionCode": "LUCK",
    "VenueAddress": "4th Floor, Phoenix United Mall, Kanpur - Lucknow Road, LDA Alambagh, Sector B, LDA Colony, Lucknow, Uttar Pradesh 226012, India",
    "VenueCode": "PPXL",
    "VenueName": "PVR: Phoenix, Lucknow"
  },