{
  "AACK": {
    "AvailableFormats": "",
    "City": "Kasdol",
    "FirstTracked": "2026-07-14",
    "Latitude": "21.621115",
    "Longitude": "82.424225",
    "RegionCode": "KASD",
    "State": "Chhattisgarh",
    "SubRegionCode": "KASD",
    "VenueAddress": "89/3,State Highway 14, Opposite Metro Studio, Kasdol, Chhattisgarh 493335, India",
    "VenueCode": "AACK",
    "VenueName": "Shri Balaji Cinema (Airconditioned): Kasdol"
  },
  "AAME": {
    "AvailableFormats": "2D",
    "City": "Deesa",
    "Latitude": "24.2421",
    "Longitude": "72.1826",
    "RegionCode": "DEES",
    "State": "Gujarat",
    "SubRegionCode": "DEES",
    "VenueAddress": "Multiplex Entertainment Complex, Patan Cross Road, Deesa, Gujarat 385535, India",
    "VenueCode": "AAME",
    "VenueName": "Shree Ram Multiplex: Deesa"
  },
  "AAVB": {
    "AvailableFormats": "2D",
    "City": "Vijayapura (Bijapur)",
    "Latitude": "16.8338",
    "Longitude": "75.7151",
    "RegionCode": "VJPR",
    "State": "Karnataka",
    "SubRegionCode": "VJPR",
    "VenueAddress": "Ram Mandir Road, Behind Sideshwara Gudi, Sholapur, Vijayapura (Bijapur), Karnataka 586101, India",
    "VenueCode": "AAVB",
    "VenueName": "Amir Talkies: Vijayapura (Bijapur)"
  },
  "ABND": {
    "AvailableFormats": "2D",
    "City": "Nandyal",
    "Latitude": "15.4858",
    "Longitude": "78.4861",
    "RegionCode": "NADY",
    "State": "Andhra Pradesh",
    "SubRegionCode": "NADY",
    "VenueAddress": "Ramnath Cine Complex, Telugu Peta, Nandyal, Andhra Pradesh 518501, India",
    "VenueCode": "ABND",
    "VenueName": "Abhiram Theater: Nandyal"
  },
  "ACBD": {
    "AvailableFormats": "",
    "City": "Basantpur",
    "FirstTracked": "2026-07-14",
    "Latitude": "26.1698",
    "Longitude": "84.6684",
    "RegionCode": "BABA",
    "State": "Bihar",
    "SubRegionCode": "BABA",
    "VenueAddress": "Abhishek Cineplex, Basant Pur, Siwan, Basantpur, Bihar 841406, India",
    "VenueCode": "ACBD",
    "VenueName": "Abhishek Cineplex: Basantpur"
  },
  "ACHP": {
    "AvailableFormats": "2D",
    "City": "Pasighat",
    "Latitude": "28.0594",
    "Longitude": "95.3313",
    "RegionCode": "PSHG",
    "State": "Arunachal Pradesh",
    "SubRegionCode": "PSHG",
    "VenueAddress": "Aarun Tamuk Complex, Main Market Pasighat, Near Arunachal Pradesh Rural Bank,Pasighat, Arunachal Pradesh 791102, India",
    "VenueCode": "ACHP",
    "VenueName": "Abor Cinema Hall: Pasighat"
  },
  "ACKL": {
    "AvailableFormats": "2D",
    "City": "Khila",
    "Latitude": "22.6733",
    "Longitude": "88.0003",
    "RegionCode": "KHIL",
    "State": "West Bengal",
    "SubRegionCode": "KHIL",
    "VenueAddress": "Udaynarayanpur, Munshirhat Road, Khila, West Bengal 711410, India",
    "VenueCode": "ACKL",
    "VenueName": "Aparupa Cinema: Khila"
  },
  "ACNB": {
    "AvailableFormats": "2D|3D",
    "City": "Barasat",
    "Latitude": "22.7199",
    "Longitude": "88.4875",
    "RegionCode": "BSRT",
    "State": "West Bengal",
    "SubRegionCode": "BSRT",
    "VenueAddress": "Bus Stand, 125/1, Jessore Road, Champadali, Barasat, West Bengal 700124, India",
    "VenueCode": "ACNB",
    "VenueName": "SSR Cinemas, Suncity Mall: Barasat"
  },
  "ACRT": {
    "AvailableFormats": "2D",
    "City": "Haliya",
    "Latitude": "16.7799",
    "Longitude": "79.3224",
    "RegionCode": "HALI",
    "State": "Telangana",
    "SubRegionCode": "HALI",
    "VenueAddress": "NH 565, Near ICICI Bank ATM, Haliya, Telangana 508377, India",
    "VenueCode": "ACRT",
    "VenueName": "Acchi Reddy Theater A/c Dolby DTS: Haliya"
  },
  "ACVZ": {
    "AvailableFormats": "",
    "City": "Vizianagaram",
    "FirstTracked": "2026-07-14",
    "Latitude": "18.118046",
    "Longitude": "83.411736",
    "RegionCode": "JAMI",
    "State": "Andhra Pradesh",
    "SubRegionCode": "JAMI",
    "VenueAddress": "New Poorna Road, Park Gate Area, Near Two Town Police Station, Vizianagaram, Andhra Pradesh 535001, India",
    "VenueCode": "ACVZ",
    "VenueName": "Aditya Theatre A/c Dts: Vizianagaram"
  },
  "ADDC": {
    "AvailableFormats": "2D",
    "City": "Lucknow",
    "Latitude": "26.8362",
    "Longitude": "81.002",
    "RegionCode": "LUCK",
    "State": "Uttar Pradesh",
    "SubRegionCode": "LUCK",
    "VenueAddress": "1/23, Vardan Khand, Sector 1, Gomti Nagar, Makhdoom Pur, Lucknow, Uttar Pradesh 226010, India",
    "VenueCode": "ADDC",
    "VenueName": "Antas DD Cinemas: Lucknow"
  },
  "AETE": {
    "AvailableFormats": "2D|3D",
    "City": "Thane",
    "Latitude": "19.1848",
    "Longitude": "72.9749",
    "RegionCode": "MUMBAI",
    "State": "Maharashtra",
    "SubRegionCode": "THNE",
    "VenueAddress": "Kopri Colony, Gidwani Road, Near Railway Station, Thane, Maharashtra 400603, India",
    "VenueCode": "AETE",
    "VenueName": "Anand Cinema: Thane"
  },
  "AICM": {
    "AvailableFormats": "2D",
    "City": "Madurai",
    "Latitude": "9.92601",
    "Longitude": "78.121",
    "RegionCode": "MADU",
    "State": "Tamil Nadu",
    "SubRegionCode": "MADU",
    "VenueAddress": "Thirumalairayar Padithurai Road, Simmakkal, Madurai Main, Near Sivan Temple, Madurai, Tamil Nadu 625001, India",
    "VenueCode": "AICM",
    "VenueName": "Annamalai Cinemas A/C 4K: Madurai"
  },
  "AKRC": {
    "AvailableFormats": "2D",
    "City": "Kundli",
    "Latitude": "28.8879",
    "Longitude": "77.1178",
    "RegionCode": "RAIH",
    "State": "NCR",
    "SubRegionCode": "RAIH",
    "VenueAddress": "3rd Floor, TDI Mall, Sonipat, Kundli, NCR 131101, India",
    "VenueCode": "AKRC",
    "VenueName": "AKR Cinemas,TDI Mall: Kundli"
  },
  "ALAT": {
    "AvailableFormats": "2D",
    "City": "Ponnamaravathi",
    "Latitude": "10.2757",
    "Longitude": "78.5367",
    "RegionCode": "PONM",
    "State": "Tamil Nadu",
    "SubRegionCode": "PONM",
    "VenueAddress": "Amman Kovil Street, Ponnamaravathy, Near Ponnamaravathi Police Station, Ponnamaravathi, Tamil Nadu 622407, India",
    "VenueCode": "ALAT",
    "VenueName": "Alankar Theatre 2K 7.1: Ponnamaravathi"
  },
  "AMAU": {
    "AvailableFormats": "",
    "City": "Ulhasnagar",
    "FirstTracked": "2026-07-14",
    "Latitude": "19.233112",
    "Longitude": "73.15781",
    "RegionCode": "MUMBAI",
    "State": "Maharashtra",
    "SubRegionCode": "ULHA",
    "VenueAddress": "Aman Talkies Road, Beside New Telephone Exchange, Sidhi Vinayak Nagar, Ulhasnagar, Maharashtra 421003, India",
    "VenueCode": "AMAU",
    "VenueName": "Aman Theatre: Ulhasnagar"
  },
  "AMCM": {
    "AvailableFormats": "2D",
    "City": "Hyderabad",
    "Latitude": "17.6388",
    "Longitude": "78.4849",
    "RegionCode": "MDCH",
    "State": "Telangana",
    "SubRegionCode": "MDCH",
    "VenueAddress": "Medchal Road, National Highway 44, Near City Union Bank, Secunderabad, Opposite RK Lodge, Hyderabad, Telangana 501401, India",
    "VenueCode": "AMCM",
    "VenueName": "Asian Mukund Cinema: Medchal"
  },
  "AMLU": {
    "AvailableFormats": "",
    "City": "Eluru",
    "FirstTracked": "2026-07-14",
    "Latitude": "16.707937",
    "Longitude": "81.10276",
    "RegionCode": "ELRU",
    "State": "Andhra Pradesh",
    "SubRegionCode": "ELRU",
    "VenueAddress": "Dongala Mandapam Road, Southen Street, Agraharam, Eluru, Andhra Pradesh 534001, India",
    "VenueCode": "AMLU",
    "VenueName": "Ambica Mini (Screen 2): Eluru"
  },
  "AMTI": {
    "AvailableFormats": "2D",
    "City": "Kosamba",
    "Latitude": "21.4683",
    "Longitude": "72.9535",
    "RegionCode": "KOSA",
    "State": "Gujarat",
    "SubRegionCode": "KOSA",
    "VenueAddress": "V S Patel Road, Shraddha, Opposite Ambedkar Statue, Tarsadi, Kosamba, Gujarat 394120, India",
    "VenueCode": "AMTI",
    "VenueName": "Amisha Miniplex: Tarsadi"
  },
  "ANCL": {
    "AvailableFormats": "2D",
    "City": "Lalgudi",
    "Latitude": "10.8747",
    "Longitude": "78.8186",
    "RegionCode": "LALG",
    "State": "Tamil Nadu",
    "SubRegionCode": "LALG",
    "VenueAddress": "No.79F, Main Road, Opposite IOB, Lalgudi, Tamil Nadu 621601, India",
    "VenueCode": "ANCL",
    "VenueName": "Anbu Cinemas A/C 7.1: Lalgudi"
  },
  "ANNT": {
    "AvailableFormats": "2D",
    "City": "Tatipaka",
    "Latitude": "16.4952",
    "Longitude": "81.8747",
    "RegionCode": "TATI",
    "State": "Andhra Pradesh",
    "SubRegionCode": "TATI",
    "VenueAddress": "Jaggnnapeta Road, NH 214, Near TVS Showroom, Tatipaka, Andhra Pradesh 533249, India",
    "VenueCode": "ANNT",
    "VenueName": "Annapurna Theatre AC DTS 2K: Tatipaka"
  },
  "ANTS": {
    "AvailableFormats": "2D",
    "City": "Shoranur",
    "Latitude": "10.7604",
    "Longitude": "76.2759",
    "RegionCode": "SHNR",
    "State": "Kerala",
    "SubRegionCode": "SHNR",
    "VenueAddress": "SH 2, Thrissur-Shoranur Road, Palakkad, Near SMP Junction, Shoranur, Kerala 679121, India",
    "VenueCode": "ANTS",
    "VenueName": "Anurag Cinema: Shoranur"
  },
  "APCX": {
    "AvailableFormats": "2D",
    "City": "Punalur",
    "Latitude": "9.01592",
    "Longitude": "76.939",
    "RegionCode": "PUNA",
    "State": "Kerala",
    "SubRegionCode": "PUNA",
    "VenueAddress": "Kalayanad, Kollam Thirumangalam Road, Punalur, Kerala 691305, India",
    "VenueCode": "APCX",
    "VenueName": "ARIESPLEX PUNALUR RGB LASER 4K ATMOS"
  },
  "APRC": {
    "AvailableFormats": "2D|3D",
    "City": "Gaya",
    "Latitude": "24.7915",
    "Longitude": "84.9997",
    "RegionCode": "GAYA",
    "State": "Bihar",
    "SubRegionCode": "GAYA",
    "VenueAddress": "APR City Centre Mall, Rai Kasinath More, Near Gandhi Maidan, Gaya, Bihar 823001, India",
    "VenueCode": "APRC",
    "VenueName": "APR Cinemas (Dolby Atmos, Christie Laser): Gaya"
  },
  "APVZ": {
    "AvailableFormats": "2D",
    "City": "Vizag (Visakhapatnam)",
    "Latitude": "17.6866",
    "Longitude": "83.1663",
    "RegionCode": "VIZA",
    "State": "Andhra Pradesh",
    "SubRegionCode": "VIZA",
    "VenueAddress": "Askapalli - Aganampudi Road, Kurmannapalem, Vizag (Visakhapatnam), Andhra Pradesh 530046, India",
    "VenueCode": "APVZ",
    "VenueName": "Annapurna A/C 2KDolby Digital:Kurmananapalem,Vizag"
  },
  "ARED": {
    "AvailableFormats": "2D|3D",
    "City": "Ahmedabad",
    "Latitude": "23.0685",
    "Longitude": "72.576",
    "RegionCode": "AHD",
    "State": "Gujarat",
    "SubRegionCode": "AHD",
    "VenueAddress": "Arved Transcube Plaza, Bandhu Nagar, Vijay Nagar, 132 Feet Ring Road, Ranip, Ahmedabad, Gujarat 382480, India",
    "VenueCode": "ARED",
    "VenueName": "PVR: Arved Transcube, Ahmedabad"
  },
  "ARUT": {
    "AvailableFormats": "2D",
    "City": "Anakapalle",
    "Latitude": "17.6874",
    "Longitude": "83.0143",
    "RegionCode": "ANKP",
    "State": "Andhra Pradesh",
    "SubRegionCode": "ANKP",
    "VenueAddress": "No. 10-16, 30, Niddanam Doddi, Gavarapalem, Anakapalle, Andhra Pradesh 531001, India",
    "VenueCode": "ARUT",
    "VenueName": "Sri Satyanarayana Picture Palace AC DTS:Anakapalle"
  },
  "ASGG": {
    "AvailableFormats": "",
    "City": "Chennai",
    "FirstTracked": "2026-07-16",
    "Latitude": "12.5081",
    "Longitude": "79.8855",
    "RegionCode": "CHEN",
    "State": "Tamil Nadu",
    "SubRegionCode": "CHEN",
    "VenueAddress": "No.27, Rr.Ayyangar Street, Near S.Manakchand Jewellers, Chennai, Tamil Nadu 603306, India",
    "VenueCode": "ASGG",
    "VenueName": "Alankar Theatre: Maduranthakam"
  },
  "ASLC": {
    "AvailableFormats": "2D",
    "City": "Trivandrum",
    "Latitude": "8.48853",
    "Longitude": "76.9461",
    "RegionCode": "VKAL",
    "State": "Kerala",
    "SubRegionCode": "VKAL",
    "VenueAddress": "Sahodara Samajam Road, near OverBridge, Thampanoor, Thiruvananthapuram, Trivandrum, Kerala 695035, India",
    "VenueCode": "ASLC",
    "VenueName": "Ariesplex SL Cinemas Cinionic Dolby Atmos"
  },
  "ASRG": {
    "AvailableFormats": "2D",
    "City": "Patna",
    "Latitude": "25.6186",
    "Longitude": "85.0469",
    "RegionCode": "PATN",
    "State": "Bihar",
    "SubRegionCode": "PATN",
    "VenueAddress": "6th Floor, Ambition Business Park, Bailey Road, Saguna More, Patna, Bihar 801503, India",
    "VenueCode": "ASRG",
    "VenueName": "ASR Cinemas, RPS More: Patna"
  },
  "ASTB": {
    "AvailableFormats": "2D",
    "City": "Bengaluru",
    "Latitude": "13.0807",
    "Longitude": "77.5011",
    "RegionCode": "HOKT",
    "State": "Karnataka",
    "SubRegionCode": "HOKT",
    "VenueAddress": "23, Chikkabanavara, Hesarghatta Main Rd, Near Chikkabanavara Circle, Bengaluru, Karnataka 560090, India",
    "VenueCode": "ASTB",
    "VenueName": "Ashoka Cinemas - Dolby Laser: Chikkabanavara"
  },
  "ATAM": {
    "AvailableFormats": "",
    "City": "Batlagundu",
    "FirstTracked": "2026-07-14",
    "Latitude": "10.2275",
    "Longitude": "77.7483",
    "RegionCode": "BTGD",
    "State": "Tamil Nadu",
    "SubRegionCode": "BTGD",
    "VenueAddress": "Ayyampalayam, Dindugal Road, Near State Bank of India, Batlagundu, Tamil Nadu 624204, India",
    "VenueCode": "ATAM",
    "VenueName": "Alagesan Theatre: Ayyampalayam"
  },
  "ATJA": {
    "AvailableFormats": "2D|3D",
    "City": "Kolkata",
    "Latitude": "22.5081",
    "Longitude": "88.3203",
    "RegionCode": "BARR",
    "State": "West Bengal",
    "SubRegionCode": "BARR",
    "VenueAddress": "No.30, Diamond Harbour Road, Barabagan, Naskarpur, Behala, Kolkata, West Bengal 700038, India",
    "VenueCode": "ATJA",
    "VenueName": "SSR Ajanta Cinema: Behala"
  },
  "ATRT": {
    "AvailableFormats": "2D",
    "City": "Rayagada",
    "Latitude": "19.1759",
    "Longitude": "83.4137",
    "RegionCode": "RADA",
    "State": "Odisha",
    "SubRegionCode": "RADA",
    "VenueAddress": "College Road, Gandhi Nagar, Rayagada, Odisha 765001, India",
    "VenueCode": "ATRT",
    "VenueName": "Ashok Talkies: Rayagada"
  },
  "AUCS": {
    "AvailableFormats": "",
    "City": "Sangli",
    "FirstTracked": "2026-07-14",
    "Latitude": "16.843864",
    "Longitude": "74.60997",
    "RegionCode": "ASMA",
    "State": "Maharashtra",
    "SubRegionCode": "ASMA",
    "VenueAddress": "Center-1, Vijaynagar Chowk, Near SBI, Vijaynagar and Aroma Premium Cafe, Sangli, Maharashtra 416416, India",
    "VenueCode": "AUCS",
    "VenueName": "Aurum Cinemas: Centre 1 Mall, Sangli"
  },
  "AVPS": {
    "AvailableFormats": "2D",
    "City": "Pathanapuram",
    "Latitude": "9.09231",
    "Longitude": "76.8557",
    "RegionCode": "PTPM",
    "State": "Kerala",
    "SubRegionCode": "PTPM",
    "VenueAddress": "3rd Floor,Town Center Mall, Near KSRTC Bus Stand, Pathanapuram, Kerala 689695, India",
    "VenueCode": "AVPS",
    "VenueName": "Aashirvad Cineplexx: Pathanapuram"
  },
  "AYAA": {
    "AvailableFormats": "2D",
    "City": "Solan",
    "Latitude": "30.9058",
    "Longitude": "77.1071",
    "RegionCode": "SCO",
    "State": "Himachal Pradesh",
    "SubRegionCode": "SCO",
    "VenueAddress": "2nd Floor, G Square Mall, Kotla Nala, Solan, Himachal Pradesh 173212, India",
    "VenueCode": "AYAA",
    "VenueName": "Ayaan Cinemas: Solan (G Square Mall)"
  },
  "BAKM": {
    "AvailableFormats": "2D",
    "City": "Mulugu",
    "Latitude": "18.1934",
    "Longitude": "79.9478",
    "RegionCode": "KMLA",
    "State": "Telangana",
    "SubRegionCode": "KMLA",
    "VenueAddress": "Theatre Road, Ambedkar Colony, Near Borra Honda, Mulugu, Telangana 506343, India",
    "VenueCode": "BAKM",
    "VenueName": "Balaji Air Conditioned: Mulugu"
  },
  "BBCL": {
    "AvailableFormats": "3D|2D",
    "City": "Solapur",
    "Latitude": "17.677",
    "Longitude": "75.8986",
    "RegionCode": "SOLA",
    "State": "Maharashtra",
    "SubRegionCode": "SOLA",
    "VenueAddress": "Bhagwat Kala Chaya 8, Old Police Line, Murarji Peth, Solapur, Maharashtra 413001, India",
    "VenueCode": "BBCL",
    "VenueName": "Bhagwat Cinemas (A.C): Solapur"
  },
  "BCCR": {
    "AvailableFormats": "3D|2D",
    "City": "Cooch Behar",
    "Latitude": "26.3296",
    "Longitude": "89.4426",
    "RegionCode": "COBE",
    "State": "West Bengal",
    "SubRegionCode": "COBE",
    "VenueAddress": "Bhavani Cinema, Keshav Road, Cooch Behar, West Bengal 736101, India",
    "VenueCode": "BCCR",
    "VenueName": "Bhavani Cinema: Cooch Behar"
  },
  "BGGM": {
    "AvailableFormats": "2D",
    "City": "Asansol",
    "Latitude": "23.6847",
    "Longitude": "86.9416",
    "RegionCode": "ASANSOL",
    "State": "West Bengal",
    "SubRegionCode": "ASANSOL",
    "VenueAddress": "Burnpur Road, Chitra More, Mouja  Santa, P.O  Hirapur, District  West Burdwan, Asansol, West Bengal 713325, India",
    "VenueCode": "BGGM",
    "VenueName": "Bioscope: Galaxy Mall, Asansol"
  },
  "BHTT": {
    "AvailableFormats": "",
    "City": "Thanipadi",
    "FirstTracked": "2026-07-14",
    "Latitude": "12.106016",
    "Longitude": "78.83783",
    "RegionCode": "THPD",
    "State": "Tamil Nadu",
    "SubRegionCode": "THPD",
    "VenueAddress": "Pilliyarkovil Street, Thandrampattu, Thanipadi, Tamil Nadu 606708, India",
    "VenueCode": "BHTT",
    "VenueName": "Bharath Theatre: Thanipadi"
  },
  "BJLC": {
    "AvailableFormats": "2D",
    "City": "Kolkata",
    "Latitude": "22.5269",
    "Longitude": "88.3459",
    "RegionCode": "KOLK",
    "State": "West Bengal",
    "SubRegionCode": "KOLK",
    "VenueAddress": "No.39, Shyama Prasad Mukherjee Road, Jatin Das Park, Patuapara, Bhawanipur, Kolkata, West Bengal 700025, India",
    "VenueCode": "BJLC",
    "VenueName": "Bijoli Cinema: Kolkata"
  },
  "BLBR": {
    "AvailableFormats": "2D",
    "City": "Burhar",
    "Latitude": "23.202",
    "Longitude": "81.535",
    "RegionCode": "BRHR",
    "State": "Madhya Pradesh",
    "SubRegionCode": "BRHR",
    "VenueAddress": "Shree Shraja Mall, Shree Shraja Mall, Burhar, Madhya Pradesh 484110, India",
    "VenueCode": "BLBR",
    "VenueName": "Bliss Multiplex: Burhar"
  },
  "BMCA": {
    "AvailableFormats": "",
    "City": "Ajmer",
    "FirstTracked": "2026-07-14",
    "Latitude": "26.48096",
    "Longitude": "74.6313",
    "RegionCode": "AJMER",
    "State": "Rajasthan",
    "SubRegionCode": "AJMER",
    "VenueAddress": "CineMall Soni Colony, ASC Road, Near Ana Sagar Lake, Ajmer, Rajasthan 305001, India",
    "VenueCode": "BMCA",
    "VenueName": "Miraj Bioscope Cinemas: Ajmer"
  },
  "BOCK": {
    "AvailableFormats": "2D",
    "City": "Kuravilangad",
    "Latitude": "9.75721",
    "Longitude": "76.561",
    "RegionCode": "KURA",
    "State": "Kerala",
    "SubRegionCode": "KURA",
    "VenueAddress": "State Highway 1, Kurishupally, Kuravilangad, Near Global Collections, Kuravilangad, Kerala 686633, India",
    "VenueCode": "BOCK",
    "VenueName": "Bosco Cinemas: Kuravilangad"
  },
  "BRVP": {
    "AvailableFormats": "2D",
    "City": "Mumbai",
    "Latitude": "19.109",
    "Longitude": "72.8532",
    "RegionCode": "MUMBAI",
    "State": "Maharashtra",
    "SubRegionCode": "MWEST",
    "VenueAddress": "Wallace Towers, 139-140/B/1, Western Express Highway, Vile Parle (E), Mumbai, Maharashtra 400057, India",
    "VenueCode": "BRVP",
    "VenueName": "Bahar Cinema: Vile Parle (E)"
  },
  "BTBJ": {
    "AvailableFormats": "",
    "City": "Jajpur Town (Odisha)",
    "FirstTracked": "2026-07-14",
    "Latitude": "20.849524",
    "Longitude": "86.33777",
    "RegionCode": "JTTT",
    "State": "Odisha",
    "SubRegionCode": "JTTT",
    "VenueAddress": "Jajpur Singhpur Road, Near Hotel Kapila, Jajpur Town (Odisha), Odisha 755001, India",
    "VenueCode": "BTBJ",
    "VenueName": "Biraja Talkies: Jajpur Town, Odisha"
  },
  "BTMV": {
    "AvailableFormats": "2D",
    "City": "Vadodara",
    "Latitude": "22.267",
    "Longitude": "73.2227",
    "RegionCode": "VAD",
    "State": "Gujarat",
    "SubRegionCode": "VAD",
    "VenueAddress": "Amar Shraddha Society, Danteshwar, Tarsali, Vadodara, Gujarat 390004, India",
    "VenueCode": "BTMV",
    "VenueName": "Bansal Movieplex: Tarsali, Vadodara"
  },
  "CACP": {
    "AvailableFormats": "",
    "City": "Pulwama",
    "FirstTracked": "2026-07-14",
    "Latitude": "33.860493",
    "Longitude": "74.89726",
    "RegionCode": "PULW",
    "State": "Jammu and Kashmir",
    "SubRegionCode": "PULW",
    "VenueAddress": "District Employment, Counselling Centre, Pulwama, Jammu and Kashmir 192303, India",
    "VenueCode": "CACP",
    "VenueName": "Citara Cinemas: Pulwama"
  },
  "CBSM": {
    "AvailableFormats": "2D|3D",
    "City": "Chandigarh",
    "Latitude": "30.6734",
    "Longitude": "76.7398",
    "RegionCode": "CHD",
    "State": "Punjab",
    "SubRegionCode": "CHD",
    "VenueAddress": "Bestech Square Mall, Sector 66, Sahibzada Ajit Singh Nagar (Mohali), Chandigarh, Punjab 160062, India",
    "VenueCode": "CBSM",
    "VenueName": "Cinepolis: Bestech Square, Mohali"
  },
  "CCBZ": {
    "AvailableFormats": "",
    "City": "Bathinda",
    "FirstTracked": "2026-07-14",
    "Latitude": "30.2049",
    "Longitude": "74.95",
    "RegionCode": "BHAT",
    "State": "Punjab",
    "SubRegionCode": "BHAT",
    "VenueAddress": "3rd Floor, City Center Mall, Opposite Children Park, Civil Lines, Bathinda, Punjab 151001, India",
    "VenueCode": "CCBZ",
    "VenueName": "Cinemore Cinemas: DREAMz City Centre, Bathinda"
  },
  "CCJD": {
    "AvailableFormats": "2D",
    "City": "Jind",
    "Latitude": "29.3152",
    "Longitude": "76.3186",
    "RegionCode": "JIND",
    "State": "Haryana",
    "SubRegionCode": "JIND",
    "VenueAddress": "CSR Cinemas, CSR Mall, Near Rani Talab, Jind, Haryana 126110, India",
    "VenueCode": "CCJD",
    "VenueName": "CSR Cinemas: Jind"
  },
  "CCMH": {
    "AvailableFormats": "2D",
    "City": "Bettiah",
    "Latitude": "26.7985",
    "Longitude": "84.5065",
    "RegionCode": "BETA",
    "State": "Bihar",
    "SubRegionCode": "BETA",
    "VenueAddress": "Citi Centre Mall, 4th Floor, Town Hall Road, Meena Bazar, Bettiah, Bihar 845438, India",
    "VenueCode": "CCMH",
    "VenueName": "Mukta A2 Cinemas: Citi Centre, Bettiah"
  },
  "CCPC": {
    "AvailableFormats": "2D",
    "City": "Raisinghnagar",
    "Latitude": "29.5374",
    "Longitude": "73.4503",
    "RegionCode": "RSNG",
    "State": "Rajasthan",
    "SubRegionCode": "RSNG",
    "VenueAddress": "22 PS Road, Near - Raisingnagar railway station, Raisinghnagar, Rajasthan 335051, India",
    "VenueCode": "CCPC",
    "VenueName": "Cosmo Palace Cinema: Raisinghnagar"
  },
  "CCSH": {
    "AvailableFormats": "",
    "City": "Sarangarh",
    "FirstTracked": "2026-07-14",
    "Latitude": "21.58825",
    "Longitude": "83.08008",
    "RegionCode": "SARH",
    "State": "Chhattisgarh",
    "SubRegionCode": "SARH",
    "VenueAddress": "Behind Turki Talab, Near Durga Mandir, Sarangarh, Chhattisgarh 496445, India",
    "VenueCode": "CCSH",
    "VenueName": "City Cinema: Sarangarh"
  },
  "CDCA": {
    "AvailableFormats": "2D",
    "City": "Prayagraj (Allahabad)",
    "Latitude": "25.438",
    "Longitude": "81.8442",
    "RegionCode": "ALLH",
    "State": "Uttar Pradesh",
    "SubRegionCode": "ALLH",
    "VenueAddress": "26, Sammelan Marg, Prayagraj, Uttar Pradesh 211003, India",
    "VenueCode": "CDCA",
    "VenueName": "Chandralok Cineplex: Prayagraj"
  },
  "CECM": {
    "AvailableFormats": "2D",
    "City": "Mandi Dabwali",
    "Latitude": "29.9724",
    "Longitude": "74.7246",
    "RegionCode": "DABW",
    "State": "Haryana",
    "SubRegionCode": "DABW",
    "VenueAddress": "NH 54, Doomwali, Mandi Dabwali, Haryana 125104, India",
    "VenueCode": "CECM",
    "VenueName": "Century City Cinema: Mandi Dabwali"
  },
  "CGAR": {
    "AvailableFormats": "2D",
    "City": "Ahmedabad",
    "Latitude": "23.0319",
    "Longitude": "72.5699",
    "RegionCode": "AHD",
    "State": "Gujarat",
    "SubRegionCode": "AHD",
    "VenueAddress": "Ellis Bridge,Muslim Society, Ashram Road,Navrangpura, Near Dena Bank, Ahmedabad, Gujarat 380009, India",
    "VenueCode": "CGAR",
    "VenueName": "City Gold: Ashram Road"
  },
  "CGKD": {
    "AvailableFormats": "2D",
    "City": "Kadi",
    "Latitude": "23.2914",
    "Longitude": "72.3363",
    "RegionCode": "KADI",
    "State": "Gujarat",
    "SubRegionCode": "KADI",
    "VenueAddress": "City Park Road, Bhaupura, Near Kadi Fire Station, Kadi, Gujarat 382715, India",
    "VenueCode": "CGKD",
    "VenueName": "City Gold: Kadi"
  },
  "CHAL": {
    "AvailableFormats": "",
    "City": "Tadepalligudem",
    "Latitude": "16.8128",
    "Longitude": "81.5303",
    "RegionCode": "TANK",
    "State": "Andhra Pradesh",
    "SubRegionCode": "TANK",
    "VenueAddress": "Sheshamahal Road, Karri Satyavathi Nagar, Tadepalligudem, Andhra Pradesh 534101, India",
    "VenueCode": "CHAL",
    "VenueName": "Star Cinemas Chalapathi Theatre: Tadepalligudem"
  },
  "CHTL": {
    "AvailableFormats": "2D",
    "City": "Loni",
    "Latitude": "19.5775",
    "Longitude": "74.471",
    "RegionCode": "LONI",
    "State": "Maharashtra",
    "SubRegionCode": "LONI",
    "VenueAddress": "Rahuri, Sangmner Road, Near HP petrol Pump, Loni, Maharashtra 413713, India",
    "VenueCode": "CHTL",
    "VenueName": "Chitralay Cinema: Loni (Newly Renovated)"
  },
  "CIJA": {
    "AvailableFormats": "2D|3D",
    "City": "Delhi",
    "Latitude": "28.6109",
    "Longitude": "77.0938",
    "RegionCode": "NCR",
    "State": "NCR",
    "SubRegionCode": "DELHI",
    "VenueAddress": "Pankha Road, Block C 6A, Janakpuri, Delhi, NCR 110058, India",
    "VenueCode": "CIJA",
    "VenueName": "Cinepolis: Janak Cinema, New Delhi"
  },
  "CIXH": {
    "AvailableFormats": "",
    "City": "Ahmedabad",
    "FirstTracked": "2026-07-14",
    "Latitude": "23.0902",
    "Longitude": "72.5297",
    "RegionCode": "AHD",
    "State": "Gujarat",
    "SubRegionCode": "AHD",
    "VenueAddress": "310/11/12 Silver Radiance 4, Near Silver Oak College SG Highway, Gota, Ahmedabad, Gujarat 382481, India",
    "VenueCode": "CIXH",
    "VenueName": "CINELUX Cinema:Sola SG Highway (Newly Premium JBL)"
  },
  "CLCF": {
    "AvailableFormats": "",
    "City": "Narayanpur (Assam)",
    "FirstTracked": "2026-07-14",
    "Latitude": "26.948164",
    "Longitude": "93.85002",
    "RegionCode": "NSAZ",
    "State": "Assam",
    "SubRegionCode": "NSAZ",
    "VenueAddress": "Crazy Movie 0, Ward No.2, Narayanpur, National Highway 15, Narayanpur (Assam), Assam 784164, India",
    "VenueCode": "CLCF",
    "VenueName": "Chhotu Maharaj CineCafe: Narayanpur, Assam"
  },
  "CLLP": {
    "AvailableFormats": "2D",
    "City": "Varachha",
    "Latitude": "21.2387",
    "Longitude": "72.8794",
    "RegionCode": "SURT",
    "State": "Gujarat",
    "SubRegionCode": "VACH",
    "VenueAddress": "Atlanta Mall, Sudama chowk, Mota Varachha Main Road, Varachha, Gujarat 394101, India",
    "VenueCode": "CLLP",
    "VenueName": "The Friday Cinema: Mota Varaccha, Surat"
  },
  "CMBS": {
    "AvailableFormats": "",
    "City": "Bihar Sharif",
    "FirstTracked": "2026-07-14",
    "Latitude": "25.2034",
    "Longitude": "85.5006",
    "RegionCode": "BIHS",
    "State": "Bihar",
    "SubRegionCode": "BIHS",
    "VenueAddress": "Bardi Pahardi To Biyawani Road, Near Bardi Pahardi, Bihar Sharif, Bihar 803118, India",
    "VenueCode": "CMBS",
    "VenueName": "Chhotu Maharaj Cine Cafe: Bihar Sharif"
  },
  "CMKR": {
    "AvailableFormats": "2D",
    "City": "Sikar",
    "Latitude": "27.6219",
    "Longitude": "75.1464",
    "RegionCode": "SIKR",
    "State": "Rajasthan",
    "SubRegionCode": "SIKR",
    "VenueAddress": "04th Floor, Shiv Mandir Cinemall, Fatehpur Road, Sikar, Rajasthan 332001, India",
    "VenueCode": "CMKR",
    "VenueName": "Cine Square Cinemas: Sikar"
  },
  "CMMS": {
    "AvailableFormats": "2D",
    "City": "Sahibganj",
    "Latitude": "25.2343",
    "Longitude": "87.6339",
    "RegionCode": "SBBB",
    "State": "Jharkhand",
    "SubRegionCode": "SBBB",
    "VenueAddress": "Celebration Palace Chhotu Maharaj, Bus stand, Stadium Road, Sahibganj, Jharkhand 816109, India",
    "VenueCode": "CMMS",
    "VenueName": "Chhotu Maharaj Cine Cafe : Sahibganj, Jharkhand"
  },
  "CMTU": {
    "AvailableFormats": "2D",
    "City": "Khatima",
    "Latitude": "28.924",
    "Longitude": "79.9753",
    "RegionCode": "KHTM",
    "State": "Uttarakhand",
    "SubRegionCode": "KHTM",
    "VenueAddress": "Mj Market, Tankapur Road, Opposite -  Prayas Hospital, Khatima, Uttarakhand 262308, India",
    "VenueCode": "CMTU",
    "VenueName": "Chhotu Maharaj Cine Cafe: Khatima,Uttarakhand"
  },
  "CMXN": {
    "AvailableFormats": "2D",
    "City": "Nimbahera",
    "Latitude": "24.6251",
    "Longitude": "74.6928",
    "RegionCode": "NIPA",
    "State": "Rajasthan",
    "SubRegionCode": "NIPA",
    "VenueAddress": "Chittorgarh Road, Mahesh Nagar, Kamdhaz Nagar, Nimbahera, Rajasthan 312601, India",
    "VenueCode": "CMXN",
    "VenueName": "Crazy Multiplex: Nimbahera"
  },
  "CNCY": {
    "AvailableFormats": "2D",
    "City": "Sagar",
    "Latitude": "23.8526",
    "Longitude": "78.7808",
    "RegionCode": "SAMP",
    "State": "Madhya Pradesh",
    "SubRegionCode": "SAMP",
    "VenueAddress": "National Highway No 26, Jhansi Road, Makronia Camp, Above Parinay Banquet Hall, Sagar, Madhya Pradesh 470004, India",
    "VenueCode": "CNCY",
    "VenueName": "Cine City: Sagar"
  },
  "CNPD": {
    "AvailableFormats": "2D",
    "City": "Chintalapudi",
    "Latitude": "17.0655",
    "Longitude": "80.983",
    "RegionCode": "CHPD",
    "State": "Andhra Pradesh",
    "SubRegionCode": "CHPD",
    "VenueAddress": "Chintalapudi - Eluru Road, Near Old Bus Stand, Chintalapudi, Andhra Pradesh 534460, India",
    "VenueCode": "CNPD",
    "VenueName": "Sarada Mini A/C Theatre: Chintalapudi"
  },
  "CNTC": {
    "AvailableFormats": "",
    "City": "Coimbatore",
    "FirstTracked": "2026-07-14",
    "Latitude": "10.993464",
    "Longitude": "76.96422",
    "RegionCode": "COIM",
    "State": "Tamil Nadu",
    "SubRegionCode": "COIM",
    "VenueAddress": "191, Big Bazar Street, Town Hall, Near Railway Station, Near Koniammam Temple, Coimbatore, Tamil Nadu 641001, India",
    "VenueCode": "CNTC",
    "VenueName": "Carnatic Cinema: Coimbatore"
  },
  "COLV": {
    "AvailableFormats": "2D|3D",
    "City": "Vadodara",
    "Latitude": "22.3108",
    "Longitude": "73.1688",
    "RegionCode": "VAD",
    "State": "Gujarat",
    "SubRegionCode": "VAD",
    "VenueAddress": "Kanha Center, 2nd Floor, RC Dutt Road, Alkapuri, Opposite Hotel Express Ardhana Society, Vadodara, Gujarat 390020, India",
    "VenueCode": "COLV",
    "VenueName": "Connplex Cinemas (Luxuriance): Vadodara"
  },
  "CPAO": {
    "AvailableFormats": "3D|2D",
    "City": "Ahmedabad",
    "Latitude": "23.0378",
    "Longitude": "72.5283",
    "RegionCode": "AHD",
    "State": "Gujarat",
    "SubRegionCode": "AHD",
    "VenueAddress": "3rd Floor, Alpha One Mall, Opp Vastrapur Lake, Ahmedabad, Gujarat 380015, India",
    "VenueCode": "CPAO",
    "VenueName": "Cinepolis: Nexus Ahmedabad One"
  },
  "CPEC": {
    "AvailableFormats": "2D",
    "City": "Ahmedabad",
    "Latitude": "23.0464",
    "Longitude": "72.6737",
    "RegionCode": "AHD",
    "State": "Gujarat",
    "SubRegionCode": "AHD",
    "VenueAddress": "4th Floor, Hiltown Square, MG Road, Ahmedabad, Gujarat 382350, India",
    "VenueCode": "CPEC",
    "VenueName": "Cineprime Cinema: Nikol"
  },
  "CPKC": {
    "AvailableFormats": "2D|3D",
    "City": "Vapi",
    "Latitude": "20.3954",
    "Longitude": "72.8928",
    "RegionCode": "VAPI",
    "State": "Gujarat",
    "SubRegionCode": "VAPI",
    "VenueAddress": "Fortune Square-1, 4th Floor, Vapi -Daman Road, Chala, Vapi, Gujarat 396191, India",
    "VenueCode": "CPKC",
    "VenueName": "Cine Park: Chala, Vapi"
  },
  "CPMH": {
    "AvailableFormats": "2D|3D",
    "City": "Hyderabad",
    "Latitude": "17.4901",
    "Longitude": "78.3933",
    "RegionCode": "HYD",
    "State": "Telangana",
    "SubRegionCode": "HYD",
    "VenueAddress": "3rd Floor, Survey No.1050, KPBH Colony Phase-3, LuLu Mall,Opposite - JNTU Hi-Tech Road, Kukatpally, Kukatpally, Hyderabad, Telangana 500072, India",
    "VenueCode": "CPMH",
    "VenueName": "Cinepolis: Lulu Mall, Hyderabad"
  },
  "CPOV": {
    "AvailableFormats": "2D|3D",
    "City": "Vijayawada",
    "Latitude": "16.4888",
    "Longitude": "80.6752",
    "RegionCode": "KADU",
    "State": "Andhra Pradesh",
    "SubRegionCode": "KADU",
    "VenueAddress": "Cinepolis India Pvt Ltd, 3rd Floor, Power One Mall, Survery no -220/4 Kanuru gram, Bunder Road, District- Krishna, Vijayawada, Andhra Pradesh 520007, India",
    "VenueCode": "CPOV",
    "VenueName": "Cinepolis: Power One Mall, Vijayawada"
  },
  "CPSM": {
    "AvailableFormats": "2D",
    "City": "Ahmedabad",
    "Latitude": "23.1045",
    "Longitude": "72.5494",
    "RegionCode": "AHD",
    "State": "Gujarat",
    "SubRegionCode": "AHD",
    "VenueAddress": "Savvy Sawaraj Sports Club, 5th Floor, Vandematram Road, Near Godrej Garden City Road, Ahmedabad, Gujarat 382481, India",
    "VenueCode": "CPSM",
    "VenueName": "Savvy Swaraaj Miniplex: Gota, Ahmedabad"
  },
  "CRGM": {
    "AvailableFormats": "3D|2D",
    "City": "Gurugram (Gurgaon)",
    "Latitude": "28.3833",
    "Longitude": "77.0522",
    "RegionCode": "NCR",
    "State": "NCR",
    "SubRegionCode": "GURG",
    "VenueAddress": "Reach Airia Mall, 3rd Floor Sohna Road, Sector 68, Gurugram (Gurgaon), NCR 122103, India",
    "VenueCode": "CRGM",
    "VenueName": "Cinepolis: Airia Mall, Sohna Road, Gurgaon"
  },
  "CSCI": {
    "AvailableFormats": "2D",
    "City": "Indore",
    "Latitude": "22.7229",
    "Longitude": "75.8304",
    "RegionCode": "IND",
    "State": "Madhya Pradesh",
    "SubRegionCode": "IND",
    "VenueAddress": "2nd Floor, Space Tower, Airport Road, Above Croma, Near Surjeet Hyundai Showroom, Indore, Madhya Pradesh 452005, India",
    "VenueCode": "CSCI",
    "VenueName": "Cine Square Cinemas: Airport Road, Indore"
  },
  "CSMP": {
    "AvailableFormats": "2D",
    "City": "Ahmedabad",
    "Latitude": "23.0116",
    "Longitude": "72.5078",
    "RegionCode": "AHD",
    "State": "Gujarat",
    "SubRegionCode": "AHD",
    "VenueAddress": "2, 3, 4th Floor, Campus Corner 2, 100 Feet Road, Prahlad Nagar Garden, Ahmedabad, Gujarat 380015, India",
    "VenueCode": "CSMP",
    "VenueName": "Connplex Cinemas: Prahladnagar"
  },
  "CSTL": {
    "AvailableFormats": "2D|3D",
    "City": "Nawada",
    "Latitude": "24.8877",
    "Longitude": "85.5392",
    "RegionCode": "NAWD",
    "State": "Bihar",
    "SubRegionCode": "NAWD",
    "VenueAddress": "Natraj Picture Palace, New Area, Nawada, Nawada, Bihar 805110, India",
    "VenueCode": "CSTL",
    "VenueName": "Connplex Cinemas (Natraj): Nawada"
  },
  "CTCT": {
    "AvailableFormats": "",
    "City": "Gorantla",
    "FirstTracked": "2026-07-14",
    "Latitude": "13.984417",
    "Longitude": "77.767624",
    "RegionCode": "GORA",
    "State": "Andhra Pradesh",
    "SubRegionCode": "GORA",
    "VenueAddress": "Hindupur - Kadiri Highway, Near Sri Vinayaka Swamy Temple, Gorantla, Andhra Pradesh 515231, India",
    "VenueCode": "CTCT",
    "VenueName": "CTC Theatre: Gorantla"
  },
  "CTMP": {
    "AvailableFormats": "2D|3D",
    "City": "Pune",
    "Latitude": "18.5247",
    "Longitude": "73.8546",
    "RegionCode": "PUNE",
    "State": "Maharashtra",
    "SubRegionCode": "PUNE",
    "VenueAddress": "111, Behind Pune Muncipal Corporation Building, Shivaji Road, Shivaji Nagar, Pune, Maharashtra 411005, India",
    "VenueCode": "CTMP",
    "VenueName": "City Pride: Mangala Cinema"
  },
  "CTSR": {
    "AvailableFormats": "2D|3D",
    "City": "Pune",
    "Latitude": "18.4887",
    "Longitude": "73.8579",
    "RegionCode": "PUNE",
    "State": "Maharashtra",
    "SubRegionCode": "PUNE",
    "VenueAddress": "Market Yard, Pune Satara Road, Pune, Maharashtra 411037, India",
    "VenueCode": "CTSR",
    "VenueName": "City Pride: Satara Road"
  },
  "CVLG": {
    "AvailableFormats": "2D",
    "City": "Bengaluru",
    "Latitude": "12.9817",
    "Longitude": "77.5638",
    "RegionCode": "BANG",
    "State": "Karnataka",
    "SubRegionCode": "BANG",
    "VenueAddress": "3rd Floor, Lulu Mall, Rajajinagar, Bengaluru, Karnataka 560023, India",
    "VenueCode": "CVLG",
    "VenueName": "Cinepolis VIP: Lulu Mall, Bengaluru"
  },
  "CWTK": {
    "AvailableFormats": "2D",
    "City": "Kozhinjampara",
    "Latitude": "10.7368",
    "Longitude": "76.8327",
    "RegionCode": "PLKK",
    "State": "Kerala",
    "SubRegionCode": "PLKK",
    "VenueAddress": "Chittur Road, Near Bus Stand, Kozhinjampara, Kerala 678555, India",
    "VenueCode": "CWTK",
    "VenueName": "Cowmalya Theatre: Kozhinjampara"
  },
  "CXTE": {
    "AvailableFormats": "2D",
    "City": "Umerkote",
    "Latitude": "19.6555",
    "Longitude": "82.2213",
    "RegionCode": "UMEK",
    "State": "Odisha",
    "SubRegionCode": "UMEK",
    "VenueAddress": "JK Plaza, Infront of Reliance Trends, Dongriguda Road, Shanti Nagar, Umerkote, Odisha 764073, India",
    "VenueCode": "CXTE",
    "VenueName": "Connplex Cinemas: Umerkote"
  },
  "DBJR": {
    "AvailableFormats": "2D",
    "City": "Kalady",
    "Latitude": "10.1687",
    "Longitude": "76.443",
    "RegionCode": "KLDY",
    "State": "Kerala",
    "SubRegionCode": "KLDY",
    "VenueAddress": "Kalady Malayattoor Road, Thalayattumpilli, Kalady, Kerala 683574, India",
    "VenueCode": "DBJR",
    "VenueName": "Dreambig Jawahar CInemas: Kalady"
  },
  "DCCU": {
    "AvailableFormats": "2D",
    "City": "Thodupuzha",
    "Latitude": "9.90082",
    "Longitude": "76.7134",
    "RegionCode": "THOD",
    "State": "Kerala",
    "SubRegionCode": "THOD",
    "VenueAddress": "4th Floor, Dream Mall, Mt Sinai Road, Near Reliance Trends, Thodupuzha, Kerala 685584, India",
    "VenueCode": "DCCU",
    "VenueName": "DREAM MALL NAXA CINEMAS DOLBY 7.1"
  },
  "DCMV": {
    "AvailableFormats": "3D|2D",
    "City": "Noida",
    "Latitude": "28.5673",
    "Longitude": "77.3213",
    "RegionCode": "NCR",
    "State": "NCR",
    "SubRegionCode": "NOIDA",
    "VenueAddress": "5th Floor, DLF Mall of India, Plot No M03, A602/A701B, Sector 18, Noida, NCR 201301, India",
    "VenueCode": "DCMV",
    "VenueName": "PVR Directors Cut, DLF Mall Of India: Noida"
  },
  "DDJP": {
    "AvailableFormats": "2D",
    "City": "Jaipur",
    "Latitude": "26.8024",
    "Longitude": "75.857",
    "RegionCode": "JAIP",
    "State": "Rajasthan",
    "SubRegionCode": "JAIP",
    "VenueAddress": "DD Cinemas, 5th Floor, Viva City Mall, C-3, Mahal Road, Near Akshay Patra Temple, Mahal Yojana, Jagatpura, Shri Kishanpura, Jaipur, Rajasthan 302022, India",
    "VenueCode": "DDJP",
    "VenueName": "DD Cinemas: Vivacity Mall, Jaipur"
  },
  "DESB": {
    "AvailableFormats": "2D",
    "City": "Dhanbad",
    "Latitude": "23.7401",
    "Longitude": "86.4183",
    "RegionCode": "DHAN",
    "State": "Jharkhand",
    "SubRegionCode": "DHAN",
    "VenueAddress": "Nai Duniya Mohlla, Main Road, Jharia, Dhanbad, Jharkhand 828111, India",
    "VenueCode": "DESB",
    "VenueName": "Deshbandhu Cinema: Jharia, Dhanbad"
  },
  "DHCL": {
    "AvailableFormats": "2D",
    "City": "Badaun",
    "Latitude": "28.0319",
    "Longitude": "79.125",
    "RegionCode": "BADN",
    "State": "Uttar Pradesh",
    "SubRegionCode": "BADN",
    "VenueAddress": "Dhishoom Cinemas, 3rd floor City Mall, Labela Road, Badaun, Uttar Pradesh 243601, India",
    "VenueCode": "DHCL",
    "VenueName": "Dhishoom Cinemas, City Mall: Budaun"
  },
  "DLCN": {
    "AvailableFormats": "2D",
    "City": "Nenmara",
    "Latitude": "10.5908",
    "Longitude": "76.5954",
    "RegionCode": "NENM",
    "State": "Kerala",
    "SubRegionCode": "NENM",
    "VenueAddress": "State Highway 58, MG Road, Nenmara, Kerala 678508, India",
    "VenueCode": "DLCN",
    "VenueName": "Dhanalakshmi Cinemas: Nenmara"
  },
  "DMPZ": {
    "AvailableFormats": "2D|3D",
    "City": "Kolkata",
    "Latitude": "22.6153",
    "Longitude": "88.4126",
    "RegionCode": "KOLK",
    "State": "West Bengal",
    "SubRegionCode": "KOLK",
    "VenueAddress": "Diamond City Mall,5 Floor, 68, Jessore Rd, Satgachi, Jagat Banerjee Ghat Road, Kolkata, West Bengal 700055, India",
    "VenueCode": "DMPZ",
    "VenueName": "PVR: Diamond Plaza, Jessore Kolkata"
  },
  "DPDC": {
    "AvailableFormats": "2D|3D",
    "City": "Delhi",
    "Latitude": "28.5412",
    "Longitude": "77.1552",
    "RegionCode": "NCR",
    "State": "NCR",
    "SubRegionCode": "DELHI",
    "VenueAddress": "Ambience Mall, Vasant Phase-2, Nelson Mandela Road, Vasant Kunj, Near Lifestyle Showroom, Delhi, NCR 110070, India",
    "VenueCode": "DPDC",
    "VenueName": "Delhi: PVR Director`s Cut, Ambience Mall"
  },
  "DRPV": {
    "AvailableFormats": "2D",
    "City": "kanchikacherla",
    "Latitude": "16.681",
    "Longitude": "80.3922",
    "RegionCode": "KNCH",
    "State": "Andhra Pradesh",
    "SubRegionCode": "KNCH",
    "VenueAddress": "D.No 13-191, Near IOC Bunk, NH65, kanchikacherla, Andhra Pradesh 521180, India",
    "VenueCode": "DRPV",
    "VenueName": "Dr. PV Rao Cineplex: Kanchikacherla"
  },
  "DTPT": {
    "AvailableFormats": "2D",
    "City": "Kanhangad",
    "Latitude": "12.3209",
    "Longitude": "75.0851",
    "RegionCode": "KKNN",
    "State": "Kerala",
    "SubRegionCode": "KKNN",
    "VenueAddress": "Deepthi Cinemas,Railway Station, Puthiyavalapu, Opposite Kanhangad, Kanhangad, Kerala 671315, India",
    "VenueCode": "DTPT",
    "VenueName": "Deepthi Cinemas A/c 2K Dolby Atmos: Kanhangad"
  },
  "DVDC": {
    "AvailableFormats": "2D",
    "City": "Delhi",
    "Latitude": "28.6418",
    "Longitude": "77.2335",
    "RegionCode": "NCR",
    "State": "NCR",
    "SubRegionCode": "DELHI",
    "VenueAddress": "Opp LNJP, Asaf Ali Road Darya Ganj, Near Delhi Stock Exchange, Delhi, NCR 110002, India",
    "VenueCode": "DVDC",
    "VenueName": "Delite Cinema: Asaf Ali Road"
  },
  "ECDG": {
    "AvailableFormats": "2D",
    "City": "Deoghar",
    "Latitude": "24.4907",
    "Longitude": "86.6915",
    "RegionCode": "DOGH",
    "State": "Jharkhand",
    "SubRegionCode": "DOGH",
    "VenueAddress": "Central Plaza Mall, Netaji Subhash Chandra Road, Above Big Bazar, Deoghar, Jharkhand 814112, India",
    "VenueCode": "ECDG",
    "VenueName": "Eylex Cinemas: Deoghar"
  },
  "EDSR": {
    "AvailableFormats": "2D",
    "City": "Sattenapalle",
    "Latitude": "16.3953",
    "Longitude": "80.142",
    "RegionCode": "SATL",
    "State": "Andhra Pradesh",
    "SubRegionCode": "SATL",
    "VenueAddress": "Narasaraopet Sattenapalli Road, Near Santhoshini Earth Movers, Sattenapalle, Andhra Pradesh 522403, India",
    "VenueCode": "EDSR",
    "VenueName": "Eswarsai 4K Dolby Atmos: Sattenapalle"
  },
  "EMAS": {
    "AvailableFormats": "",
    "City": "Kadapa",
    "FirstTracked": "2026-07-14",
    "Latitude": "14.473098",
    "Longitude": "78.82424",
    "RegionCode": "KDPA",
    "State": "Andhra Pradesh",
    "SubRegionCode": "KDPA",
    "VenueAddress": "Almaspet, Maria Puram, Kadapa, Andhra Pradesh 516001, India",
    "VenueCode": "EMAS",
    "VenueName": "SR Cinemas: Kadapa"
  },
  "EOSS": {
    "AvailableFormats": "",
    "City": "Seoni",
    "FirstTracked": "2026-07-14",
    "Latitude": "22.076456",
    "Longitude": "79.54089",
    "RegionCode": "SEON",
    "State": "Madhya Pradesh",
    "SubRegionCode": "SEON",
    "VenueAddress": "MP SH 26, Bhagat Singh Ward, Chhindwara Road, Near Apurva TVS Showroom, Seoni, Madhya Pradesh 480661, India",
    "VenueCode": "EOSS",
    "VenueName": "EOS Cinemas: Seoni"
  },
  "ESND": {
    "AvailableFormats": "",
    "City": "Nanded",
    "FirstTracked": "2026-07-14",
    "Latitude": "19.195044",
    "Longitude": "77.27949",
    "RegionCode": "NAND",
    "State": "Maharashtra",
    "SubRegionCode": "NAND",
    "VenueAddress": "Meera Arcade, 3rd Floor, Samarth Nagar, Canal Road, Near D-Mart, Nanded, Maharashtra 431605, India",
    "VenueCode": "ESND",
    "VenueName": "Bharat E-Square: Nanded"
  },
  "ETTR": {
    "AvailableFormats": "2D",
    "City": "Tirukoilur",
    "Latitude": "11.9683",
    "Longitude": "79.2055",
    "RegionCode": "TRKR",
    "State": "Tamil Nadu",
    "SubRegionCode": "TRKR",
    "VenueAddress": "SH 9, Thirukoilure, Near Government Hospital, Tirukoilur, Tamil Nadu 605757, India",
    "VenueCode": "ETTR",
    "VenueName": "Eshwari Thiraiarangam A/C 4K Dolby Atmos"
  },
  "EYLH": {
    "AvailableFormats": "2D",
    "City": "Ranchi",
    "Latitude": "23.3328",
    "Longitude": "85.3171",
    "RegionCode": "RANC",
    "State": "Jharkhand",
    "SubRegionCode": "RANC",
    "VenueAddress": "Hinoo Main Road, Shukla Colony,Opposite River View Restaurant, Ranchi, Jharkhand 834002, India",
    "VenueCode": "EYLH",
    "VenueName": "Eylex Cinemas: Hinoo"
  },
  "FCPA": {
    "AvailableFormats": "2D",
    "City": "Anand",
    "Latitude": "22.5527",
    "Longitude": "72.9444",
    "RegionCode": "AND",
    "State": "Gujarat",
    "SubRegionCode": "AND",
    "VenueAddress": "Theatre Road, Opp. Chinar Gulnar, Anand-Vidyanag Road, Near Hero Honda Showroom (S.S. Motors), Anand, Gujarat 388001, India",
    "VenueCode": "FCPA",
    "VenueName": "INOX Anand: City Pulse Mall"
  },
  "FMCB": {
    "AvailableFormats": "2D|3D",
    "City": "Bhagalpur",
    "Latitude": "25.2632",
    "Longitude": "87.0324",
    "RegionCode": "BHAG",
    "State": "Bihar",
    "SubRegionCode": "BHAG",
    "VenueAddress": "Near DAV School, Large Industrial Area, Barari, Bhagalpur, Bihar 812003, India",
    "VenueCode": "FMCB",
    "VenueName": "FM Cineplex: Bhagalpur"
  },
  "FMMA": {
    "AvailableFormats": "2D|MX4D|IMAX 2D|3D",
    "City": "Mumbai",
    "Latitude": "19.1725",
    "Longitude": "72.8355",
    "RegionCode": "MUMBAI",
    "State": "Maharashtra",
    "SubRegionCode": "MWEST",
    "VenueAddress": "Inorbit Mall, Goregaon Malad Link Road, Near Shoppers Stop, Malad West, Mumbai, Maharashtra 400064, India",
    "VenueCode": "FMMA",
    "VenueName": "INOX: Megaplex, Inorbit Mall, Malad"
  },
  "FNBH": {
    "AvailableFormats": "2D|3D",
    "City": "Bathinda",
    "Latitude": "30.2311",
    "Longitude": "74.9356",
    "RegionCode": "BHAT",
    "State": "Punjab",
    "SubRegionCode": "BHAT",
    "VenueAddress": "Goniana, Goniana Road, Bathinda, Punjab 132103, India",
    "VenueCode": "FNBH",
    "VenueName": "Cinepolis: Mittal City, Bathinda"
  },
  "FNKT": {
    "AvailableFormats": "2D|3D",
    "City": "Kota",
    "Latitude": "25.1384",
    "Longitude": "75.8554",
    "RegionCode": "KOTA",
    "State": "Rajasthan",
    "SubRegionCode": "KOTA",
    "VenueAddress": "City Mall, A,47, Indraprastha Industrial Area, Jhalawar Road, Kota, Rajasthan 324005, India",
    "VenueCode": "FNKT",
    "VenueName": "Fun Cinemas: City Mall, Kota"
  },
  "FRCJ": {
    "AvailableFormats": "2D",
    "City": "Jaipur",
    "Latitude": "26.8403",
    "Longitude": "75.7942",
    "RegionCode": "JAIP",
    "State": "Rajasthan",
    "SubRegionCode": "JAIP",
    "VenueAddress": "1, Ashram Marg, Tonk Road Junction, Tonk Road, Near First Cineplex Bus Stop, Jaipur, Rajasthan 302018, India",
    "VenueCode": "FRCJ",
    "VenueName": "First Cinema: Jaipur"
  },
  "FTDP": {
    "AvailableFormats": "2D",
    "City": "Pune",
    "Latitude": "18.6199",
    "Longitude": "73.8012",
    "RegionCode": "PUNE",
    "State": "Maharashtra",
    "SubRegionCode": "PUNE",
    "VenueAddress": "Deluxe Fortune Mall, Shastri Nagar, Pimpri Colony, Pimpri-Chinchwad, Pune, Maharashtra 411017, India",
    "VenueCode": "FTDP",
    "VenueName": "Funtime Deluxe: Pimpri, Pune"
  },
  "GAGJ": {
    "AvailableFormats": "2D",
    "City": "Gajapathinagaram",
    "Latitude": "18.284",
    "Longitude": "83.337",
    "RegionCode": "GJPT",
    "State": "Andhra Pradesh",
    "SubRegionCode": "GJPT",
    "VenueAddress": "Jayanthi Colony, Near Canara Bank, Gajapathinagaram, Andhra Pradesh 535270, India",
    "VenueCode": "GAGJ",
    "VenueName": "Gangaraju Kalamandhir Dolby7.1: Gajapathinagaram"
  },
  "GATR": {
    "AvailableFormats": "2D",
    "City": "Rajahmundry",
    "Latitude": "17.003",
    "Longitude": "81.775",
    "RegionCode": "RJMU",
    "State": "Andhra Pradesh",
    "SubRegionCode": "RJMU",
    "VenueAddress": "Syamalamba Temple Road, Mangalavaripeta, Near Sri Vinayaka Temple, Rajahmundry, Andhra Pradesh 533101, India",
    "VenueCode": "GATR",
    "VenueName": "Apsara Laser R.G.B 4K Dolby Atmos: Rajahmundry"
  },
  "GCBB": {
    "AvailableFormats": "2D",
    "City": "Barshi",
    "Latitude": "18.2463",
    "Longitude": "75.6966",
    "RegionCode": "BRHI",
    "State": "Maharashtra",
    "SubRegionCode": "BRHI",
    "VenueAddress": "M.P complex 1551/1/2CD, Near by Hiremath Hospital, Subhas Nagar, Agalgoan Road, Solapur, Barshi, Maharashtra 413401, India",
    "VenueCode": "GCBB",
    "VenueName": "Golden Cinemax: Barshi"
  },
  "GCDU": {
    "AvailableFormats": "",
    "City": "Diphu",
    "FirstTracked": "2026-07-14",
    "Latitude": "25.840408",
    "Longitude": "93.438065",
    "RegionCode": "DIPH",
    "State": "Assam",
    "SubRegionCode": "DIPH",
    "VenueAddress": "MG Road, Near Vishal Mega Mart, Diphu, Assam 782460, India",
    "VenueCode": "GCDU",
    "VenueName": "Galaxy Cinema: Diphu"
  },
  "GCKI": {
    "AvailableFormats": "2D",
    "City": "Kozhinjampara",
    "Latitude": "10.7343",
    "Longitude": "76.8349",
    "RegionCode": "KOZA",
    "State": "Kerala",
    "SubRegionCode": "KOZA",
    "VenueAddress": "Palakkad - Pollachi Road, Near Private Bus Stand, Kozhinjampara, Kerala 678555, India",
    "VenueCode": "GCKI",
    "VenueName": "Geetha Cinemax 2K 3D: Kozhinjampara"
  },
  "GCNG": {
    "AvailableFormats": "2D",
    "City": "Narnaul",
    "Latitude": "28.0542",
    "Longitude": "76.1023",
    "RegionCode": "NARN",
    "State": "Haryana",
    "SubRegionCode": "NARN",
    "VenueAddress": "Aggarwal Tower, Nizampur Road, Near Navjeevan Hospital, Narnaul, Haryana 123001, India",
    "VenueCode": "GCNG",
    "VenueName": "Gold Cinema: Narnaul"
  },
  "GCTG": {
    "AvailableFormats": "2D",
    "City": "Madurai",
    "Latitude": "9.9361",
    "Longitude": "78.0979",
    "RegionCode": "MADU",
    "State": "Tamil Nadu",
    "SubRegionCode": "MADU",
    "VenueAddress": "66/98, Velar Street, Manjalmattu Colony, Gnanavolivupuram, Arapalayam, City Bus Stop, Madurai, Tamil Nadu 625016, India",
    "VenueCode": "GCTG",
    "VenueName": "Guru Cinemas A/C RGB Laser 4K 3D: Madurai"
  },
  "GDCD": {
    "AvailableFormats": "2D",
    "City": "Mumbai",
    "Latitude": "19.0096",
    "Longitude": "72.8423",
    "RegionCode": "MUMBAI",
    "State": "Maharashtra",
    "SubRegionCode": "MCENT",
    "VenueAddress": "9/26, Kumar Fun and Shop, 2nd Floor, Dr. Babasaheb Ambedkar Road., Naigaon, Dadar (East), Mumbai, Maharashtra 400014, India",
    "VenueCode": "GDCD",
    "VenueName": "Gold Cinema: Dadar (E)"
  },
  "GDKH": {
    "AvailableFormats": "2D",
    "City": "Khopoli",
    "Latitude": "18.7884",
    "Longitude": "73.3403",
    "RegionCode": "KHOP",
    "State": "Maharashtra",
    "SubRegionCode": "KHOP",
    "VenueAddress": "Yashwant Tower, Laxminagar, Old Mumbai Pune Highway, Near Swanand Hotel, Khopoli, Maharashtra 410203, India",
    "VenueCode": "GDKH",
    "VenueName": "Gold Cinema: Khopoli"
  },
  "GEPL": {
    "AvailableFormats": "2D",
    "City": "Kakinada",
    "Latitude": "16.9703",
    "Longitude": "82.2374",
    "RegionCode": "KAKI",
    "State": "Andhra Pradesh",
    "SubRegionCode": "KAKI",
    "VenueAddress": "Bhanugudi Junction, Kondayya Palem, Kakinada, Andhra Pradesh 533003, India",
    "VenueCode": "GEPL",
    "VenueName": "GEPL Padmapriya Sripriya: Kakinada"
  },
  "GGMC": {
    "AvailableFormats": "2D",
    "City": "Hanumangarh",
    "Latitude": "29.6216",
    "Longitude": "74.2862",
    "RegionCode": "HNMG",
    "State": "Rajasthan",
    "SubRegionCode": "HNMG",
    "VenueAddress": "Rajasthan State, Shopat Singh Marg, Model Town, Hanumangarh, Rajasthan 335512, India",
    "VenueCode": "GGMC",
    "VenueName": "Prime Cinemas Shiv Mandir: Hanumangarh"
  },
  "GKCP": {
    "AvailableFormats": "2D|3D",
    "City": "Chennai",
    "Latitude": "13.0337",
    "Longitude": "80.1611",
    "RegionCode": "CHEN",
    "State": "Tamil Nadu",
    "SubRegionCode": "CHEN",
    "VenueAddress": "No 93, Lakshmi Nagar, Near Madurai Kannappar Mess, Chennai, Tamil Nadu 600116, India",
    "VenueCode": "GKCP",
    "VenueName": "GK Cinemas RGB + Laser SRL 4D: Porur"
  },
  "GLOB": {
    "AvailableFormats": "3D|2D",
    "City": "Belagavi (Belgaum)",
    "Latitude": "15.8516",
    "Longitude": "74.5054",
    "RegionCode": "BELG",
    "State": "Karnataka",
    "SubRegionCode": "BELG",
    "VenueAddress": "Camp Area, Khanapur Road, Opposite Hotel Pranaam, Belagavi (Belgaum), Karnataka 590001, India",
    "VenueCode": "GLOB",
    "VenueName": "Globe Cinemas: Camp Area"
  },
  "GNHB": {
    "AvailableFormats": "",
    "City": "Hyderabad",
    "FirstTracked": "2026-07-14",
    "Latitude": "17.264734",
    "Longitude": "78.38983",
    "RegionCode": "AUSH",
    "State": "Telangana",
    "SubRegionCode": "AUSH",
    "VenueAddress": "R.B. Nagar, Beside RGI Airport Police Station, Hyderabad, Telangana 501218, India",
    "VenueCode": "GNHB",
    "VenueName": "Ganesh 70MM: Shamshabad"
  },
  "GPBG": {
    "AvailableFormats": "",
    "City": "Bhogapuram",
    "FirstTracked": "2026-07-14",
    "Latitude": "18.030613",
    "Longitude": "83.495995",
    "RegionCode": "BHOG",
    "State": "Andhra Pradesh",
    "SubRegionCode": "BHOG",
    "VenueAddress": "Chennai - Kolkata Highway, Market Road, Bhogapuram, Andhra Pradesh 535216, India",
    "VenueCode": "GPBG",
    "VenueName": "Gopalakrishna Theatre: Bhogapuram"
  },
  "GPSM": {
    "AvailableFormats": "2D",
    "City": "Bengaluru",
    "Latitude": "12.9933",
    "Longitude": "77.6621",
    "RegionCode": "HOKT",
    "State": "Karnataka",
    "SubRegionCode": "HOKT",
    "VenueAddress": "4th Floor, Gopalan Signature Mall, Old Madras Road, Rajana Colony, C V Raman Nagar, Bengaluru, Karnataka 560093, India",
    "VenueCode": "GPSM",
    "VenueName": "Gopalan Miniplex: Signature Mall, Old Madras Road"
  },
  "GRTC": {
    "AvailableFormats": "2D",
    "City": "Chennai",
    "Latitude": "13.0039",
    "Longitude": "80.2563",
    "RegionCode": "CHEN",
    "State": "Tamil Nadu",
    "SubRegionCode": "CHEN",
    "VenueAddress": "101 Lattice Bridge Road, Adyar, Kamaraj Nagar 1st Cross St, Chennai, Tamil Nadu 600020, India",
    "VenueCode": "GRTC",
    "VenueName": "GanapathyRam Theatre 4K Dolby 7.1: Chennai"
  },
  "GTCM": {
    "AvailableFormats": "",
    "City": "Mahishadal",
    "FirstTracked": "2026-07-14",
    "Latitude": "22.1883",
    "Longitude": "87.98797",
    "RegionCode": "MMAI",
    "State": "West Bengal",
    "SubRegionCode": "MMAI",
    "VenueAddress": "Haldia Mechada via Tamluk, Garh Kamalpur, Near Tamluk Ghatal Central Co-operative Bank, Mahishadal, West Bengal 721628, India",
    "VenueCode": "GTCM",
    "VenueName": "Gita Cinema: Mahishadal"
  },
  "GTSG": {
    "AvailableFormats": "2D",
    "City": "Gudivada",
    "Latitude": "16.4378",
    "Longitude": "80.9924",
    "RegionCode": "GUDI",
    "State": "Andhra Pradesh",
    "SubRegionCode": "GUDI",
    "VenueAddress": "D.No 11-235, Eluru Road, Gudivada, Andhra Pradesh 521301, India",
    "VenueCode": "GTSG",
    "VenueName": "G3 Theatres Sindhura: Gudivada"
  },
  "GTYT": {
    "AvailableFormats": "2D",
    "City": "Bengaluru",
    "Latitude": "13.1006",
    "Longitude": "77.5871",
    "RegionCode": "HOKT",
    "State": "Karnataka",
    "SubRegionCode": "HOKT",
    "VenueAddress": "A Centre, Yelahanka New Town, Behind Sheshadripuram First Grade College, Bengaluru, Karnataka 560064, India",
    "VenueCode": "GTYT",
    "VenueName": "Ganesh Digital 2K Cinema: Yelahanka New Town"
  },
  "HAMD": {
    "AvailableFormats": "2D",
    "City": "Ahmedabad",
    "Latitude": "23.0464",
    "Longitude": "72.5311",
    "RegionCode": "AHD",
    "State": "Gujarat",
    "SubRegionCode": "AHD",
    "VenueAddress": "1A, Himalaya Mall Drive In Road,Gurukul Road, Memnagar, Ahmedabad, Gujarat 380052, India",
    "VenueCode": "HAMD",
    "VenueName": "INOX: Himalaya Mall, Drive In Road, Ahmedabad"
  },
  "HDCN": {
    "AvailableFormats": "",
    "City": "Dimapur",
    "FirstTracked": "2026-07-14",
    "Latitude": "25.910013",
    "Longitude": "93.726585",
    "RegionCode": "DMPR",
    "State": "Nagaland",
    "SubRegionCode": "DMPR",
    "VenueAddress": "Deluxe Point, Anwar Hussain Road, Opposite of Muslim Burial Ground, Dimapur, Nagaland 797112, India",
    "VenueCode": "HDCN",
    "VenueName": "Hillstar Digital Cinema: Dimapur"
  },
  "HHJM": {
    "AvailableFormats": "",
    "City": "Jammikunta",
    "FirstTracked": "2026-07-14",
    "Latitude": "18.285854",
    "Longitude": "79.47386",
    "RegionCode": "JMKN",
    "State": "Telangana",
    "SubRegionCode": "JMKN",
    "VenueAddress": "Huzurabad - Jammikunta Road, Near Jammikunta Railway Flyover Bridge, Jammikunta, Telangana 505122, India",
    "VenueCode": "HHJM",
    "VenueName": "Hari Hara Talkies: Jammikunta"
  },
  "HPVR": {
    "AvailableFormats": "2D|3D",
    "City": "Thane",
    "Latitude": "19.3",
    "Longitude": "73.0649",
    "RegionCode": "MUMBAI",
    "State": "Maharashtra",
    "SubRegionCode": "THNE",
    "VenueAddress": "Kaap Islanpura, Agra Road, Gokul Nagar, Near Bhiwandi Court, Bhiwandi, Thane, Maharashtra 421302, India",
    "VenueCode": "HPVR",
    "VenueName": "PVR: Haseen, Bhiwandi"
  },
  "IAET": {
    "AvailableFormats": "2D",
    "City": "Baraut",
    "Latitude": "29.1011",
    "Longitude": "77.2744",
    "RegionCode": "BARL",
    "State": "Uttar Pradesh",
    "SubRegionCode": "BARL",
    "VenueAddress": "Binoli Road, Near Vishnu Palace, Baraut, Uttar Pradesh 250611, India",
    "VenueCode": "IAET",
    "VenueName": "Imusica Entertainment: Baraut"
  },
  "IEFM": {
    "AvailableFormats": "3D|2D",
    "City": "Faridabad",
    "Latitude": "28.4076",
    "Longitude": "77.3101",
    "RegionCode": "NCR",
    "State": "NCR",
    "SubRegionCode": "FARI",
    "VenueAddress": "EROS EF3 Mall 3rd Floor, Sector 20 - A, Mathura Road, Faridabad, NCR 121001, India",
    "VenueCode": "IEFM",
    "VenueName": "INOX: EF3 Mall, Faridabad"
  },
  "ILUM": {
    "AvailableFormats": "3D|2D",
    "City": "Lucknow",
    "Latitude": "26.8713",
    "Longitude": "80.9584",
    "RegionCode": "LUCK",
    "State": "Uttar Pradesh",
    "SubRegionCode": "LUCK",
    "VenueAddress": "INOX Leisure LTD, 2nd Floor, Umrao Mall, Mahanagar, Near Badshah Nagar Metro Station, Lucknow, Uttar Pradesh 226006, India",
    "VenueCode": "ILUM",
    "VenueName": "INOX: Umrao Mall, Mahanagar"
  },
  "IMMO": {
    "AvailableFormats": "2D|2D SCREEN X",
    "City": "Bengaluru",
    "Latitude": "13.0702",
    "Longitude": "77.5924",
    "RegionCode": "BANG",
    "State": "Karnataka",
    "SubRegionCode": "BANG",
    "VenueAddress": "239/240, Byatarayanapura, Yelahanka Taluk, Bellary Road, Bengaluru, Karnataka 560092, India",
    "VenueCode": "IMMO",
    "VenueName": "INOX: Megaplex Mall of Asia Bangalore"
  },
  "INAM": {
    "AvailableFormats": "3D|2D",
    "City": "Kota",
    "Latitude": "25.1619",
    "Longitude": "75.8635",
    "RegionCode": "KOTA",
    "State": "Rajasthan",
    "SubRegionCode": "KOTA",
    "VenueAddress": "Kota Ahluwalias Great Mall, DCM Road, Ramchandrapura, Dhanmandi, Kota, Rajasthan 324005, India",
    "VenueCode": "INAM",
    "VenueName": "INOX: Ahluwalias Great Mall, Kota"
  },
  "INBP": {
    "AvailableFormats": "2D|3D",
    "City": "Patna",
    "Latitude": "25.6175",
    "Longitude": "85.1352",
    "RegionCode": "PATN",
    "State": "Bihar",
    "SubRegionCode": "PATN",
    "VenueAddress": "3rd Floor, City Centre Mall, Lodipur, Patna, Bihar 800001, India",
    "VenueCode": "INBP",
    "VenueName": "INOX: City Centre Mall, Patna"
  },
  "INEM": {
    "AvailableFormats": "2D",
    "City": "Jaipur",
    "Latitude": "26.8954",
    "Longitude": "75.7486",
    "RegionCode": "JAIP",
    "State": "Rajasthan",
    "SubRegionCode": "JAIP",
    "VenueAddress": "3rd Floor, Elements Mall, Ajmer Road, Mahatma Gandhi Nagar, Jaipur, Rajasthan 302021, India",
    "VenueCode": "INEM",
    "VenueName": "INOX: Elements Mall, Ajmer Road"
  },
  "INHY": {
    "AvailableFormats": "2D",
    "City": "Hyderabad",
    "Latitude": "17.4196",
    "Longitude": "78.4486",
    "RegionCode": "HYD",
    "State": "Telangana",
    "SubRegionCode": "HYD",
    "VenueAddress": "4th Floor, GVK One Mall, Road No.1, Banjara Hills, Opposite Hyatt Place, Hyderabad, Telangana 500034, India",
    "VenueCode": "INHY",
    "VenueName": "INOX GVK One, Banjara Hills: Hyderabad"
  },
  "INMG": {
    "AvailableFormats": "2D|3D",
    "City": "Goa",
    "Latitude": "15.2848",
    "Longitude": "73.9576",
    "RegionCode": "GOA",
    "State": "Goa",
    "SubRegionCode": "GOA",
    "VenueAddress": "G Wing, Osia Commercial Arcade, SGPDA Market Complex, Goa, Goa 403601, India",
    "VenueCode": "INMG",
    "VenueName": "INOX: Osia G Wing Margao, Goa"
  },
  "INOM": {
    "AvailableFormats": "2D",
    "City": "Salem",
    "Latitude": "11.6745",
    "Longitude": "78.1326",
    "RegionCode": "SALM",
    "State": "Tamil Nadu",
    "SubRegionCode": "SALM",
    "VenueAddress": "1st Floor, Reliance Mall, Five Roads Junction, Meyyanur, Salem, Tamil Nadu 636004, India",
    "VenueCode": "INOM",
    "VenueName": "INOX: Reliance Mall, Salem"
  },
  "INQM": {
    "AvailableFormats": "2D|3D",
    "City": "Kolkata",
    "Latitude": "22.5393",
    "Longitude": "88.3657",
    "RegionCode": "BARR",
    "State": "West Bengal",
    "SubRegionCode": "BARR",
    "VenueAddress": "4th Floor,Quest Mall, Syed Amir Ali Avenue, Opposite Our Lady Queen Of The Missions School, Kolkata, West Bengal 700017, India",
    "VenueCode": "INQM",
    "VenueName": "INOX: Quest Mall"
  },
  "INSC": {
    "AvailableFormats": "2D|3D",
    "City": "Thrissur",
    "Latitude": "10.5504",
    "Longitude": "76.1838",
    "RegionCode": "MANR",
    "State": "Kerala",
    "SubRegionCode": "MANR",
    "VenueAddress": "INOX Leisure Ltd, 2nd Floor, Sobha City Mall, Puzhakkal, Thrissur, Kerala 680553, India",
    "VenueCode": "INSC",
    "VenueName": "INOX: Sobha City Mall"
  },
  "INTN": {
    "AvailableFormats": "3D|2D",
    "City": "Patna",
    "Latitude": "25.6057",
    "Longitude": "85.1337",
    "RegionCode": "PATN",
    "State": "Bihar",
    "SubRegionCode": "PATN",
    "VenueAddress": "PVR INOX Limited, KP Mall, 4th Floor, Budha Marg, Patna, Bihar 800001, India",
    "VenueCode": "INTN",
    "VenueName": "INOX: Ashok, Patna"
  },
  "INVP": {
    "AvailableFormats": "2D",
    "City": "Vijayawada",
    "Latitude": "16.5026",
    "Longitude": "80.6599",
    "RegionCode": "KADU",
    "State": "Andhra Pradesh",
    "SubRegionCode": "KADU",
    "VenueAddress": "3rd Floor, LEPL Icon, RTC Colony, Benz Circle, Patamata, Near Maris Stella College, Vijayawada, Andhra Pradesh 520010, India",
    "VenueCode": "INVP",
    "VenueName": "INOX: LEPL Icon, Patamata"
  },
  "IOCP": {
    "AvailableFormats": "2D|3D",
    "City": "Delhi",
    "Latitude": "28.6343",
    "Longitude": "77.2211",
    "RegionCode": "NCR",
    "State": "NCR",
    "SubRegionCode": "DELHI",
    "VenueAddress": "INOX Leisure Limited, Delhi Odeon, 2nd Floor, Odeon Cinema Complex, D-Block, Connaught Place, Delhi, NCR 110001, India",
    "VenueCode": "IOCP",
    "VenueName": "INOX: Odeon, Connaught Place"
  },
  "IPGM": {
    "AvailableFormats": "2D|3D",
    "City": "Dhanbad",
    "Latitude": "23.8292",
    "Longitude": "86.4333",
    "RegionCode": "DHAN",
    "State": "Jharkhand",
    "SubRegionCode": "DHAN",
    "VenueAddress": "3rd Floor, Prabhatam Grand Mall, Nagnagar, Barwadda, Dhaiya, Dhanbad, Jharkhand 826004, India",
    "VenueCode": "IPGM",
    "VenueName": "INOX: Prabhatam Grand Mall, Dhanbad"
  },
  "IRMR": {
    "AvailableFormats": "2D|3D",
    "City": "Rajkot",
    "Latitude": "22.2794",
    "Longitude": "70.7769",
    "RegionCode": "RAJK",
    "State": "Gujarat",
    "SubRegionCode": "RAJK",
    "VenueAddress": "INOX Leisure Ltd., 2nd Floor, Reliance Mall, 150 Feet Ring Road, Near Nana Mauva Circle, Rajkot, Gujarat 360005, India",
    "VenueCode": "IRMR",
    "VenueName": "INOX: Reliance Mega Mall, Rajkot"
  },
  "IUBS": {
    "AvailableFormats": "2D|3D",
    "City": "Udaipur",
    "Latitude": "24.6321",
    "Longitude": "73.7126",
    "RegionCode": "UDAI",
    "State": "Rajasthan",
    "SubRegionCode": "UDAI",
    "VenueAddress": "PVR INOX LTD, 3rd Floor Urban Square Mall, Plot No. F - 210 to 223, Udyog Vihar, Gaurav Path, RIICO Industrial Area, Sukher, Udaipur, Rajasthan 313001, India",
    "VenueCode": "IUBS",
    "VenueName": "INOX: Urban Square Mall, Udaipur"
  },
  "JAGG": {
    "AvailableFormats": "2D",
    "City": "Guna",
    "Latitude": "24.6499",
    "Longitude": "77.3141",
    "RegionCode": "GUNA",
    "State": "Madhya Pradesh",
    "SubRegionCode": "GUNA",
    "VenueAddress": "Karnal Ganj, Haat Road, Piproda Khurd, Guna, Madhya Pradesh 473001, India",
    "VenueCode": "JAGG",
    "VenueName": "Jagat Talkies: Guna"
  },
  "JCCZ": {
    "AvailableFormats": "2D",
    "City": "Forbesganj",
    "Latitude": "26.3014",
    "Longitude": "87.2607",
    "RegionCode": "FORB",
    "State": "Bihar",
    "SubRegionCode": "FORB",
    "VenueAddress": "Ram Manohar Lohiya Road, Hospital Road, Near India Breakfast Shop, Forbesganj, Bihar 854318, India",
    "VenueCode": "JCCZ",
    "VenueName": "Jyoti Cinema: Forbesganj"
  },
  "JCVM": {
    "AvailableFormats": "2D",
    "City": "Villupuram",
    "Latitude": "11.9412",
    "Longitude": "79.4939",
    "RegionCode": "VILL",
    "State": "Tamil Nadu",
    "SubRegionCode": "VILL",
    "VenueAddress": "716, Nehruji Road,Villupuram, Mandhakarai, Villupuram, Tamil Nadu 605602, India",
    "VenueCode": "JCVM",
    "VenueName": "Janas Cinemas: Maghalakshmi Plaazaa Villupuram"
  },
  "JHCJ": {
    "AvailableFormats": "2D",
    "City": "Jagdalpur",
    "Latitude": "19.0847",
    "Longitude": "82.0287",
    "RegionCode": "JAGD",
    "State": "Chhattisgarh",
    "SubRegionCode": "JAGD",
    "VenueAddress": "Balaji Ward, Suncity, Near Bank Of Baroda, Jagdalpur, Chhattisgarh 494001, India",
    "VenueCode": "JHCJ",
    "VenueName": "Jhankar Cinema: Jagdalpur"
  },
  "JKCT": {
    "AvailableFormats": "2D",
    "City": "Thrissur",
    "Latitude": "10.4195",
    "Longitude": "76.106",
    "RegionCode": "THAI",
    "State": "Kerala",
    "SubRegionCode": "THAI",
    "VenueAddress": "Ground Floor,Dheehini Shopping Complex, Nattika,Thriprayar, Near Sree Narayana Hall, Thrissur, Kerala 680566, India",
    "VenueCode": "JKCT",
    "VenueName": "JK Cinemas 4K Dolby Atmos: Thriprayar"
  },
  "JMJU": {
    "AvailableFormats": "2D",
    "City": "Jammu",
    "Latitude": "32.6993",
    "Longitude": "74.8583",
    "RegionCode": "JAMM",
    "State": "Jammu and Kashmir",
    "SubRegionCode": "JAMM",
    "VenueAddress": "Gandhi Nagar, Apsara Road, Jammu, Jammu and Kashmir 180004, India",
    "VenueCode": "JMJU",
    "VenueName": "Apsra Hospitality & Entertainment(Apsra Multiplex)"
  },
  "JRGF": {
    "AvailableFormats": "",
    "City": "Fatehpur(Rajasthan)",
    "FirstTracked": "2026-07-14",
    "Latitude": "27.98459",
    "Longitude": "74.95353",
    "RegionCode": "FATR",
    "State": "Rajasthan",
    "SubRegionCode": "FATR",
    "VenueAddress": "National Highway 11, Near to Gahlot Motors, Fatehpur(Rajasthan), Rajasthan 332301, India",
    "VenueCode": "JRGF",
    "VenueName": "JRG Movie Palace: Fatehpur"
  },
  "JTBP": {
    "AvailableFormats": "2D",
    "City": "Warangal",
    "Latitude": "18.000055",
    "Longitude": "79.588167",
    "RegionCode": "WAR",
    "State": "Telangana",
    "SubRegionCode": "WAR",
    "VenueAddress": "Hyderabad-Warangal-Bhopalpatnam Road, Rahamatnagar, Main Road, Warangal, Telangana 506003, India",
    "VenueCode": "JTBP",
    "VenueName": "Bhavani Picture Palace: Kazipet"
  },
  "JTLC": {
    "AvailableFormats": "2D",
    "City": "Chodavaram",
    "Latitude": "17.8299",
    "Longitude": "82.9374",
    "RegionCode": "CDVM",
    "State": "Andhra Pradesh",
    "SubRegionCode": "CDVM",
    "VenueAddress": "Gunisetti Vari Veedhi, Near Vinayak Temple Nowdu Veedhi, Chodavaram, Andhra Pradesh 531036, India",
    "VenueCode": "JTLC",
    "VenueName": "Lakshmi Theatre: Chodavaram"
  },
  "JTNP": {
    "AvailableFormats": "2D",
    "City": "Narsampet",
    "Latitude": "17.9291",
    "Longitude": "79.8887",
    "RegionCode": "NASP",
    "State": "Telangana",
    "SubRegionCode": "NASP",
    "VenueAddress": "Narsampet Main Road, Opposite State Bank Of India, Near Mee Seva Center, Narsampet, Telangana 506132, India",
    "VenueCode": "JTNP",
    "VenueName": "Jayasri Talkies: Narsampet"
  },
  "JTSB": {
    "AvailableFormats": "2D",
    "City": "Sathupally",
    "Latitude": "17.2113",
    "Longitude": "80.8334",
    "RegionCode": "SATH",
    "State": "Telangana",
    "SubRegionCode": "SATH",
    "VenueAddress": "Sathupally Main Road, Near State Bank of India, Sathupally, Telangana 507303, India",
    "VenueCode": "JTSB",
    "VenueName": "Sri Balaji Theater A/C Dts: Sathupally"
  },
  "JTTS": {
    "AvailableFormats": "2D",
    "City": "Sangareddy",
    "Latitude": "17.6148",
    "Longitude": "78.0788",
    "RegionCode": "SARE",
    "State": "Telangana",
    "SubRegionCode": "SARE",
    "VenueAddress": "2, Rajampet Road, Veerabhadranagar, Ahmed Nagar, Near Income Tax Office, Sangareddy, Telangana 502001, India",
    "VenueCode": "JTTS",
    "VenueName": "Rukmini Theatre: Sangareddy"
  },
  "JVTB": {
    "AvailableFormats": "2D",
    "City": "Bodinayakanur",
    "Latitude": "10.01",
    "Longitude": "77.3497",
    "RegionCode": "BODI",
    "State": "Tamil Nadu",
    "SubRegionCode": "BODI",
    "VenueAddress": "Ammankulam, Subanchetty Street, Near Pandyan Grama Bank, Bodinayakanur, Tamil Nadu 625513, India",
    "VenueCode": "JVTB",
    "VenueName": "Theatre Jivan: Bodi"
  },
  "KACI": {
    "AvailableFormats": "2D",
    "City": "Balurghat",
    "Latitude": "25.2256",
    "Longitude": "88.7754",
    "RegionCode": "BALU",
    "State": "West Bengal",
    "SubRegionCode": "BALU",
    "VenueAddress": "Chakbhabani, Near Head Post Office, Balurghat, West Bengal 733101, India",
    "VenueCode": "KACI",
    "VenueName": "Kalyani Balurghat(LaserProjector,5.1Digital Sound)"
  },
  "KASR": {
    "AvailableFormats": "2D",
    "City": "Sarni",
    "Latitude": "22.1044",
    "Longitude": "78.1665",
    "RegionCode": "SARN",
    "State": "Madhya Pradesh",
    "SubRegionCode": "SARN",
    "VenueAddress": "Near Nagar Palika, Sarni, Near Sami Bus Stand, Sarni, Madhya Pradesh 460447, India",
    "VenueCode": "KASR",
    "VenueName": "Kantishiva Cinemas: Sarni"
  },
  "KCAM": {
    "AvailableFormats": "",
    "City": "Nakodar",
    "FirstTracked": "2026-07-14",
    "Latitude": "31.119658",
    "Longitude": "75.509544",
    "RegionCode": "NAKO",
    "State": "Punjab",
    "SubRegionCode": "NAKO",
    "VenueAddress": "MDR48, Krishan Nagar, Nakodar - Nurmahal Road, Nakodar, Punjab 144040, India",
    "VenueCode": "KCAM",
    "VenueName": "KC Cineplex: Nakodar"
  },
  "KCMA": {
    "AvailableFormats": "2D|3D",
    "City": "Mumbai",
    "Latitude": "19.1879",
    "Longitude": "72.8475",
    "RegionCode": "MUMBAI",
    "State": "Maharashtra",
    "SubRegionCode": "MWEST",
    "VenueAddress": "Above Vasant Plaza Shopping Centre, Station Road, Opposite Natraj Market, Malad West, Mumbai, Maharashtra 400064, India",
    "VenueCode": "KCMA",
    "VenueName": "Kasturba Cinema (Newly Renovated): Malad"
  },
  "KCSR": {
    "AvailableFormats": "2D",
    "City": "Shrirampur",
    "Latitude": "19.6165",
    "Longitude": "74.6566",
    "RegionCode": "SHUR",
    "State": "Maharashtra",
    "SubRegionCode": "SHUR",
    "VenueAddress": "Kishor Cineplex, Shivaji Road, Shrirampur, Maharashtra 413709, India",
    "VenueCode": "KCSR",
    "VenueName": "Kishor Cineplex: Shrirampur"
  },
  "KDDF": {
    "AvailableFormats": "",
    "City": "Farrukhabad",
    "FirstTracked": "2026-07-14",
    "Latitude": "27.38537",
    "Longitude": "79.57575",
    "RegionCode": "FARU",
    "State": "Uttar Pradesh",
    "SubRegionCode": "FARU",
    "VenueAddress": "Rajeev Gandhi Nagar Road, Opposite to Entrance of Colony, Devrampur, Farrukhabad, Uttar Pradesh 209625, India",
    "VenueCode": "KDDF",
    "VenueName": "Krishna DD Cinema: Farrukhabad"
  },
  "KICM": {
    "AvailableFormats": "",
    "City": "Vizag",
    "FirstTracked": "2026-07-14",
    "Latitude": "17.73531",
    "Longitude": "83.31751",
    "RegionCode": "SABB",
    "State": "Andhra Pradesh",
    "SubRegionCode": "SABB",
    "VenueAddress": "D.No. 53-23-23, Beside Maddilapalem Bus Depot, Visakhapatnam, Vizag, Andhra Pradesh 530013, India",
    "VenueCode": "KICM",
    "VenueName": "Kinnera AC Laser 4K Projection 7.1Ultrasound:Vizag"
  },
  "KKMT": {
    "AvailableFormats": "2D",
    "City": "Navi Mumbai",
    "Latitude": "19.0124",
    "Longitude": "73.0897",
    "RegionCode": "MUMBAI",
    "State": "Maharashtra",
    "SubRegionCode": "THAN",
    "VenueAddress": "Shop No.01, Bhoomi Harmony, Plot No. 82, Sec-18, Kamothe, Panvel, Navi Mumbai, Maharashtra 410209, India",
    "VenueCode": "KKMT",
    "VenueName": "K.K. Cinema: Kamothe"
  },
  "KLRT": {
    "AvailableFormats": "2D",
    "City": "Palakkad",
    "Latitude": "10.7001",
    "Longitude": "76.7378",
    "RegionCode": "PLKK",
    "State": "Kerala",
    "SubRegionCode": "PLKK",
    "VenueAddress": "State Highway 25, Anikode, Chittur, Thathamangalam, Near Muthoottu Mini Financiers Ltd, Palakkad, Kerala 678101, India",
    "VenueCode": "KLRT",
    "VenueName": "Kairali Sree Theatre: Chittur"
  },
  "KMRM": {
    "AvailableFormats": "2D",
    "City": "Chennai",
    "Latitude": "12.9718",
    "Longitude": "80.1922",
    "RegionCode": "CHEN",
    "State": "Tamil Nadu",
    "SubRegionCode": "CHEN",
    "VenueAddress": "No 364, Mount - Madipakkam Road, Ullagaram, Puzhuthivakkam, Opposite to Muthoot Finance, Chennai, Tamil Nadu 600091, India",
    "VenueCode": "KMRM",
    "VenueName": "Kumaran Theatre PROVA 4K DOLBY ATMOS: Madipakkam"
  },
  "KPPB": {
    "AvailableFormats": "2D",
    "City": "Bahraich",
    "Latitude": "27.5715",
    "Longitude": "81.6027",
    "RegionCode": "BHRH",
    "State": "Uttar Pradesh",
    "SubRegionCode": "BHRH",
    "VenueAddress": "Kanoon Go Pura South, Brahmnipura, Near Disha Complex, Bahraich, Uttar Pradesh 271801, India",
    "VenueCode": "KPPB",
    "VenueName": "K Cinemas: Bahraich"
  },
  "KRIH": {
    "AvailableFormats": "2D",
    "City": "Rajnandgaon",
    "Latitude": "21.0942",
    "Longitude": "81.034",
    "RegionCode": "RAJA",
    "State": "Chhattisgarh",
    "SubRegionCode": "RAJA",
    "VenueAddress": "Cinema Lane, Near Manav Mandir Chowk, Rajnandgaon, Chhattisgarh 491441, India",
    "VenueCode": "KRIH",
    "VenueName": "Krishna Talkies: Rajnandgaon"
  },
  "KRVM": {
    "AvailableFormats": "2D",
    "City": "Kottayi",
    "Latitude": "10.7651",
    "Longitude": "76.5441",
    "RegionCode": "PLKK",
    "State": "Kerala",
    "SubRegionCode": "PLKK",
    "VenueAddress": "Mankara-Palakkad Road, Ayyappankaavu, Kottayi, Kerala 678572, India",
    "VenueCode": "KRVM",
    "VenueName": "KRV Movies: Kottayi"
  },
  "KSNT": {
    "AvailableFormats": "2D",
    "City": "Trivandrum",
    "Latitude": "8.48888",
    "Longitude": "76.9532",
    "RegionCode": "TRIV",
    "State": "Kerala",
    "SubRegionCode": "TRIV",
    "VenueAddress": "Aristo Junction, Thampanoor, Near Hotel Galaxy Park, Trivandrum, Kerala 695014, India",
    "VenueCode": "KSNT",
    "VenueName": "Kairali Sree Nila RGB Laser 4K Dolby Atmos"
  },
  "KTBH": {
    "AvailableFormats": "2D",
    "City": "Bhubaneswar",
    "Latitude": "20.2752",
    "Longitude": "85.8349",
    "RegionCode": "JATN",
    "State": "Odisha",
    "SubRegionCode": "JATN",
    "VenueAddress": "98, Unit-3, Sachivalaya Marg, OPTCL Colony, Anand Bazar, Kharbela Nagar, Bhubaneswar, Odisha 751001, India",
    "VenueCode": "KTBH",
    "VenueName": "Keshari Talkies (BARCO 4K LASER DOLBY ATMOS)"
  },
  "KTMV": {
    "AvailableFormats": "2D",
    "City": "Mumbai",
    "Latitude": "19.3785",
    "Longitude": "72.8287",
    "RegionCode": "MUMBAI",
    "State": "Maharashtra",
    "SubRegionCode": "MWEST",
    "VenueAddress": "Navghar Road, Anand Nagar, Opposite.West Panchal Nagar Walkway, Vasai West, Mumbai, Maharashtra 401202, India",
    "VenueCode": "KTMV",
    "VenueName": "KT Vision Cinema: Vasai (Screens)"
  },
  "KYBO": {
    "AvailableFormats": "",
    "City": "Bommidi",
    "FirstTracked": "2026-07-14",
    "Latitude": "11.979077",
    "Longitude": "78.251305",
    "RegionCode": "BOMM",
    "State": "Tamil Nadu",
    "SubRegionCode": "BOMM",
    "VenueAddress": "Bommudi Pappiredipatti Road, Near Raja Hospital, Bommidi, Tamil Nadu 635301, India",
    "VenueCode": "KYBO",
    "VenueName": "Kavitha Theatre: Bommidi"
  },
  "LALC": {
    "AvailableFormats": "2D",
    "City": "Jagraon",
    "Latitude": "30.8111",
    "Longitude": "75.4725",
    "RegionCode": "JGRO",
    "State": "Punjab",
    "SubRegionCode": "JGRO",
    "VenueAddress": "Moga Road, Kothe Fateh Din De, Jagraon, Punjab 142026, India",
    "VenueCode": "LALC",
    "VenueName": "Lal Palace Cineplex: Jagraon"
  },
  "LCBK": {
    "AvailableFormats": "2D",
    "City": "Kolkata",
    "Latitude": "22.7273",
    "Longitude": "88.48",
    "RegionCode": "BSRT",
    "State": "West Bengal",
    "SubRegionCode": "BSRT",
    "VenueAddress": "Krishnanagar Road, Norpara Halabot Tala, Barasat, Opposite Union Bank Of India Barasat Branch, Kolkata, West Bengal 700125, India",
    "VenueCode": "LCBK",
    "VenueName": "Lali Cinema: Barasat"
  },
  "LCSO": {
    "AvailableFormats": "2D",
    "City": "Ottapalam",
    "Latitude": "10.7734",
    "Longitude": "76.4259",
    "RegionCode": "PLKK",
    "State": "Kerala",
    "SubRegionCode": "PLKK",
    "VenueAddress": "Ponnani Road, Lakkidi Koottupatha, Ottapalam, Kerala 679301, India",
    "VenueCode": "LCSO",
    "VenueName": "Ladder Cinemas: Ottapalam - 4k Dolby Atmos/2k 7.1"
  },
  "LICL": {
    "AvailableFormats": "2D",
    "City": "Kolkata",
    "Latitude": "22.3431",
    "Longitude": "88.4554",
    "RegionCode": "KOLK",
    "State": "West Bengal",
    "SubRegionCode": "KOLK",
    "VenueAddress": "Baruipur - Champahati - Ghatakpukur Road, Phooltala Gate No.2, West Road South Par, Santoshpur, Baruipur - Canning Road, Kolkata, West Bengal 743387, India",
    "VenueCode": "LICL",
    "VenueName": "Lila Cinema: Baruipur"
  },
  "LKRT": {
    "AvailableFormats": "2D",
    "City": "Korutla",
    "Latitude": "18.8266",
    "Longitude": "78.7124",
    "RegionCode": "KCKA",
    "State": "Telangana",
    "SubRegionCode": "KCKA",
    "VenueAddress": "Indira Road, Raheempura, Korutla, Telangana 505326, India",
    "VenueCode": "LKRT",
    "VenueName": "Laxmi AC Deluxe Theatre: Korutla"
  },
  "LMCK": {
    "AvailableFormats": "2D",
    "City": "Kodungallur",
    "Latitude": "10.221",
    "Longitude": "76.2011",
    "RegionCode": "KODU",
    "State": "Kerala",
    "SubRegionCode": "KODU",
    "VenueAddress": "National Highway 66, Padakulam, Sringapuram, Kodungallur, Kerala 680664, India",
    "VenueCode": "LMCK",
    "VenueName": "LAKSHMI CINEMAS 4K LASER DOLBY ATMOS: KODUNGALLUR"
  },
  "LRCM": {
    "AvailableFormats": "2D",
    "City": "Manjeri",
    "Latitude": "11.1204",
    "Longitude": "76.1159",
    "RegionCode": "MAJR",
    "State": "Kerala",
    "SubRegionCode": "MAJR",
    "VenueAddress": "Indian Mall Road, Karuvambram, Manjeri, Kerala 676121, India",
    "VenueCode": "LRCM",
    "VenueName": "Ladder Cinemas: Manjeri"
  },
  "LTVB": {
    "AvailableFormats": "2D",
    "City": "Vijayapura (Bijapur)",
    "Latitude": "16.8284",
    "Longitude": "75.7165",
    "RegionCode": "VJPR",
    "State": "Karnataka",
    "SubRegionCode": "VJPR",
    "VenueAddress": "Godbole Mala, M. G. Road, Near Gandhi Chowk Police Station, Opposite Axis Bank, Vijayapura (Bijapur), Karnataka 586101, India",
    "VenueCode": "LTVB",
    "VenueName": "Sri Lakshmi Theatre: Vijayapura (Bijapur)"
  },
  "M2PP": {
    "AvailableFormats": "2D",
    "City": "Delhi",
    "Latitude": "28.6895",
    "Longitude": "77.1334",
    "RegionCode": "NCR",
    "State": "NCR",
    "SubRegionCode": "DELHI",
    "VenueAddress": "4 Community Centre, Road No. 44, Opposite Punjab National Bank, Delhi, NCR 110088, India",
    "VenueCode": "M2PP",
    "VenueName": "M2K: Pitampura"
  },
  "MACE": {
    "AvailableFormats": "3D|2D",
    "City": "Mumbai",
    "Latitude": "19.1655",
    "Longitude": "72.8512",
    "RegionCode": "MUMBAI",
    "State": "Maharashtra",
    "SubRegionCode": "MWEST",
    "VenueAddress": "Station Road, Goregaon East, Near Railway Station, Peru Baug, Jay Prakash Nagar, Mumbai, Maharashtra 400063, India",
    "VenueCode": "MACE",
    "VenueName": "Miraj Anupam Cinemas: Goregaon (E)"
  },
  "MAGX": {
    "AvailableFormats": "7D",
    "City": "Ghaziabad",
    "Latitude": "28.634",
    "Longitude": "77.3703",
    "RegionCode": "NCR",
    "State": "NCR",
    "SubRegionCode": "GHAZ",
    "VenueAddress": "2nd Floor, Shipra Mall, Plot No. 9, Vaibhav Land, Inirapuram, Ghaziabad, NCR 201014, India",
    "VenueCode": "MAGX",
    "VenueName": "7D Masti: Shipra Mall, Ghaziabad"
  },
  "MALO": {
    "AvailableFormats": "",
    "City": "Ludhiana",
    "FirstTracked": "2026-07-14",
    "Latitude": "30.885687",
    "Longitude": "75.788345",
    "RegionCode": "LUDH",
    "State": "Punjab",
    "SubRegionCode": "LUDH",
    "VenueAddress": "Second Floor,34 to 57, Wave Mall, Plot No. 2 and 3, Firozpur Road, Ludhiana, Punjab 141012, India",
    "VenueCode": "MALO",
    "VenueName": "7D Masti: Wave Mall, Ludhiana"
  },
  "MATE": {
    "AvailableFormats": "2D",
    "City": "Kallakurichi",
    "Latitude": "11.735",
    "Longitude": "78.9649",
    "RegionCode": "KALL",
    "State": "Tamil Nadu",
    "SubRegionCode": "KALL",
    "VenueAddress": "17J,Chidambaram Pillai St, Raja Nagar,Kallakurichi, Near Hotel SR Park, Kallakurichi, Tamil Nadu 606202, India",
    "VenueCode": "MATE",
    "VenueName": "Mahalakshmi Cinemas Dolby Atmos 4K Barco RGB Laser"
  },
  "MAYU": {
    "AvailableFormats": "",
    "City": "Kota",
    "FirstTracked": "2026-07-14",
    "Latitude": "25.191599",
    "Longitude": "75.850395",
    "RegionCode": "KOTA",
    "State": "Rajasthan",
    "SubRegionCode": "KOTA",
    "VenueAddress": "MDR7, Chatra Vilas Garden, Nayapura Circle, Nayapura, Kota, Rajasthan 324001, India",
    "VenueCode": "MAYU",
    "VenueName": "Mayur Cinema: Kota"
  },
  "MBSX": {
    "AvailableFormats": "",
    "City": "Ahmedabad",
    "Latitude": "22.9575",
    "Longitude": "72.6555",
    "RegionCode": "AHD",
    "State": "Gujarat",
    "SubRegionCode": "AHD",
    "VenueAddress": "5th Floor, C Block Shalin Square, SP Ring Road Vinzol, Hathijan Circle, Opposite Viva Farm, Ahmedabad, Gujarat 382445, India",
    "VenueCode": "MBSX",
    "VenueName": "Miraj Cinemas: Shalin Square, Hathijan"
  },
  "MCBS": {
    "AvailableFormats": "",
    "City": "Sikar",
    "FirstTracked": "2026-07-14",
    "Latitude": "27.600943",
    "Longitude": "75.14577",
    "RegionCode": "SIKR",
    "State": "Rajasthan",
    "SubRegionCode": "SIKR",
    "VenueAddress": "Rajasthan State Highway 8A, Dhodh, Rani Sati Road, Mahaveer Rodi Factory, Sikar, Rajasthan 332001, India",
    "VenueCode": "MCBS",
    "VenueName": "Miraj Bioscope Cinemas: Sikar"
  },
  "MCDV": {
    "AvailableFormats": "2D",
    "City": "Vizag (Visakhapatnam)",
    "Latitude": "17.6853",
    "Longitude": "83.2087",
    "RegionCode": "VIZA",
    "State": "Andhra Pradesh",
    "SubRegionCode": "VIZA",
    "VenueAddress": "Indira Colony, Gajuwaka, Near Alif Family Restaurant, Vizag (Visakhapatnam), Andhra Pradesh 500026, India",
    "VenueCode": "MCDV",
    "VenueName": "Mohini Cinemas Dolby Atmos: Gajuwaka"
  },
  "MCGR": {
    "AvailableFormats": "",
    "City": "Gurdaspur",
    "FirstTracked": "2026-07-14",
    "Latitude": "32.037926",
    "Longitude": "75.4062",
    "RegionCode": "GSPR",
    "State": "Punjab",
    "SubRegionCode": "GSPR",
    "VenueAddress": "AGM Mall, Tibri Road, Hanuman Chownk, Gurdaspur, Punjab 143521, India",
    "VenueCode": "MCGR",
    "VenueName": "Miraj Cinema: Gurdaspur"
  },
  "MCIX": {
    "AvailableFormats": "",
    "City": "Greater Noida",
    "FirstTracked": "2026-07-14",
    "Latitude": "28.4574",
    "Longitude": "77.4993",
    "RegionCode": "NCR",
    "State": "NCR",
    "SubRegionCode": "GRET",
    "VenueAddress": "Plot No. C-03, 04, Knowledge Park -II, Greater Noida, Greater Noida, NCR 201310, India",
    "VenueCode": "MCIX",
    "VenueName": "Miraj Cinemas: India Expo Plaza (Newly Opened)"
  },
  "MCMC": {
    "AvailableFormats": "2D",
    "City": "Singrauli",
    "Latitude": "24.0651",
    "Longitude": "82.6302",
    "RegionCode": "SNGR",
    "State": "Madhya Pradesh",
    "SubRegionCode": "SNGR",
    "VenueAddress": "Near Masjid Square, Talkies Road, Waidhan, Singrauli, Madhya Pradesh 486886, India",
    "VenueCode": "MCMC",
    "VenueName": "MCM Cineplex: Waidhan"
  },
  "MCPB": {
    "AvailableFormats": "2D|3D",
    "City": "Behror",
    "Latitude": "27.8948",
    "Longitude": "76.2976",
    "RegionCode": "BEHR",
    "State": "Rajasthan",
    "SubRegionCode": "BEHR",
    "VenueAddress": "Parv Plaza, 5th Floor, A-15 B1, Phase 1, Riico Industrial Area, Behror, Rajasthan 301701, India",
    "VenueCode": "MCPB",
    "VenueName": "Mukta A2 Cinemas: Parv Plaza, Behror"
  },
  "MCSK": {
    "AvailableFormats": "",
    "City": "Chennai",
    "Latitude": "12.9059",
    "Longitude": "80.2092",
    "RegionCode": "CHEN",
    "State": "Tamil Nadu",
    "SubRegionCode": "CHEN",
    "VenueAddress": "Sekaran Mall, 4th and 5th Floor, Survey No.452(3), Village Perumbakkam, Taluk Sholinganallur, Kancheepuram, Chennai, Tamil Nadu 600100, India",
    "VenueCode": "MCSK",
    "VenueName": "Miraj Cinemas: Sekaran Mall, Perrumbakkam"
  },
  "MCTG": {
    "AvailableFormats": "3D|2D",
    "City": "Mumbai",
    "Latitude": "19.1655",
    "Longitude": "72.8429",
    "RegionCode": "MUMBAI",
    "State": "Maharashtra",
    "SubRegionCode": "MWEST",
    "VenueAddress": "2nd Floor, Topiwala Center, Topiwala Lane, Near Goregaon Station (West), Mumbai, Maharashtra 400062, India",
    "VenueCode": "MCTG",
    "VenueName": "Topiwala Mukta A2 Cinemas, Goregaon"
  },
  "MDCA": {
    "AvailableFormats": "",
    "City": "Anjar",
    "FirstTracked": "2026-07-14",
    "Latitude": "23.101",
    "Longitude": "70.0353",
    "RegionCode": "ANJR",
    "State": "Gujarat",
    "SubRegionCode": "ANJR",
    "VenueAddress": "Chitrakut Circle, Vaishali Enclave, Anjar, Gujarat 370110, India",
    "VenueCode": "MDCA",
    "VenueName": "Modern Cineplex: Anjar"
  },
  "MDVA": {
    "AvailableFormats": "2D|3D",
    "City": "Mumbai",
    "Latitude": "19.3605",
    "Longitude": "72.8123",
    "RegionCode": "MUMBAI",
    "State": "Maharashtra",
    "SubRegionCode": "MWEST",
    "VenueAddress": "3rd Floor Dattani Square Mall, Stella Road, Vasai Road West, Near Papdy Talao And D Mart, Mumbai, Maharashtra 401202, India",
    "VenueCode": "MDVA",
    "VenueName": "Miraj Dattani Cinemas: Vasai"
  },
  "MEMR": {
    "AvailableFormats": "2D",
    "City": "Muzaffarnagar",
    "Latitude": "29.4865",
    "Longitude": "77.6966",
    "RegionCode": "MUZ",
    "State": "Uttar Pradesh",
    "SubRegionCode": "MUZ",
    "VenueAddress": "498, Opp Saharanpur Bus Stand, GT Road, Rampuri, Roorkee Road, Near Bajaj Agency, Muzaffarnagar, Uttar Pradesh 251001, India",
    "VenueCode": "MEMR",
    "VenueName": "Maya Multiplex: Muzaffarnagar"
  },
  "MGMD": {
    "AvailableFormats": "",
    "City": "Dhuri",
    "FirstTracked": "2026-07-14",
    "Latitude": "30.364855",
    "Longitude": "75.859245",
    "RegionCode": "DHRI",
    "State": "Punjab",
    "SubRegionCode": "DHRI",
    "VenueAddress": "Sangrur Road, Ward No 15B, Near Civil Hospital, Dhuri, Punjab 148024, India",
    "VenueCode": "MGMD",
    "VenueName": "Miraj Cinemas: Dhuri"
  },
  "MIDA": {
    "AvailableFormats": "7D",
    "City": "Greater Noida",
    "Latitude": "28.4529",
    "Longitude": "77.526",
    "RegionCode": "NCR",
    "State": "NCR",
    "SubRegionCode": "GRET",
    "VenueAddress": "Grand Venice Mall, 2nd Floor, SH 3, Site IV, Greater Noida, NCR 201308, India",
    "VenueCode": "MIDA",
    "VenueName": "7D Masti: The Grand Venice Mall, Greater Noida"
  },
  "MITD": {
    "AvailableFormats": "2D|3D",
    "City": "Nathdwara",
    "Latitude": "24.9166",
    "Longitude": "73.8238",
    "RegionCode": "NATW",
    "State": "Rajasthan",
    "SubRegionCode": "NATW",
    "VenueAddress": "5th Floor, Miraj Meridian Mall, Nathuwas Road, NH 8, Near Vallabh Ashram, Nathdwara, Rajasthan 313301, India",
    "VenueCode": "MITD",
    "VenueName": "Miraj Cinemas: Nathdwara"
  },
  "MKBG": {
    "AvailableFormats": "2D",
    "City": "Bengaluru",
    "Latitude": "13.0036",
    "Longitude": "77.6362",
    "RegionCode": "HOKT",
    "State": "Karnataka",
    "SubRegionCode": "HOKT",
    "VenueAddress": "No.30, Banaswadi Main Road, Marutiseva Nagar, Bengaluru, Karnataka 560033, India",
    "VenueCode": "MKBG",
    "VenueName": "Mukunda 4K Dolby Atmos: M.S.Nagar"
  },
  "MKSM": {
    "AvailableFormats": "2D|3D",
    "City": "Rajahmundry",
    "Latitude": "16.9508",
    "Longitude": "81.7829",
    "RegionCode": "RJMU",
    "State": "Andhra Pradesh",
    "SubRegionCode": "RJMU",
    "VenueAddress": "SH 41, VGTPS Colony, Near Dowlaiswaram Bus Stand, Rajahmundry, Andhra Pradesh 533125, India",
    "VenueCode": "MKSM",
    "VenueName": "Muralikrishna Cinema A/C 4K 3D: Dowlaiswaram"
  },
  "MMAA": {
    "AvailableFormats": "2D",
    "City": "Mumbai",
    "Latitude": "19.1165",
    "Longitude": "72.8565",
    "RegionCode": "MUMBAI",
    "State": "Maharashtra",
    "SubRegionCode": "MWEST",
    "VenueAddress": "MovieMax, Andheri-Kurla Road, Andheri(E), Behind Gurunanak Petrol Pump, Mumbai, Maharashtra 400059, India",
    "VenueCode": "MMAA",
    "VenueName": "MovieMax: Andheri (E)"
  },
  "MMEF": {
    "AvailableFormats": "2D",
    "City": "Jamnagar",
    "Latitude": "22.462",
    "Longitude": "70.0369",
    "RegionCode": "JAM",
    "State": "Gujarat",
    "SubRegionCode": "JAM",
    "VenueAddress": "15, Street No.4, Shivam Park, Ajanta Society, Near - Hotel Vishal International, Jamnagar, Gujarat 361006, India",
    "VenueCode": "MMEF",
    "VenueName": "Mehul Cinemax: Jamnagar"
  },
  "MMMD": {
    "AvailableFormats": "2D",
    "City": "Etawah",
    "Latitude": "26.7847",
    "Longitude": "79.0212",
    "RegionCode": "ETWH",
    "State": "Uttar Pradesh",
    "SubRegionCode": "ETWH",
    "VenueAddress": "Baba The Mall, Shastri Chauraha, Chogurjee Nagar, Near Hydel Colony, Etawah, Uttar Pradesh 206001, India",
    "VenueCode": "MMMD",
    "VenueName": "Mad Moviez: Etawah"
  },
  "MMSG": {
    "AvailableFormats": "3D|2D",
    "City": "Lucknow",
    "Latitude": "26.8194",
    "Longitude": "80.9072",
    "RegionCode": "LUCK",
    "State": "Uttar Pradesh",
    "SubRegionCode": "LUCK",
    "VenueAddress": "Shalimar Gateway Mall, Bus Stand, Alambagh, Near Alambagh, Railway Colony, Lucknow, Uttar Pradesh 226005, India",
    "VenueCode": "MMSG",
    "VenueName": "MovieMax: Shalimar Gateway"
  },
  "MMXA": {
    "AvailableFormats": "3D|2D",
    "City": "Pune",
    "Latitude": "18.5189",
    "Longitude": "73.9357",
    "RegionCode": "PUNE",
    "State": "Maharashtra",
    "SubRegionCode": "PUNE",
    "VenueAddress": "MovieMax, Amanora Town Centre, Amanora Park Town, Hadapsar, Pune, Maharashtra 411028, India",
    "VenueCode": "MMXA",
    "VenueName": "MovieMax Edition (Luxe): Amanora Town Center, Pune"
  },
  "MNJL": {
    "AvailableFormats": "",
    "City": "Ludhiana",
    "FirstTracked": "2026-07-14",
    "Latitude": "30.8963",
    "Longitude": "75.8665",
    "RegionCode": "LUDH",
    "State": "Punjab",
    "SubRegionCode": "LUDH",
    "VenueAddress": "Dholewal Chowk, G.T. Road, Ludhiana, Punjab 141001, India",
    "VenueCode": "MNJL",
    "VenueName": "Manju Theatre: Ludhiana"
  },
  "MPCH": {
    "AvailableFormats": "2D",
    "City": "Ahmedabad",
    "Latitude": "23.0638",
    "Longitude": "72.6775",
    "RegionCode": "AHD",
    "State": "Gujarat",
    "SubRegionCode": "AHD",
    "VenueAddress": "5th and 6th Floor, Fortune Sky, Fortune Circle, Nikol, Near - Goverdhan Galaxy Bungalows, Ahmedabad, Gujarat 382350, India",
    "VenueCode": "MPCH",
    "VenueName": "Mango Plus Cinemas: Nikol"
  },
  "MRCH": {
    "AvailableFormats": "2D",
    "City": "Haridwar",
    "Latitude": "29.9188",
    "Longitude": "78.0578",
    "RegionCode": "HRDR",
    "State": "Uttarakhand",
    "SubRegionCode": "HRDR",
    "VenueAddress": "3rd Floor, Raghunath City Mall, Bahadrabad, Haridwar, Uttarakhand 249402, India",
    "VenueCode": "MRCH",
    "VenueName": "Movietime Cinemas: Raghunath City Mall, Haridwar"
  },
  "MRRC": {
    "AvailableFormats": "",
    "City": "Raichur",
    "FirstTracked": "2026-07-14",
    "Latitude": "16.211191",
    "Longitude": "77.35692",
    "RegionCode": "RAUR",
    "State": "Karnataka",
    "SubRegionCode": "RAUR",
    "VenueAddress": "Miraj Cinemas, MPL No. 12-104 and 12-10-5, Situated at Siya Talab, Gunj Road, Raichur, Karnataka 584102, India",
    "VenueCode": "MRRC",
    "VenueName": "Miraj Cinemas: Raichur"
  },
  "MSCJ": {
    "AvailableFormats": "2D",
    "City": "Jajpur Town (Odisha)",
    "Latitude": "20.853",
    "Longitude": "86.3293",
    "RegionCode": "JTTT",
    "State": "Odisha",
    "SubRegionCode": "JTTT",
    "VenueAddress": "Gandhi chhak, Sanskruti Bhawan, Jajpur Town (Odisha), Odisha 755001, India",
    "VenueCode": "MSCJ",
    "VenueName": "Mission Shakti Cinemas: Jajpur Town"
  },
  "MSNL": {
    "AvailableFormats": "2D",
    "City": "Lucknow",
    "Latitude": "26.8819",
    "Longitude": "80.9466",
    "RegionCode": "LUCK",
    "State": "Uttar Pradesh",
    "SubRegionCode": "LUCK",
    "VenueAddress": "Kapoorthalla Commercial Complex, 4, Aliganj, Behind Sahara Towers, Lucknow, Uttar Pradesh 226020, India",
    "VenueCode": "MSNL",
    "VenueName": "Novelty Dolby Atmos 4K: Aliganj"
  },
  "MTCA": {
    "AvailableFormats": "2D|3D",
    "City": "Amritsar",
    "Latitude": "31.6444",
    "Longitude": "74.8771",
    "RegionCode": "AMRI",
    "State": "Punjab",
    "SubRegionCode": "AMRI",
    "VenueAddress": "4th Floor, Omaxe Novelty Mall, 7, Lawrence Road, Joshi Colony, Amritsar, Punjab 143001, India",
    "VenueCode": "MTCA",
    "VenueName": "Movietime Cinemas: Omaxe Novelty Mall, Amritsar"
  },
  "MTHY": {
    "AvailableFormats": "2D",
    "City": "Hyderabad",
    "Latitude": "17.452",
    "Longitude": "78.3628",
    "RegionCode": "HYD",
    "State": "Telangana",
    "SubRegionCode": "HYD",
    "VenueAddress": "3rd Floor, SLN Terminus, Gachibowli - Miyapur Road, Jayabheri Enclave, Hyderabad, Telangana 500032, India",
    "VenueCode": "MTHY",
    "VenueName": "Platinum Movietime Cinema: Gachibowli SLN Terminus"
  },
  "MTMT": {
    "AvailableFormats": "",
    "City": "Madurai",
    "FirstTracked": "2026-07-14",
    "Latitude": "10.0232",
    "Longitude": "77.9631",
    "RegionCode": "MADU",
    "State": "Tamil Nadu",
    "SubRegionCode": "MADU",
    "VenueAddress": "Sangankottai Road, Sholavandan, Near Railway Junction, Madurai, Tamil Nadu 625214, India",
    "VenueCode": "MTMT",
    "VenueName": "MVM MARUDHU MODERN THEATER A/C 2K 3D"
  },
  "MTVT": {
    "AvailableFormats": "2D",
    "City": "Theni",
    "Latitude": "10.0014",
    "Longitude": "77.6283",
    "RegionCode": "THEN",
    "State": "Tamil Nadu",
    "SubRegionCode": "THEN",
    "VenueAddress": "Theni Highway, Kondamanaickanpatty, Theni, Tamil Nadu 624225, India",
    "VenueCode": "MTVT",
    "VenueName": "MSP Theatre(VBL Theatre) A/C 7.1: Andipatti"
  },
  "MUTA": {
    "AvailableFormats": "2D",
    "City": "Azamgarh",
    "Latitude": "26.0749",
    "Longitude": "83.1866",
    "RegionCode": "AZMG",
    "State": "Uttar Pradesh",
    "SubRegionCode": "AZMG",
    "VenueAddress": "City Life Mall, Paharpur, Azamgarh Dohrighat Gorakhpur Road, Near Bhairo Baba Mandir Maharajgang, Azamgarh, Uttar Pradesh 276001, India",
    "VenueCode": "MUTA",
    "VenueName": "Murli DD Cinemas: Azmagarh"
  },
  "MXBN": {
    "AvailableFormats": "2D|3D",
    "City": "Bhavnagar",
    "Latitude": "21.7509",
    "Longitude": "72.1364",
    "RegionCode": "BHNG",
    "State": "Gujarat",
    "SubRegionCode": "BHNG",
    "VenueAddress": "Himalaya Mall, Waghawadi Rd, Nr ISKCON Mega City, Opp Victoria Park, Bhavnagar, Gujarat 364002, India",
    "VenueCode": "MXBN",
    "VenueName": "Maxus Cinemas: Bhavnagar"
  },
  "MYAN": {
    "AvailableFormats": "2D|3D",
    "City": "Ahilyanagar (Ahmednagar)",
    "Latitude": "19.1313",
    "Longitude": "74.7301",
    "RegionCode": "AHMED",
    "State": "Maharashtra",
    "SubRegionCode": "AHMED",
    "VenueAddress": "Pipeline Road, Savedi, Ahilyanagar (Ahmednagar), Maharashtra 414003, India",
    "VenueCode": "MYAN",
    "VenueName": "MY Cinema: Ahilya Nagar"
  },
  "MYHJ": {
    "AvailableFormats": "2D",
    "City": "Karunagapally",
    "Latitude": "9.04943",
    "Longitude": "76.5355",
    "RegionCode": "KARG",
    "State": "Kerala",
    "SubRegionCode": "KARG",
    "VenueAddress": "Level 3, H and J Complex Mall, Lalaji Junction, Kollam, Near Municipal Office, Karunagapally, Kerala 690518, India",
    "VenueCode": "MYHJ",
    "VenueName": "MY Cinemas, H&J Complex: Karunagapally"
  },
  "NAGJ": {
    "AvailableFormats": "2D",
    "City": "jaggampeta",
    "Latitude": "17.1755",
    "Longitude": "82.062",
    "RegionCode": "JAGG",
    "State": "Andhra Pradesh",
    "SubRegionCode": "JAGG",
    "VenueAddress": "East Godavari, Near SBI Atm, jaggampeta, Andhra Pradesh 533435, India",
    "VenueCode": "NAGJ",
    "VenueName": "Nageshwara A/c Dts: Jaggampeta"
  },
  "NCCK": {
    "AvailableFormats": "2D",
    "City": "Naharlagun",
    "Latitude": "27.1088",
    "Longitude": "93.696",
    "RegionCode": "NAHA",
    "State": "Arunachal Pradesh",
    "SubRegionCode": "NAHA",
    "VenueAddress": "NH 52A, Cona, Opposite Moody Monk, Naharlagun, Arunachal Pradesh 791110, India",
    "VenueCode": "NCCK",
    "VenueName": "A National Cinema: Market Area, Naharlagun"
  },
  "NCMB": {
    "AvailableFormats": "2D",
    "City": "Buchireddypalem",
    "Latitude": "14.5346",
    "Longitude": "79.8791",
    "RegionCode": "BCHR",
    "State": "Andhra Pradesh",
    "SubRegionCode": "BCHR",
    "VenueAddress": "Nellore Road, Nagamambapuram, Buchireddypalem, Andhra Pradesh 524305, India",
    "VenueCode": "NCMB",
    "VenueName": "Naaz Cinemas: Buchireddypalem"
  },
  "NECA": {
    "AvailableFormats": "2D",
    "City": "Kolkata",
    "Latitude": "22.5605",
    "Longitude": "88.3515",
    "RegionCode": "KOLK",
    "State": "West Bengal",
    "SubRegionCode": "KOLK",
    "VenueAddress": "1 and 2, Humayun Place, New Market Area, Dharmatala, Taltala, Kolkata, West Bengal 700087, India",
    "VenueCode": "NECA",
    "VenueName": "New Empire Cinema: Kolkata"
  },
  "NGHK": {
    "AvailableFormats": "",
    "City": "Kesinga",
    "FirstTracked": "2026-07-14",
    "Latitude": "20.19338",
    "Longitude": "83.22572",
    "RegionCode": "KEGA",
    "State": "Odisha",
    "SubRegionCode": "KEGA",
    "VenueAddress": "National Highway 201, Near Balangir Chowk, Kesinga, Odisha 766012, India",
    "VenueCode": "NGHK",
    "VenueName": "New Galaxy Theater: Kesinga"
  },
  "NLJR": {
    "AvailableFormats": "2D",
    "City": "Nallajerla",
    "Latitude": "16.9555",
    "Longitude": "81.4172",
    "RegionCode": "TADP",
    "State": "Andhra Pradesh",
    "SubRegionCode": "TADP",
    "VenueAddress": "Rajahmundry - Bhadrachalam Highway, Opp to Buchalupond, Nallajerla, Andhra Pradesh 534111, India",
    "VenueCode": "NLJR",
    "VenueName": "Sri Lakshmi Multiplex (Nova Cinemaz): Nallajerla"
  },