{
  "AACK": {
    "AvailableFormats": "",
    "City": "Kasdol",
    "FirstTracked": "2026-07-14",
    "Latitude": "21.621115",
    "Longitude": "82.424225",
    "RegionCode": "KASD",
    "State": "Chhattisgarh",
    "SubRegionCode": "KASD",
    "VenueAddress": "89/3,State Highway 14, Opposite Metro Studio, Kasdol, Chhattisgarh 493335, India",
    "VenueCode": "AACK",
    "VenueName": "Shri Balaji Cinema (Airconditioned): Kasdol"
  },
  "AAME": {
    "AvailableFormats": "2D",
    "City": "Deesa",
    "Latitude": "24.2421",
    "Longitude": "72.1826",
    "RegionCode": "DEES",
    "State": "Gujarat",
    "SubRegionCode": "DEES",
    "VenueAddress": "Multiplex Entertainment Complex, Patan Cross Road, Deesa, Gujarat 385535, India",
    "VenueCode": "AAME",
    "VenueName": "Shree Ram Multiplex: Deesa"
  },
  "AAVB": {
    "AvailableFormats": "2D",
    "City": "Vijayapura (Bijapur)",
    "Latitude": "16.8338",
    "Longitude": "75.7151",
    "RegionCode": "VJPR",
    "State": "Karnataka",
    "SubRegionCode": "VJPR",
    "VenueAddress": "Ram Mandir Road, Behind Sideshwara Gudi, Sholapur, Vijayapura (Bijapur), Karnataka 586101, India",
    "VenueCode": "AAVB",
    "VenueName": "Amir Talkies: Vijayapura (Bijapur)"
  },
  "ABMP": {
    "AvailableFormats": "2D",
    "City": "Ahmedabad",
    "Latitude": "23.025",
    "Longitude": "72.5295",
    "RegionCode": "AHD",
    "State": "Gujarat",
    "SubRegionCode": "AHD",
    "VenueAddress": "Sheetal Varsha 5, 512 A, Suryapooja Block B, Satellite Road, Ahmedabad, Gujarat 380013, India",
    "VenueCode": "ABMP",
    "VenueName": "AB Miniplex: Shivranjini Cross Road, Satellite"
  },
  "ACAT": {
    "AvailableFormats": "2D",
    "City": "Ashta",
    "Latitude": "23.021",
    "Longitude": "76.726",
    "RegionCode": "ASTA",
    "State": "Madhya Pradesh",
    "SubRegionCode": "ASTA",
    "VenueAddress": "Sai Colony, Ashta, Ashta, Madhya Pradesh 466116, India",
    "VenueCode": "ACAT",
    "VenueName": "Anshay Chitralay: Ashta"
  },
  "ACHI": {
    "AvailableFormats": "2D",
    "City": "Hyderabad",
    "Latitude": "17.4923",
    "Longitude": "78.452",
    "RegionCode": "HYD",
    "State": "Telangana",
    "SubRegionCode": "HYD",
    "VenueAddress": "Jeedimetla Main Road, Ganesh Nagar, Jeedimetla, Dee Nagar, Balanagar, Hyderabad, Telangana 500037, India",
    "VenueCode": "ACHI",
    "VenueName": "Asian Sha & Shahensha: Chintal"
  },
  "ACKB": {
    "AvailableFormats": "2D",
    "City": "Bengaluru",
    "Latitude": "12.977726",
    "Longitude": "77.575961",
    "RegionCode": "BANG",
    "State": "Karnataka",
    "SubRegionCode": "BANG",
    "VenueAddress": "No-300/1, S.C.Road, Gandhinagar, Next To Movieland Theatre, Bengaluru, Karnataka 560009, India",
    "VenueCode": "ACKB",
    "VenueName": "AMB Cinemas Kapali: Bengaluru"
  },
  "ACMR": {
    "AvailableFormats": "2D",
    "City": "Mattannur",
    "Latitude": "11.9289",
    "Longitude": "75.5724",
    "RegionCode": "MATT",
    "State": "Kerala",
    "SubRegionCode": "MATT",
    "VenueAddress": "Indira Nagar, Mattannur,Kerala, Near Links Mall, Mattannur, Kerala 670702, India",
    "VenueCode": "ACMR",
    "VenueName": "Aura Cinemas: Mattannur"
  },
  "ACPV": {
    "AvailableFormats": "",
    "City": "Piravom",
    "Latitude": "9.8722",
    "Longitude": "76.4866",
    "RegionCode": "KOCH",
    "State": "Kerala",
    "SubRegionCode": "KOCH",
    "VenueAddress": "Kaduthuruthy Road, Kochi, Piravom, Kerala 686664, India",
    "VenueCode": "ACPV",
    "VenueName": "Aashirvad Cineplexx: Piravom"
  },
  "ACVM": {
    "AvailableFormats": "2D",
    "City": "Chennai",
    "Latitude": "13.1047",
    "Longitude": "80.209",
    "RegionCode": "PONE",
    "State": "Tamil Nadu",
    "SubRegionCode": "PONE",
    "VenueAddress": "No. 1/1, Mettu Street Villivakkam, Behind, Villivakkam Bus Depot, Chennai, Tamil Nadu 600049, India",
    "VenueCode": "ACVM",
    "VenueName": "AGS Cinemas: Villivakkam"
  },
  "ADCR": {
    "AvailableFormats": "2D",
    "City": "Bengaluru",
    "Latitude": "13.0145",
    "Longitude": "77.516",
    "RegionCode": "HOKT",
    "State": "Karnataka",
    "SubRegionCode": "HOKT",
    "VenueAddress": "Bldg No 135/3, Rajeshwari Theatre Road, Laggere, Near Friends Circle, Bengaluru, Karnataka 560058, India",
    "VenueCode": "ADCR",
    "VenueName": "Akash Cinemas: Laggere"
  },
  "AECE": {
    "AvailableFormats": "",
    "City": "Alappuzha",
    "FirstTracked": "2026-07-14",
    "Latitude": "9.498583",
    "Longitude": "76.3431",
    "RegionCode": "ALPZ",
    "State": "Kerala",
    "SubRegionCode": "ALPZ",
    "VenueAddress": "AVJ Junction, Erezha, Mullakkal, Alappuzha, Kerala 688011, India",
    "VenueCode": "AECE",
    "VenueName": "AEC Cinemas: Alappuzha"
  },
  "AHMH": {
    "AvailableFormats": "",
    "City": "Hyderabad",
    "FirstTracked": "2026-07-14",
    "Latitude": "17.402218",
    "Longitude": "78.57199",
    "RegionCode": "AUSH",
    "State": "Telangana",
    "SubRegionCode": "AUSH",
    "VenueAddress": "Survey No. 99, Asian Cine Square Mall, Shanthi Nagar, Warangal Road, Besides Indian Oil Petrol Pump, Uppal, Hyderabad, Telangana 500039, India",
    "VenueCode": "AHMH",
    "VenueName": "Asian CineSquare Multiplex: Uppal"
  },
  "AKFC": {
    "AvailableFormats": "2D",
    "City": "Alakode",
    "Latitude": "12.1785",
    "Longitude": "75.4649",
    "RegionCode": "ALAK",
    "State": "Kerala",
    "SubRegionCode": "ALAK",
    "VenueAddress": "Kottayadu Kavala, Malabar Hill Highway, Near St.Marys Forane Church, Alakode, Kerala 670571, India",
    "VenueCode": "AKFC",
    "VenueName": "Alakode Film City 4K Dolby Atmos"
  },
  "ALAN": {
    "AvailableFormats": "",
    "City": "Gajendragarh",
    "FirstTracked": "2026-07-14",
    "Latitude": "15.735611",
    "Longitude": "75.96569",
    "RegionCode": "GJGH",
    "State": "Karnataka",
    "SubRegionCode": "GJGH",
    "VenueAddress": "SH 30, Near Shree Guru Sevalal Temple, Gajendragarh, Karnataka 582114, India",
    "VenueCode": "ALAN",
    "VenueName": "Alankar Theatre: Gajendragarh"
  },
  "ALUC": {
    "AvailableFormats": "2D",
    "City": "Hyderabad",
    "Latitude": "17.3896272",
    "Longitude": "78.3438856",
    "RegionCode": "HYD",
    "State": "Telangana",
    "SubRegionCode": "HYD",
    "VenueAddress": "Plot 20, Adjacent to Allu Studios, Power Welfare Society, Narsingi, Hyderabad, Telangana 500075, India",
    "VenueCode": "ALUC",
    "VenueName": "ALLU Cinemas: Kokapet"
  },
  "AMCJ": {
    "AvailableFormats": "",
    "City": "Jamnagar",
    "FirstTracked": "2026-07-14",
    "Latitude": "22.47459",
    "Longitude": "70.06799",
    "RegionCode": "JAM",
    "State": "Gujarat",
    "SubRegionCode": "JAM",
    "VenueAddress": "Near Modern Market, Pandit Nehru Road, Opposite Hotel Foliage, Jamnagar, Gujarat 361008, India",
    "VenueCode": "AMCJ",
    "VenueName": "Amber Cinema: Jamnagar"
  },
  "AMLC": {
    "AvailableFormats": "2D",
    "City": "Barrackpore",
    "Latitude": "22.7672",
    "Longitude": "88.3832",
    "RegionCode": "BARR",
    "State": "West Bengal",
    "SubRegionCode": "BARR",
    "VenueAddress": "82, Barrackpore - Barasat Road, Barrackpore, Barrackpore, West Bengal 700122, India",
    "VenueCode": "AMLC",
    "VenueName": "Amala Cinema: Barrackpore"
  },
  "AMST": {
    "AvailableFormats": "2D",
    "City": "Karimnagar",
    "Latitude": "18.4292",
    "Longitude": "79.1387",
    "RegionCode": "KARIM",
    "State": "Telangana",
    "SubRegionCode": "KARIM",
    "VenueAddress": "Srinivasa Theatre Road, Shasha Mahala, Ashoknagar, Near Kakatiya Techno School, Karimnagar, Telangana 505001, India",
    "VenueCode": "AMST",
    "VenueName": "Asian Mukta A2 Srinivasa Theatre: Karimnagar"
  },
  "ANCG": {
    "AvailableFormats": "2D",
    "City": "Gondal",
    "Latitude": "21.9615",
    "Longitude": "70.7716",
    "RegionCode": "GONA",
    "State": "Gujarat",
    "SubRegionCode": "GONA",
    "VenueAddress": "2nd Floor, Balaji Mall, Gundala Road, Gondal, Gujarat 360311, India",
    "VenueCode": "ANCG",
    "VenueName": "Auston Cinemas: Gondal"
  },
  "ANNK": {
    "AvailableFormats": "2D",
    "City": "Kothamangalam",
    "Latitude": "10.063",
    "Longitude": "76.6202",
    "RegionCode": "KTMM",
    "State": "Kerala",
    "SubRegionCode": "KTMM",
    "VenueAddress": "Dhanushkodi Rd, Kothamangalam, Near Kothamangalam Bus Stand, Kothamangalam, Kerala 686666, India",
    "VenueCode": "ANNK",
    "VenueName": "ANN Cinema Complex 4K 3D Dolby Atmos RGB LASER"
  },
  "ANTP": {
    "AvailableFormats": "2D",
    "City": "Ramachandrapuram",
    "Latitude": "16.83799",
    "Longitude": "82.02889",
    "RegionCode": "RCPR",
    "State": "Andhra Pradesh",
    "SubRegionCode": "RCPR",
    "VenueAddress": "Ramachandrapuram Road, Ramachandrapuram, Andhra Pradesh 533255, India",
    "VenueCode": "ANTP",
    "VenueName": "Annapurna A/C 2K Dolby 7.1 : Ramachandrapuram"
  },
  "APCO": {
    "AvailableFormats": "2D",
    "City": "Orai",
    "Latitude": "25.9978",
    "Longitude": "79.4623",
    "RegionCode": "ORAI",
    "State": "Uttar Pradesh",
    "SubRegionCode": "ORAI",
    "VenueAddress": "NH 25, New Patel Nagar, Near Busy Beans Cafe, Orai, Uttar Pradesh 285001, India",
    "VenueCode": "APCO",
    "VenueName": "Archana Palace Cinemall: Orai"
  },
  "APPZ": {
    "AvailableFormats": "2D",
    "City": "Vizag (Visakhapatnam)",
    "Latitude": "17.6638",
    "Longitude": "83.2051",
    "RegionCode": "VIZA",
    "State": "Andhra Pradesh",
    "SubRegionCode": "VIZA",
    "VenueAddress": "19-11-24-23, Pedagantyada, Vizag (Visakhapatnam), Andhra Pradesh 530044, India",
    "VenueCode": "APPZ",
    "VenueName": "Aruna Picture Palace 2K A/C PAM"
  },
  "APVE": {
    "AvailableFormats": "2D",
    "City": "Vellore",
    "Latitude": "12.911",
    "Longitude": "79.1317",
    "RegionCode": "RANI",
    "State": "Tamil Nadu",
    "SubRegionCode": "RANI",
    "VenueAddress": "Anna Salai, Vasantapuram, Kosapet, Vellore, Near Sri Vinayaga Temple, Vellore, Tamil Nadu 632001, India",
    "VenueCode": "APVE",
    "VenueName": "Apsara Cinemas 4K AC 7.1 Dolby: Vellore"
  },
  "ARDD": {
    "AvailableFormats": "2D",
    "City": "Veraval",
    "Latitude": "20.91",
    "Longitude": "70.3689",
    "RegionCode": "VRAL",
    "State": "Gujarat",
    "SubRegionCode": "VRAL",
    "VenueAddress": "Railway Station Area, Jobanpura, Near Aradhana Complex, Veraval, Gujarat 362265, India",
    "VenueCode": "ARDD",
    "VenueName": "FUN Cinemas Aradhana Cinema: Veraval"
  },
  "ARTS": {
    "AvailableFormats": "2D",
    "City": "Bengaluru",
    "Latitude": "12.9868",
    "Longitude": "77.5672",
    "RegionCode": "HOKT",
    "State": "Karnataka",
    "SubRegionCode": "HOKT",
    "VenueAddress": "98, Nagendra Gardens, Ramachandrapura, Srirampuram, Near R.R.R.Kalyana Mantapa, Bengaluru, Karnataka 560021, India",
    "VenueCode": "ARTS",
    "VenueName": "Aruna Theatre A/C 4K 7.1 Dolby 3D: Srirampuram"
  },
  "ASCX": {
    "AvailableFormats": "2D",
    "City": "Thiruvalla",
    "Latitude": "9.34101",
    "Longitude": "76.5341",
    "RegionCode": "THVL",
    "State": "Kerala",
    "SubRegionCode": "THVL",
    "VenueAddress": "Mall Grand, Thiruvalla Mavelikkara Road, Thiruvalla, Kerala 689621, India",
    "VenueCode": "ASCX",
    "VenueName": "Aashirvad Cineplexx: Kadappra"
  },
  "ASLC": {
    "AvailableFormats": "2D",
    "City": "Trivandrum",
    "Latitude": "8.48853",
    "Longitude": "76.9461",
    "RegionCode": "VKAL",
    "State": "Kerala",
    "SubRegionCode": "VKAL",
    "VenueAddress": "Sahodara Samajam Road, near OverBridge, Thampanoor, Thiruvananthapuram, Trivandrum, Kerala 695035, India",
    "VenueCode": "ASLC",
    "VenueName": "Ariesplex SL Cinemas Cinionic Dolby Atmos"
  },
  "ASRG": {
    "AvailableFormats": "2D",
    "City": "Patna",
    "Latitude": "25.6186",
    "Longitude": "85.0469",
    "RegionCode": "PATN",
    "State": "Bihar",
    "SubRegionCode": "PATN",
    "VenueAddress": "6th Floor, Ambition Business Park, Bailey Road, Saguna More, Patna, Bihar 801503, India",
    "VenueCode": "ASRG",
    "VenueName": "ASR Cinemas, RPS More: Patna"
  },
  "ASTB": {
    "AvailableFormats": "2D",
    "City": "Bengaluru",
    "Latitude": "13.0807",
    "Longitude": "77.5011",
    "RegionCode": "HOKT",
    "State": "Karnataka",
    "SubRegionCode": "HOKT",
    "VenueAddress": "23, Chikkabanavara, Hesarghatta Main Rd, Near Chikkabanavara Circle, Bengaluru, Karnataka 560090, India",
    "VenueCode": "ASTB",
    "VenueName": "Ashoka Cinemas - Dolby Laser: Chikkabanavara"
  },
  "ATAM": {
    "AvailableFormats": "",
    "City": "Batlagundu",
    "FirstTracked": "2026-07-14",
    "Latitude": "10.2275",
    "Longitude": "77.7483",
    "RegionCode": "BTGD",
    "State": "Tamil Nadu",
    "SubRegionCode": "BTGD",
    "VenueAddress": "Ayyampalayam, Dindugal Road, Near State Bank of India, Batlagundu, Tamil Nadu 624204, India",
    "VenueCode": "ATAM",
    "VenueName": "Alagesan Theatre: Ayyampalayam"
  },
  "ATJA": {
    "AvailableFormats": "2D|3D",
    "City": "Kolkata",
    "Latitude": "22.5081",
    "Longitude": "88.3203",
    "RegionCode": "BARR",
    "State": "West Bengal",
    "SubRegionCode": "BARR",
    "VenueAddress": "No.30, Diamond Harbour Road, Barabagan, Naskarpur, Behala, Kolkata, West Bengal 700038, India",
    "VenueCode": "ATJA",
    "VenueName": "SSR Ajanta Cinema: Behala"
  },
  "ATRT": {
    "AvailableFormats": "2D",
    "City": "Rayagada",
    "Latitude": "19.1759",
    "Longitude": "83.4137",
    "RegionCode": "RADA",
    "State": "Odisha",
    "SubRegionCode": "RADA",
    "VenueAddress": "College Road, Gandhi Nagar, Rayagada, Odisha 765001, India",
    "VenueCode": "ATRT",
    "VenueName": "Ashok Talkies: Rayagada"
  },
  "AUCS": {
    "AvailableFormats": "",
    "City": "Sangli",
    "FirstTracked": "2026-07-14",
    "Latitude": "16.843864",
    "Longitude": "74.60997",
    "RegionCode": "ASMA",
    "State": "Maharashtra",
    "SubRegionCode": "ASMA",
    "VenueAddress": "Center-1, Vijaynagar Chowk, Near SBI, Vijaynagar and Aroma Premium Cafe, Sangli, Maharashtra 416416, India",
    "VenueCode": "AUCS",
    "VenueName": "Aurum Cinemas: Centre 1 Mall, Sangli"
  },
  "AVPS": {
    "AvailableFormats": "2D",
    "City": "Pathanapuram",
    "Latitude": "9.09231",
    "Longitude": "76.8557",
    "RegionCode": "PTPM",
    "State": "Kerala",
    "SubRegionCode": "PTPM",
    "VenueAddress": "3rd Floor,Town Center Mall, Near KSRTC Bus Stand, Pathanapuram, Kerala 689695, India",
    "VenueCode": "AVPS",
    "VenueName": "Aashirvad Cineplexx: Pathanapuram"
  },
  "AYAA": {
    "AvailableFormats": "2D",
    "City": "Solan",
    "Latitude": "30.9058",
    "Longitude": "77.1071",
    "RegionCode": "SCO",
    "State": "Himachal Pradesh",
    "SubRegionCode": "SCO",
    "VenueAddress": "2nd Floor, G Square Mall, Kotla Nala, Solan, Himachal Pradesh 173212, India",
    "VenueCode": "AYAA",
    "VenueName": "Ayaan Cinemas: Solan (G Square Mall)"
  },
  "BAKM": {
    "AvailableFormats": "2D",
    "City": "Mulugu",
    "Latitude": "18.1934",
    "Longitude": "79.9478",
    "RegionCode": "KMLA",
    "State": "Telangana",
    "SubRegionCode": "KMLA",
    "VenueAddress": "Theatre Road, Ambedkar Colony, Near Borra Honda, Mulugu, Telangana 506343, India",
    "VenueCode": "BAKM",
    "VenueName": "Balaji Air Conditioned: Mulugu"
  },
  "BBCL": {
    "AvailableFormats": "3D|2D",
    "City": "Solapur",
    "Latitude": "17.677",
    "Longitude": "75.8986",
    "RegionCode": "SOLA",
    "State": "Maharashtra",
    "SubRegionCode": "SOLA",
    "VenueAddress": "Bhagwat Kala Chaya 8, Old Police Line, Murarji Peth, Solapur, Maharashtra 413001, India",
    "VenueCode": "BBCL",
    "VenueName": "Bhagwat Cinemas (A.C): Solapur"
  },
  "BCCR": {
    "AvailableFormats": "3D|2D",
    "City": "Cooch Behar",
    "Latitude": "26.3296",
    "Longitude": "89.4426",
    "RegionCode": "COBE",
    "State": "West Bengal",
    "SubRegionCode": "COBE",
    "VenueAddress": "Bhavani Cinema, Keshav Road, Cooch Behar, West Bengal 736101, India",
    "VenueCode": "BCCR",
    "VenueName": "Bhavani Cinema: Cooch Behar"
  },
  "BGGM": {
    "AvailableFormats": "2D",
    "City": "Asansol",
    "Latitude": "23.6847",
    "Longitude": "86.9416",
    "RegionCode": "ASANSOL",
    "State": "West Bengal",
    "SubRegionCode": "ASANSOL",
    "VenueAddress": "Burnpur Road, Chitra More, Mouja  Santa, P.O  Hirapur, District  West Burdwan, Asansol, West Bengal 713325, India",
    "VenueCode": "BGGM",
    "VenueName": "Bioscope: Galaxy Mall, Asansol"
  },
  "BHTT": {
    "AvailableFormats": "",
    "City": "Thanipadi",
    "FirstTracked": "2026-07-14",
    "Latitude": "12.106016",
    "Longitude": "78.83783",
    "RegionCode": "THPD",
    "State": "Tamil Nadu",
    "SubRegionCode": "THPD",
    "VenueAddress": "Pilliyarkovil Street, Thandrampattu, Thanipadi, Tamil Nadu 606708, India",
    "VenueCode": "BHTT",
    "VenueName": "Bharath Theatre: Thanipadi"
  },
  "BJLC": {
    "AvailableFormats": "2D",
    "City": "Kolkata",
    "Latitude": "22.5269",
    "Longitude": "88.3459",
    "RegionCode": "KOLK",
    "State": "West Bengal",
    "SubRegionCode": "KOLK",
    "VenueAddress": "No.39, Shyama Prasad Mukherjee Road, Jatin Das Park, Patuapara, Bhawanipur, Kolkata, West Bengal 700025, India",
    "VenueCode": "BJLC",
    "VenueName": "Bijoli Cinema: Kolkata"
  },
  "BLBR": {
    "AvailableFormats": "2D",
    "City": "Burhar",
    "Latitude": "23.202",
    "Longitude": "81.535",
    "RegionCode": "BRHR",
    "State": "Madhya Pradesh",
    "SubRegionCode": "BRHR",
    "VenueAddress": "Shree Shraja Mall, Shree Shraja Mall, Burhar, Madhya Pradesh 484110, India",
    "VenueCode": "BLBR",
    "VenueName": "Bliss Multiplex: Burhar"
  },
  "BMCA": {
    "AvailableFormats": "",
    "City": "Ajmer",
    "FirstTracked": "2026-07-14",
    "Latitude": "26.48096",
    "Longitude": "74.6313",
    "RegionCode": "AJMER",
    "State": "Rajasthan",
    "SubRegionCode": "AJMER",
    "VenueAddress": "CineMall Soni Colony, ASC Road, Near Ana Sagar Lake, Ajmer, Rajasthan 305001, India",
    "VenueCode": "BMCA",
    "VenueName": "Miraj Bioscope Cinemas: Ajmer"
  },
  "BOCK": {
    "AvailableFormats": "2D",
    "City": "Kuravilangad",
    "Latitude": "9.75721",
    "Longitude": "76.561",
    "RegionCode": "KURA",
    "State": "Kerala",
    "SubRegionCode": "KURA",
    "VenueAddress": "State Highway 1, Kurishupally, Kuravilangad, Near Global Collections, Kuravilangad, Kerala 686633, India",
    "VenueCode": "BOCK",
    "VenueName": "Bosco Cinemas: Kuravilangad"
  },
  "BRVP": {
    "AvailableFormats": "2D",
    "City": "Mumbai",
    "Latitude": "19.109",
    "Longitude": "72.8532",
    "RegionCode": "MUMBAI",
    "State": "Maharashtra",
    "SubRegionCode": "MWEST",
    "VenueAddress": "Wallace Towers, 139-140/B/1, Western Express Highway, Vile Parle (E), Mumbai, Maharashtra 400057, India",
    "VenueCode": "BRVP",
    "VenueName": "Bahar Cinema: Vile Parle (E)"
  },
  "BTBJ": {
    "AvailableFormats": "",
    "City": "Jajpur Town (Odisha)",
    "FirstTracked": "2026-07-14",
    "Latitude": "20.849524",
    "Longitude": "86.33777",
    "RegionCode": "JTTT",
    "State": "Odisha",
    "SubRegionCode": "JTTT",
    "VenueAddress": "Jajpur Singhpur Road, Near Hotel Kapila, Jajpur Town (Odisha), Odisha 755001, India",
    "VenueCode": "BTBJ",
    "VenueName": "Biraja Talkies: Jajpur Town, Odisha"
  },
  "BTMV": {
    "AvailableFormats": "2D",
    "City": "Vadodara",
    "Latitude": "22.267",
    "Longitude": "73.2227",
    "RegionCode": "VAD",
    "State": "Gujarat",
    "SubRegionCode": "VAD",
    "VenueAddress": "Amar Shraddha Society, Danteshwar, Tarsali, Vadodara, Gujarat 390004, India",
    "VenueCode": "BTMV",
    "VenueName": "Bansal Movieplex: Tarsali, Vadodara"
  },
  "CACP": {
    "AvailableFormats": "",
    "City": "Pulwama",
    "FirstTracked": "2026-07-14",
    "Latitude": "33.860493",
    "Longitude": "74.89726",
    "RegionCode": "PULW",
    "State": "Jammu and Kashmir",
    "SubRegionCode": "PULW",
    "VenueAddress": "District Employment, Counselling Centre, Pulwama, Jammu and Kashmir 192303, India",
    "VenueCode": "CACP",
    "VenueName": "Citara Cinemas: Pulwama"
  },
  "CBSM": {
    "AvailableFormats": "2D|3D",
    "City": "Chandigarh",
    "Latitude": "30.6734",
    "Longitude": "76.7398",
    "RegionCode": "CHD",
    "State": "Punjab",
    "SubRegionCode": "CHD",
    "VenueAddress": "Bestech Square Mall, Sector 66, Sahibzada Ajit Singh Nagar (Mohali), Chandigarh, Punjab 160062, India",
    "VenueCode": "CBSM",
    "VenueName": "Cinepolis: Bestech Square, Mohali"
  },
  "CCBZ": {
    "AvailableFormats": "",
    "City": "Bathinda",
    "FirstTracked": "2026-07-14",
    "Latitude": "30.2049",
    "Longitude": "74.95",
    "RegionCode": "BHAT",
    "State": "Punjab",
    "SubRegionCode": "BHAT",
    "VenueAddress": "3rd Floor, City Center Mall, Opposite Children Park, Civil Lines, Bathinda, Punjab 151001, India",
    "VenueCode": "CCBZ",
    "VenueName": "Cinemore Cinemas: DREAMz City Centre, Bathinda"
  },
  "CCJD": {
    "AvailableFormats": "2D",
    "City": "Jind",
    "Latitude": "29.3152",
    "Longitude": "76.3186",
    "RegionCode": "JIND",
    "State": "Haryana",
    "SubRegionCode": "JIND",
    "VenueAddress": "CSR Cinemas, CSR Mall, Near Rani Talab, Jind, Haryana 126110, India",
    "VenueCode": "CCJD",
    "VenueName": "CSR Cinemas: Jind"
  },
  "CCMH": {
    "AvailableFormats": "2D",
    "City": "Bettiah",
    "Latitude": "26.7985",
    "Longitude": "84.5065",
    "RegionCode": "BETA",
    "State": "Bihar",
    "SubRegionCode": "BETA",
    "VenueAddress": "Citi Centre Mall, 4th Floor, Town Hall Road, Meena Bazar, Bettiah, Bihar 845438, India",
    "VenueCode": "CCMH",
    "VenueName": "Mukta A2 Cinemas: Citi Centre, Bettiah"
  },
  "CCPC": {
    "AvailableFormats": "2D",
    "City": "Raisinghnagar",
    "Latitude": "29.5374",
    "Longitude": "73.4503",
    "RegionCode": "RSNG",
    "State": "Rajasthan",
    "SubRegionCode": "RSNG",
    "VenueAddress": "22 PS Road, Near - Raisingnagar railway station, Raisinghnagar, Rajasthan 335051, India",
    "VenueCode": "CCPC",
    "VenueName": "Cosmo Palace Cinema: Raisinghnagar"
  },
  "CCSH": {
    "AvailableFormats": "",
    "City": "Sarangarh",
    "FirstTracked": "2026-07-14",
    "Latitude": "21.58825",
    "Longitude": "83.08008",
    "RegionCode": "SARH",
    "State": "Chhattisgarh",
    "SubRegionCode": "SARH",
    "VenueAddress": "Behind Turki Talab, Near Durga Mandir, Sarangarh, Chhattisgarh 496445, India",
    "VenueCode": "CCSH",
    "VenueName": "City Cinema: Sarangarh"
  },
  "CDCA": {
    "AvailableFormats": "2D",
    "City": "Prayagraj (Allahabad)",
    "Latitude": "25.438",
    "Longitude": "81.8442",
    "RegionCode": "ALLH",
    "State": "Uttar Pradesh",
    "SubRegionCode": "ALLH",
    "VenueAddress": "26, Sammelan Marg, Prayagraj, Uttar Pradesh 211003, India",
    "VenueCode": "CDCA",
    "VenueName": "Chandralok Cineplex: Prayagraj"
  },
  "CECM": {
    "AvailableFormats": "2D",
    "City": "Mandi Dabwali",
    "Latitude": "29.9724",
    "Longitude": "74.7246",
    "RegionCode": "DABW",
    "State": "Haryana",
    "SubRegionCode": "DABW",
    "VenueAddress": "NH 54, Doomwali, Mandi Dabwali, Haryana 125104, India",
    "VenueCode": "CECM",
    "VenueName": "Century City Cinema: Mandi Dabwali"
  },
  "CGAR": {
    "AvailableFormats": "2D",
    "City": "Ahmedabad",
    "Latitude": "23.0319",
    "Longitude": "72.5699",
    "RegionCode": "AHD",
    "State": "Gujarat",
    "SubRegionCode": "AHD",
    "VenueAddress": "Ellis Bridge,Muslim Society, Ashram Road,Navrangpura, Near Dena Bank, Ahmedabad, Gujarat 380009, India",
    "VenueCode": "CGAR",
    "VenueName": "City Gold: Ashram Road"
  },
  "CGKD": {
    "AvailableFormats": "2D",
    "City": "Kadi",
    "Latitude": "23.2914",
    "Longitude": "72.3363",
    "RegionCode": "KADI",
    "State": "Gujarat",
    "SubRegionCode": "KADI",
    "VenueAddress": "City Park Road, Bhaupura, Near Kadi Fire Station, Kadi, Gujarat 382715, India",
    "VenueCode": "CGKD",
    "VenueName": "City Gold: Kadi"
  },
  "CHAL": {
    "AvailableFormats": "",
    "City": "Tadepalligudem",
    "Latitude": "16.8128",
    "Longitude": "81.5303",
    "RegionCode": "TANK",
    "State": "Andhra Pradesh",
    "SubRegionCode": "TANK",
    "VenueAddress": "Sheshamahal Road, Karri Satyavathi Nagar, Tadepalligudem, Andhra Pradesh 534101, India",
    "VenueCode": "CHAL",
    "VenueName": "Star Cinemas Chalapathi Theatre: Tadepalligudem"
  },
  "CHTL": {
    "AvailableFormats": "2D",
    "City": "Loni",
    "Latitude": "19.5775",
    "Longitude": "74.471",
    "RegionCode": "LONI",
    "State": "Maharashtra",
    "SubRegionCode": "LONI",
    "VenueAddress": "Rahuri, Sangmner Road, Near HP petrol Pump, Loni, Maharashtra 413713, India",
    "VenueCode": "CHTL",
    "VenueName": "Chitralay Cinema: Loni (Newly Renovated)"
  },
  "CIJA": {
    "AvailableFormats": "2D|3D",
    "City": "Delhi",
    "Latitude": "28.6109",
    "Longitude": "77.0938",
    "RegionCode": "NCR",
    "State": "NCR",
    "SubRegionCode": "DELHI",
    "VenueAddress": "Pankha Road, Block C 6A, Janakpuri, Delhi, NCR 110058, India",
    "VenueCode": "CIJA",
    "VenueName": "Cinepolis: Janak Cinema, New Delhi"
  },
  "CIXH": {
    "AvailableFormats": "",
    "City": "Ahmedabad",
    "FirstTracked": "2026-07-14",
    "Latitude": "23.0902",
    "Longitude": "72.5297",
    "RegionCode": "AHD",
    "State": "Gujarat",
    "SubRegionCode": "AHD",
    "VenueAddress": "310/11/12 Silver Radiance 4, Near Silver Oak College SG Highway, Gota, Ahmedabad, Gujarat 382481, India",
    "VenueCode": "CIXH",
    "VenueName": "CINELUX Cinema:Sola SG Highway (Newly Premium JBL)"
  },
  "CLCF": {
    "AvailableFormats": "",
    "City": "Narayanpur (Assam)",
    "FirstTracked": "2026-07-14",
    "Latitude": "26.948164",
    "Longitude": "93.85002",
    "RegionCode": "NSAZ",
    "State": "Assam",
    "SubRegionCode": "NSAZ",
    "VenueAddress": "Crazy Movie 0, Ward No.2, Narayanpur, National Highway 15, Narayanpur (Assam), Assam 784164, India",
    "VenueCode": "CLCF",
    "VenueName": "Chhotu Maharaj CineCafe: Narayanpur, Assam"
  },
  "CLLP": {
    "AvailableFormats": "2D",
    "City": "Varachha",
    "Latitude": "21.2387",
    "Longitude": "72.8794",
    "RegionCode": "SURT",
    "State": "Gujarat",
    "SubRegionCode": "VACH",
    "VenueAddress": "Atlanta Mall, Sudama chowk, Mota Varachha Main Road, Varachha, Gujarat 394101, India",
    "VenueCode": "CLLP",
    "VenueName": "The Friday Cinema: Mota Varaccha, Surat"
  },
  "CMBS": {
    "AvailableFormats": "",
    "City": "Bihar Sharif",
    "FirstTracked": "2026-07-14",
    "Latitude": "25.2034",
    "Longitude": "85.5006",
    "RegionCode": "BIHS",
    "State": "Bihar",
    "SubRegionCode": "BIHS",
    "VenueAddress": "Bardi Pahardi To Biyawani Road, Near Bardi Pahardi, Bihar Sharif, Bihar 803118, India",
    "VenueCode": "CMBS",
    "VenueName": "Chhotu Maharaj Cine Cafe: Bihar Sharif"
  },
  "CMKR": {
    "AvailableFormats": "2D",
    "City": "Sikar",
    "Latitude": "27.6219",
    "Longitude": "75.1464",
    "RegionCode": "SIKR",
    "State": "Rajasthan",
    "SubRegionCode": "SIKR",
    "VenueAddress": "04th Floor, Shiv Mandir Cinemall, Fatehpur Road, Sikar, Rajasthan 332001, India",
    "VenueCode": "CMKR",
    "VenueName": "Cine Square Cinemas: Sikar"
  },
  "CMMS": {
    "AvailableFormats": "2D",
    "City": "Sahibganj",
    "Latitude": "25.2343",
    "Longitude": "87.6339",
    "RegionCode": "SBBB",
    "State": "Jharkhand",
    "SubRegionCode": "SBBB",
    "VenueAddress": "Celebration Palace Chhotu Maharaj, Bus stand, Stadium Road, Sahibganj, Jharkhand 816109, India",
    "VenueCode": "CMMS",
    "VenueName": "Chhotu Maharaj Cine Cafe : Sahibganj, Jharkhand"
  },
  "CMTU": {
    "AvailableFormats": "2D",
    "City": "Khatima",
    "Latitude": "28.924",
    "Longitude": "79.9753",
    "RegionCode": "KHTM",
    "State": "Uttarakhand",
    "SubRegionCode": "KHTM",
    "VenueAddress": "Mj Market, Tankapur Road, Opposite -  Prayas Hospital, Khatima, Uttarakhand 262308, India",
    "VenueCode": "CMTU",
    "VenueName": "Chhotu Maharaj Cine Cafe: Khatima,Uttarakhand"
  },
  "CMXN": {
    "AvailableFormats": "2D",
    "City": "Nimbahera",
    "Latitude": "24.6251",
    "Longitude": "74.6928",
    "RegionCode": "NIPA",
    "State": "Rajasthan",
    "SubRegionCode": "NIPA",
    "VenueAddress": "Chittorgarh Road, Mahesh Nagar, Kamdhaz Nagar, Nimbahera, Rajasthan 312601, India",
    "VenueCode": "CMXN",
    "VenueName": "Crazy Multiplex: Nimbahera"
  },
  "CNCY": {
    "AvailableFormats": "2D",
    "City": "Sagar",
    "Latitude": "23.8526",
    "Longitude": "78.7808",
    "RegionCode": "SAMP",
    "State": "Madhya Pradesh",
    "SubRegionCode": "SAMP",
    "VenueAddress": "National Highway No 26, Jhansi Road, Makronia Camp, Above Parinay Banquet Hall, Sagar, Madhya Pradesh 470004, India",
    "VenueCode": "CNCY",
    "VenueName": "Cine City: Sagar"
  },
  "CNPD": {
    "AvailableFormats": "2D",
    "City": "Chintalapudi",
    "Latitude": "17.0655",
    "Longitude": "80.983",
    "RegionCode": "CHPD",
    "State": "Andhra Pradesh",
    "SubRegionCode": "CHPD",
    "VenueAddress": "Chintalapudi - Eluru Road, Near Old Bus Stand, Chintalapudi, Andhra Pradesh 534460, India",
    "VenueCode": "CNPD",
    "VenueName": "Sarada Mini A/C Theatre: Chintalapudi"
  },
  "CNTC": {
    "AvailableFormats": "",
    "City": "Coimbatore",
    "FirstTracked": "2026-07-14",
    "Latitude": "10.993464",
    "Longitude": "76.96422",
    "RegionCode": "COIM",
    "State": "Tamil Nadu",
    "SubRegionCode": "COIM",
    "VenueAddress": "191, Big Bazar Street, Town Hall, Near Railway Station, Near Koniammam Temple, Coimbatore, Tamil Nadu 641001, India",
    "VenueCode": "CNTC",
    "VenueName": "Carnatic Cinema: Coimbatore"
  },
  "COLV": {
    "AvailableFormats": "2D|3D",
    "City": "Vadodara",
    "Latitude": "22.3108",
    "Longitude": "73.1688",
    "RegionCode": "VAD",
    "State": "Gujarat",
    "SubRegionCode": "VAD",
    "VenueAddress": "Kanha Center, 2nd Floor, RC Dutt Road, Alkapuri, Opposite Hotel Express Ardhana Society, Vadodara, Gujarat 390020, India",
    "VenueCode": "COLV",
    "VenueName": "Connplex Cinemas (Luxuriance): Vadodara"
  },
  "CPAO": {
    "AvailableFormats": "3D|2D",
    "City": "Ahmedabad",
    "Latitude": "23.0378",
    "Longitude": "72.5283",
    "RegionCode": "AHD",
    "State": "Gujarat",
    "SubRegionCode": "AHD",
    "VenueAddress": "3rd Floor, Alpha One Mall, Opp Vastrapur Lake, Ahmedabad, Gujarat 380015, India",
    "VenueCode": "CPAO",
    "VenueName": "Cinepolis: Nexus Ahmedabad One"
  },
  "CPEC": {
    "AvailableFormats": "2D",
    "City": "Ahmedabad",
    "Latitude": "23.0464",
    "Longitude": "72.6737",
    "RegionCode": "AHD",
    "State": "Gujarat",
    "SubRegionCode": "AHD",
    "VenueAddress": "4th Floor, Hiltown Square, MG Road, Ahmedabad, Gujarat 382350, India",
    "VenueCode": "CPEC",
    "VenueName": "Cineprime Cinema: Nikol"
  },
  "CPKC": {
    "AvailableFormats": "2D|3D",
    "City": "Vapi",
    "Latitude": "20.3954",
    "Longitude": "72.8928",
    "RegionCode": "VAPI",
    "State": "Gujarat",
    "SubRegionCode": "VAPI",
    "VenueAddress": "Fortune Square-1, 4th Floor, Vapi -Daman Road, Chala, Vapi, Gujarat 396191, India",
    "VenueCode": "CPKC",
    "VenueName": "Cine Park: Chala, Vapi"
  },
  "CPMH": {
    "AvailableFormats": "2D|3D",
    "City": "Hyderabad",
    "Latitude": "17.4901",
    "Longitude": "78.3933",
    "RegionCode": "HYD",
    "State": "Telangana",
    "SubRegionCode": "HYD",
    "VenueAddress": "3rd Floor, Survey No.1050, KPBH Colony Phase-3, LuLu Mall,Opposite - JNTU Hi-Tech Road, Kukatpally, Kukatpally, Hyderabad, Telangana 500072, India",
    "VenueCode": "CPMH",
    "VenueName": "Cinepolis: Lulu Mall, Hyderabad"
  },
  "CPOV": {
    "AvailableFormats": "2D|3D",
    "City": "Vijayawada",
    "Latitude": "16.4888",
    "Longitude": "80.6752",
    "RegionCode": "KADU",
    "State": "Andhra Pradesh",
    "SubRegionCode": "KADU",
    "VenueAddress": "Cinepolis India Pvt Ltd, 3rd Floor, Power One Mall, Survery no -220/4 Kanuru gram, Bunder Road, District- Krishna, Vijayawada, Andhra Pradesh 520007, India",
    "VenueCode": "CPOV",
    "VenueName": "Cinepolis: Power One Mall, Vijayawada"
  },
  "CPSM": {
    "AvailableFormats": "2D",
    "City": "Ahmedabad",
    "Latitude": "23.1045",
    "Longitude": "72.5494",
    "RegionCode": "AHD",
    "State": "Gujarat",
    "SubRegionCode": "AHD",
    "VenueAddress": "Savvy Sawaraj Sports Club, 5th Floor, Vandematram Road, Near Godrej Garden City Road, Ahmedabad, Gujarat 382481, India",
    "VenueCode": "CPSM",
    "VenueName": "Savvy Swaraaj Miniplex: Gota, Ahmedabad"
  },
  "CRGM": {
    "AvailableFormats": "3D|2D",
    "City": "Gurugram (Gurgaon)",
    "Latitude": "28.3833",
    "Longitude": "77.0522",
    "RegionCode": "NCR",
    "State": "NCR",
    "SubRegionCode": "GURG",
    "VenueAddress": "Reach Airia Mall, 3rd Floor Sohna Road, Sector 68, Gurugram (Gurgaon), NCR 122103, India",
    "VenueCode": "CRGM",
    "VenueName": "Cinepolis: Airia Mall, Sohna Road, Gurgaon"
  },
  "CSCI": {
    "AvailableFormats": "2D",
    "City": "Indore",
    "Latitude": "22.7229",
    "Longitude": "75.8304",
    "RegionCode": "IND",
    "State": "Madhya Pradesh",
    "SubRegionCode": "IND",
    "VenueAddress": "2nd Floor, Space Tower, Airport Road, Above Croma, Near Surjeet Hyundai Showroom, Indore, Madhya Pradesh 452005, India",
    "VenueCode": "CSCI",
    "VenueName": "Cine Square Cinemas: Airport Road, Indore"
  },
  "CSMP": {
    "AvailableFormats": "2D",
    "City": "Ahmedabad",
    "Latitude": "23.0116",
    "Longitude": "72.5078",
    "RegionCode": "AHD",
    "State": "Gujarat",
    "SubRegionCode": "AHD",
    "VenueAddress": "2, 3, 4th Floor, Campus Corner 2, 100 Feet Road, Prahlad Nagar Garden, Ahmedabad, Gujarat 380015, India",
    "VenueCode": "CSMP",
    "VenueName": "Connplex Cinemas: Prahladnagar"
  },
  "CSTL": {
    "AvailableFormats": "2D|3D",
    "City": "Nawada",
    "Latitude": "24.8877",
    "Longitude": "85.5392",
    "RegionCode": "NAWD",
    "State": "Bihar",
    "SubRegionCode": "NAWD",
    "VenueAddress": "Natraj Picture Palace, New Area, Nawada, Nawada, Bihar 805110, India",
    "VenueCode": "CSTL",
    "VenueName": "Connplex Cinemas (Natraj): Nawada"
  },
  "CTCT": {
    "AvailableFormats": "",
    "City": "Gorantla",
    "FirstTracked": "2026-07-14",
    "Latitude": "13.984417",
    "Longitude": "77.767624",
    "RegionCode": "GORA",
    "State": "Andhra Pradesh",
    "SubRegionCode": "GORA",
    "VenueAddress": "Hindupur - Kadiri Highway, Near Sri Vinayaka Swamy Temple, Gorantla, Andhra Pradesh 515231, India",
    "VenueCode": "CTCT",
    "VenueName": "CTC Theatre: Gorantla"
  },
  "CTMP": {
    "AvailableFormats": "2D|3D",
    "City": "Pune",
    "Latitude": "18.5247",
    "Longitude": "73.8546",
    "RegionCode": "PUNE",
    "State": "Maharashtra",
    "SubRegionCode": "PUNE",
    "VenueAddress": "111, Behind Pune Muncipal Corporation Building, Shivaji Road, Shivaji Nagar, Pune, Maharashtra 411005, India",
    "VenueCode": "CTMP",
    "VenueName": "City Pride: Mangala Cinema"
  },
  "CTSR": {
    "AvailableFormats": "2D|3D",
    "City": "Pune",
    "Latitude": "18.4887",
    "Longitude": "73.8579",
    "RegionCode": "PUNE",
    "State": "Maharashtra",
    "SubRegionCode": "PUNE",
    "VenueAddress": "Market Yard, Pune Satara Road, Pune, Maharashtra 411037, India",
    "VenueCode": "CTSR",
    "VenueName": "City Pride: Satara Road"
  },
  "CVDK": {
    "AvailableFormats": "2D|3D",
    "City": "Rajkot",
    "Latitude": "22.264",
    "Longitude": "70.7996",
    "RegionCode": "RAJK",
    "State": "Gujarat",
    "SubRegionCode": "RAJK",
    "VenueAddress": "Vandana Heritage 4th  and 5th Floor, Opposite Atika Railway Crossing, Gondal Road, Rajkot, Gujarat 360004, India",
    "VenueCode": "CVDK",
    "VenueName": "Cinepolis Vandana: Rajkot"
  },
  "CWTB": {
    "AvailableFormats": "",
    "City": "Buhari",
    "FirstTracked": "2026-07-14",
    "Latitude": "20.974022",
    "Longitude": "73.30542",
    "RegionCode": "BUHA",
    "State": "Gujarat",
    "SubRegionCode": "BUHA",
    "VenueAddress": "Amrut shopping center, Plot no 162/A Buhari, Dist-Valod, Buhari, Gujarat 394630, India",
    "VenueCode": "CWTB",
    "VenueName": "Cineworld Theater: Buhari"
  },
  "CXST": {
    "AvailableFormats": "2D",
    "City": "Ahmedabad",
    "Latitude": "23.0295",
    "Longitude": "72.4662",
    "RegionCode": "AHD",
    "State": "Gujarat",
    "SubRegionCode": "AHD",
    "VenueAddress": "2nd Floor, Turquoise 3, Gala Gymkhana Road, South Bopal, Ahmedabad, Gujarat 380058, India",
    "VenueCode": "CXST",
    "VenueName": "Connplex Cinemas: South Bopal"
  },
  "DBJR": {
    "AvailableFormats": "2D",
    "City": "Kalady",
    "Latitude": "10.1687",
    "Longitude": "76.443",
    "RegionCode": "KLDY",
    "State": "Kerala",
    "SubRegionCode": "KLDY",
    "VenueAddress": "Kalady Malayattoor Road, Thalayattumpilli, Kalady, Kerala 683574, India",
    "VenueCode": "DBJR",
    "VenueName": "Dreambig Jawahar CInemas: Kalady"
  },
  "DCCU": {
    "AvailableFormats": "2D",
    "City": "Thodupuzha",
    "Latitude": "9.90082",
    "Longitude": "76.7134",
    "RegionCode": "THOD",
    "State": "Kerala",
    "SubRegionCode": "THOD",
    "VenueAddress": "4th Floor, Dream Mall, Mt Sinai Road, Near Reliance Trends, Thodupuzha, Kerala 685584, India",
    "VenueCode": "DCCU",
    "VenueName": "DREAM MALL NAXA CINEMAS DOLBY 7.1"
  },
  "DCPC": {
    "AvailableFormats": "2D",
    "City": "Paonta Sahib",
    "Latitude": "30.4362",
    "Longitude": "77.5773",
    "RegionCode": "POTA",
    "State": "Himachal Pradesh",
    "SubRegionCode": "POTA",
    "VenueAddress": "Purwala - Bharli Road, Badripur, Pataliyon, Paonta Sahib, Himachal Pradesh 172025, India",
    "VenueCode": "DCPC",
    "VenueName": "Dhishoom Cinemas: Paonta Sahib"
  },
  "DDRX": {
    "AvailableFormats": "2D|3D",
    "City": "Bhopal",
    "Latitude": "23.2301",
    "Longitude": "77.4921",
    "RegionCode": "BHOP",
    "State": "Madhya Pradesh",
    "SubRegionCode": "BHOP",
    "VenueAddress": "4th Floor, Regal Civic Centre, Regal Town, Crystal Ideal City, Bhopal, Madhya Pradesh 462022, India",
    "VenueCode": "DDRX",
    "VenueName": "DDX Regal Cinema Awadhpuri: Bhopal"
  },
  "DESC": {
    "AvailableFormats": "2D",
    "City": "Wani",
    "Latitude": "20.0441",
    "Longitude": "78.9582",
    "RegionCode": "WANI",
    "State": "Maharashtra",
    "SubRegionCode": "WANI",
    "VenueAddress": "MIDC Road, Wani, Near Hanuman Temple, Wani, Maharashtra 445304, India",
    "VenueCode": "DESC",
    "VenueName": "Deepti Sky Cinex: Wani"
  },
  "DICD": {
    "AvailableFormats": "2D",
    "City": "Ahmedabad",
    "Latitude": "23.0484",
    "Longitude": "72.5289",
    "RegionCode": "AHD",
    "State": "Gujarat",
    "SubRegionCode": "AHD",
    "VenueAddress": "Drive-In Cinema, Drive In Road, Ahmedabad, Gujarat 380054, India",
    "VenueCode": "DICD",
    "VenueName": "Drive In Cinema: Ahmedabad"
  },
  "DLCS": {
    "AvailableFormats": "",
    "City": "Sujangarh",
    "FirstTracked": "2026-07-14",
    "Latitude": "27.709246",
    "Longitude": "74.46495",
    "RegionCode": "SJNG",
    "State": "Rajasthan",
    "SubRegionCode": "SJNG",
    "VenueAddress": "JB Marg, Opp to Jangir Hospital, Sujangarh, Rajasthan 331507, India",
    "VenueCode": "DLCS",
    "VenueName": "Dream Light Cinema: Sujangarh"
  },
  "DMPZ": {
    "AvailableFormats": "2D|3D",
    "City": "Kolkata",
    "Latitude": "22.6153",
    "Longitude": "88.4126",
    "RegionCode": "KOLK",
    "State": "West Bengal",
    "SubRegionCode": "KOLK",
    "VenueAddress": "Diamond City Mall,5 Floor, 68, Jessore Rd, Satgachi, Jagat Banerjee Ghat Road, Kolkata, West Bengal 700055, India",
    "VenueCode": "DMPZ",
    "VenueName": "PVR: Diamond Plaza, Jessore Kolkata"
  },
  "DPDC": {
    "AvailableFormats": "2D|3D",
    "City": "Delhi",
    "Latitude": "28.5412",
    "Longitude": "77.1552",
    "RegionCode": "NCR",
    "State": "NCR",
    "SubRegionCode": "DELHI",
    "VenueAddress": "Ambience Mall, Vasant Phase-2, Nelson Mandela Road, Vasant Kunj, Near Lifestyle Showroom, Delhi, NCR 110070, India",
    "VenueCode": "DPDC",
    "VenueName": "Delhi: PVR Director`s Cut, Ambience Mall"
  },
  "DRPV": {
    "AvailableFormats": "2D",
    "City": "kanchikacherla",
    "Latitude": "16.681",
    "Longitude": "80.3922",
    "RegionCode": "KNCH",
    "State": "Andhra Pradesh",
    "SubRegionCode": "KNCH",
    "VenueAddress": "D.No 13-191, Near IOC Bunk, NH65, kanchikacherla, Andhra Pradesh 521180, India",
    "VenueCode": "DRPV",
    "VenueName": "Dr. PV Rao Cineplex: Kanchikacherla"
  },
  "DTPT": {
    "AvailableFormats": "2D",
    "City": "Kanhangad",
    "Latitude": "12.3209",
    "Longitude": "75.0851",
    "RegionCode": "KKNN",
    "State": "Kerala",
    "SubRegionCode": "KKNN",
    "VenueAddress": "Deepthi Cinemas,Railway Station, Puthiyavalapu, Opposite Kanhangad, Kanhangad, Kerala 671315, India",
    "VenueCode": "DTPT",
    "VenueName": "Deepthi Cinemas A/c 2K Dolby Atmos: Kanhangad"
  },
  "DVDC": {
    "AvailableFormats": "2D",
    "City": "Delhi",
    "Latitude": "28.6418",
    "Longitude": "77.2335",
    "RegionCode": "NCR",
    "State": "NCR",
    "SubRegionCode": "DELHI",
    "VenueAddress": "Opp LNJP, Asaf Ali Road Darya Ganj, Near Delhi Stock Exchange, Delhi, NCR 110002, India",
    "VenueCode": "DVDC",
    "VenueName": "Delite Cinema: Asaf Ali Road"
  },
  "ECGH": {
    "AvailableFormats": "2D",
    "City": "Jamshedpur",
    "Latitude": "22.8441",
    "Longitude": "86.2163",
    "RegionCode": "JMDP",
    "State": "Jharkhand",
    "SubRegionCode": "JMDP",
    "VenueAddress": "Zone 1 Mall, 4th Floor Big Bazar Building, NH 33, Pardih, Dimna Road, Jamshedpur, Jharkhand 831012, India",
    "VenueCode": "ECGH",
    "VenueName": "Eylex Cinemas: Jamshedpur"
  },
  "EEBC": {
    "AvailableFormats": "",
    "City": "Greater Noida",
    "FirstTracked": "2026-07-14",
    "Latitude": "28.464",
    "Longitude": "77.5078",
    "RegionCode": "NCR",
    "State": "NCR",
    "SubRegionCode": "GRET",
    "VenueAddress": "ANSAL PLAZA MALL SHOPPING COMPLEX, Pari Chowk, Amit Nagar, Greater Noida, NCR 201310, India",
    "VenueCode": "EEBC",
    "VenueName": "eBox Cinema: Ansal Plaza Mall, Greater Noida"
  },
  "EMCC": {
    "AvailableFormats": "2D",
    "City": "Kozhikode",
    "Latitude": "11.2701",
    "Longitude": "75.8443",
    "RegionCode": "KOZH",
    "State": "Kerala",
    "SubRegionCode": "KOZH",
    "VenueAddress": "Velliparamba, Kozhikode, Near Medical collage Hospital, Kozhikode, Kerala 673008, India",
    "VenueCode": "EMCC",
    "VenueName": "E Max Cinemas Dolby Atmos RGB Laser: Calicut"
  },
  "EPJM": {
    "AvailableFormats": "",
    "City": "Jaipur",
    "Latitude": "26.838",
    "Longitude": "75.7971",
    "RegionCode": "JAIP",
    "State": "Rajasthan",
    "SubRegionCode": "JAIP",
    "VenueAddress": "J L N Marg, Jawahar Circle, Tonk Road, Jaipur, Rajasthan 302017, India",
    "VenueCode": "EPJM",
    "VenueName": "Miraj Cinemas: Entertainment Paradise, Jaipur"
  },
  "ESOS": {
    "AvailableFormats": "2D|3D",
    "City": "Solapur",
    "Latitude": "17.6766",
    "Longitude": "75.8985",
    "RegionCode": "SOLA",
    "State": "Maharashtra",
    "SubRegionCode": "SOLA",
    "VenueAddress": "11/A, NH13, Old Police Line, Murarji Peth, Solapur, Maharashtra 413001, India",
    "VenueCode": "ESOS",
    "VenueName": "E-SQUARE Oasis (A.C): Solapur"
  },
  "EVCK": {
    "AvailableFormats": "2D",
    "City": "Kumily",
    "Latitude": "9.60762",
    "Longitude": "77.1697",
    "RegionCode": "KUMI",
    "State": "Kerala",
    "SubRegionCode": "KUMI",
    "VenueAddress": "Mar Thoma Church Road, Thekkady, Kumily, Kumily, Kerala 685509, India",
    "VenueCode": "EVCK",
    "VenueName": "EVM Cinemas: Kumily"
  },
  "FCAX": {
    "AvailableFormats": "",
    "City": "Rudrapur",
    "FirstTracked": "2026-07-14",
    "Latitude": "28.982658",
    "Longitude": "79.35822",
    "RegionCode": "RUDP",
    "State": "Uttarakhand",
    "SubRegionCode": "RUDP",
    "VenueAddress": "Skylark Petals, Kashipur Road, Near Samiah Lake, Rudrapur, Uttarakhand 263153, India",
    "VenueCode": "FCAX",
    "VenueName": "Fun Cinemas Rave Multiplex: Rudrapur"
  },
  "FCPS": {
    "AvailableFormats": "",
    "City": "Veraval",
    "FirstTracked": "2026-07-14",
    "Latitude": "20.936192",
    "Longitude": "70.367195",
    "RegionCode": "VRAL",
    "State": "Gujarat",
    "SubRegionCode": "VRAL",
    "VenueAddress": "Somnath Jetpur Highway, Near Ahir Samaj, Veraval Bypass Road, Veraval, Gujarat 362266, India",
    "VenueCode": "FCPS",
    "VenueName": "Fun Cinemas Phoenix Cinema: Veraval"
  },
  "FMCN": {
    "AvailableFormats": "2D",
    "City": "Chennai",
    "Latitude": "13.0476",
    "Longitude": "80.1904",
    "RegionCode": "CHEN",
    "State": "Tamil Nadu",
    "SubRegionCode": "CHEN",
    "VenueAddress": "Chandra Metro Mall, Arcot Road, Aranganathan Nagar, Valasaravakkam, Near Mega Mart, Chennai, Tamil Nadu 600092, India",
    "VenueCode": "FMCN",
    "VenueName": "INOX National: Arcot Road"
  },
  "FMOT": {
    "AvailableFormats": "2D",
    "City": "Thrissur",
    "Latitude": "10.4869",
    "Longitude": "76.2386",
    "RegionCode": "MANR",
    "State": "Kerala",
    "SubRegionCode": "MANR",
    "VenueAddress": "Bus Stop, Company Padi, High Road, Christopher, Ollur, Thrissur, Near Ollur Town Cooperative Society Ltd, Thrissur, Kerala 680306, India",
    "VenueCode": "FMOT",
    "VenueName": "Fun Movies: Thrissur"
  },
  "FNBP": {
    "AvailableFormats": "3D|2D",
    "City": "Bhopal",
    "Latitude": "23.2329",
    "Longitude": "77.4298",
    "RegionCode": "BHOP",
    "State": "Madhya Pradesh",
    "SubRegionCode": "BHOP",
    "VenueAddress": "Arera Hills, DB City Mall, Maharana Pratap Nagar, Bhopal, Madhya Pradesh 462011, India",
    "VenueCode": "FNBP",
    "VenueName": "Cinepolis: DB Mall, Bhopal"
  },
  "FNLK": {
    "AvailableFormats": "2D|3D",
    "City": "Lucknow",
    "Latitude": "26.8582",
    "Longitude": "80.9762",
    "RegionCode": "LUCK",
    "State": "Uttar Pradesh",
    "SubRegionCode": "LUCK",
    "VenueAddress": "Near Eldeco Greens, Nehru Enclave, Gomti Nagar, Opposite Lohia Park, Lucknow, Uttar Pradesh 226010, India",
    "VenueCode": "FNLK",
    "VenueName": "Fun Cinemas: Fun Republic Mall, Lucknow"
  },
  "FRGS": {
    "AvailableFormats": "2D|3D",
    "City": "Thanjavur",
    "Latitude": "10.7857",
    "Longitude": "79.1392",
    "RegionCode": "TANJ",
    "State": "Tamil Nadu",
    "SubRegionCode": "TANJ",
    "VenueAddress": "78/3, Abraham Pandither Road, Next to P.K Hospital, Thanjavur, Tamil Nadu 613001, India",
    "VenueCode": "FRGS",
    "VenueName": "Frame Cinemas RGB Laser Atmos: Thanjavur"
  },
  "FUCG": {
    "AvailableFormats": "2D",
    "City": "Guwahati",
    "Latitude": "26.167",
    "Longitude": "91.7669",
    "RegionCode": "GUW",
    "State": "Assam",
    "SubRegionCode": "GUW",
    "VenueAddress": "5th Floor, Hub Mall, Bhangaghar, G. S. Road, Guwahati, Assam 781005, India",
    "VenueCode": "FUCG",
    "VenueName": "Galleria Cinema: HUB Mall, Guwahati"
  },
  "GAHC": {
    "AvailableFormats": "2D",
    "City": "Chennai",
    "Latitude": "13.2499",
    "Longitude": "80.1568",
    "RegionCode": "CHEN",
    "State": "Tamil Nadu",
    "SubRegionCode": "CHEN",
    "VenueAddress": "Sholavaram, Karanodai, Chennai, Tamil Nadu 600067, India",
    "VenueCode": "GAHC",
    "VenueName": "Gopalakrishna A/C 2K DOLBY 7.1-Karanodai(Redhills)"
  },
  "GATY": {
    "AvailableFormats": "2D",
    "City": "Mumbai",
    "Latitude": "19.0615",
    "Longitude": "72.8387",
    "RegionCode": "MUMBAI",
    "State": "Maharashtra",
    "SubRegionCode": "MWEST",
    "VenueAddress": "Swami Vivekanand Marg, Tata Blocks, 30th Cross Road, Near Tata Blocks, Bandra West, Mumbai, Maharashtra 400050, India",
    "VenueCode": "GATY",
    "VenueName": "G7 Multiplex: Bandra (W)"
  },
  "GCCA": {
    "AvailableFormats": "2D|3D",
    "City": "Gondia",
    "Latitude": "21.4531",
    "Longitude": "80.1912",
    "RegionCode": "GNDA",
    "State": "Maharashtra",
    "SubRegionCode": "GNDA",
    "VenueAddress": "City Mall, Opposite - Circus Ground, Ganesh Nagar, Main Road, Gondia, Maharashtra 441601, India",
    "VenueCode": "GCCA",
    "VenueName": "Gold Cinema: City Mall, Gondia"
  },
  "GCFA": {
    "AvailableFormats": "2D",
    "City": "Fulkusma",
    "Latitude": "22.7119",
    "Longitude": "86.8696",
    "RegionCode": "FULK",
    "State": "West Bengal",
    "SubRegionCode": "FULK",
    "VenueAddress": "Gandheswari Chitralaya, Bankura Road, Fulkusma, West Bengal 722134, India",
    "VenueCode": "GCFA",
    "VenueName": "Gandheswari Chitralaya: Fulkushma"
  },
  "GCKJ": {
    "AvailableFormats": "2D",
    "City": "Kotputli",
    "Latitude": "27.7032",
    "Longitude": "76.2297",
    "RegionCode": "KPLI",
    "State": "Rajasthan",
    "SubRegionCode": "KPLI",
    "VenueAddress": "Bansur Road ,Bhuchahira, Moh. Badabas, Kotputli, Kotputli, Rajasthan 303108, India",
    "VenueCode": "GCKJ",
    "VenueName": "Gold Cinema: Kotputli"
  },
  "GCPT": {
    "AvailableFormats": "2D",
    "City": "Pathankot",
    "Latitude": "32.2726",
    "Longitude": "75.6535",
    "RegionCode": "PATH",
    "State": "Punjab",
    "SubRegionCode": "PATH",
    "VenueAddress": "4th Floor, City Centre Mall, Dalhousie Road, Pathankot, Punjab 145001, India",
    "VenueCode": "GCPT",
    "VenueName": "Grand Cinemaz: Pathankot"
  },
  "GCTI": {
    "AvailableFormats": "2D",
    "City": "Tinsukia",
    "Latitude": "27.492",
    "Longitude": "95.3617",
    "RegionCode": "TINS",
    "State": "Assam",
    "SubRegionCode": "TINS",
    "VenueAddress": "ATC Mall, GNB Road, Tinsukia, Assam 786125, India",
    "VenueCode": "GCTI",
    "VenueName": "Galleria Cinemas: ATC Mall, Tinsukia"
  },
  "GDCN": {
    "AvailableFormats": "2D",
    "City": "Guwahati",
    "Latitude": "26.1795",
    "Longitude": "91.8302",
    "RegionCode": "GUW",
    "State": "Assam",
    "SubRegionCode": "GUW",
    "VenueAddress": "LG Tower Tiniali, Narengi, Near Tulip Resturant, Guwahati, Assam 781026, India",
    "VenueCode": "GDCN",
    "VenueName": "Gold Cinema: Narengi"
  },
  "GDMT": {
    "AvailableFormats": "2D|3D",
    "City": "Mathura",
    "Latitude": "27.4943",
    "Longitude": "77.6551",
    "RegionCode": "MATH",
    "State": "Uttar Pradesh",
    "SubRegionCode": "MATH",
    "VenueAddress": "Highway Plaza Shopping Complex, NH2 Delhi-Agra Road, Near Mandi Crossing, Mathura, Uttar Pradesh 281004, India",
    "VenueCode": "GDMT",
    "VenueName": "Gold Cinema: Mathura"
  },
  "GETT": {
    "AvailableFormats": "2D",
    "City": "Hindaun City",
    "Latitude": "26.7284",
    "Longitude": "77.0333",
    "RegionCode": "HIND",
    "State": "Rajasthan",
    "SubRegionCode": "HIND",
    "VenueAddress": "SH 1, Keshav Pura, Opposite Government Girls Senior Secondary School, Hindaun City, Rajasthan 322230, India",
    "VenueCode": "GETT",
    "VenueName": "Geeta Talkies: Hindaun City"
  },
  "GGRJ": {
    "AvailableFormats": "",
    "City": "Gajapathinagaram",
    "FirstTracked": "2026-07-14",
    "Latitude": "18.28414",
    "Longitude": "83.33718",
    "RegionCode": "GJPT",
    "State": "Andhra Pradesh",
    "SubRegionCode": "GJPT",
    "VenueAddress": "Jayanthi Colony, Near Canara Bank, Gajapathinagaram, Andhra Pradesh 535270, India",
    "VenueCode": "GGRJ",
    "VenueName": "Gangaraju Kalamandir: Gajapathinagaram"
  },
  "GKCS": {
    "AvailableFormats": "2D",
    "City": "Sarangpur",
    "Latitude": "23.5761",
    "Longitude": "76.4842",
    "RegionCode": "SARA",
    "State": "Madhya Pradesh",
    "SubRegionCode": "SARA",
    "VenueAddress": "AB Road, Sudarshan Nagar, Sarangpur, Madhya Pradesh 465697, India",
    "VenueCode": "GKCS",
    "VenueName": "Gopal Krishna Multiplex: Sarangpur"
  },
  "GLXJ": {
    "AvailableFormats": "2D",
    "City": "Jaipur",
    "Latitude": "26.8337",
    "Longitude": "75.7783",
    "RegionCode": "JAIP",
    "State": "Rajasthan",
    "SubRegionCode": "JAIP",
    "VenueAddress": "SP, 9, Shipra Path, RIICO Industrial Area, Mansarovar, Jaipur, Rajasthan 302020, India",
    "VenueCode": "GLXJ",
    "VenueName": "Galaxy Cinema Mansarovar: Jaipur"
  },
  "GOCL": {
    "AvailableFormats": "",
    "City": "Lakhimpur",
    "FirstTracked": "2026-07-14",
    "Latitude": "27.236189",
    "Longitude": "94.10158",
    "RegionCode": "LAHA",
    "State": "Assam",
    "SubRegionCode": "LAHA",
    "VenueAddress": "North Lakhimpur, Thakurbari Road, Lakhimpur, Assam 787001, India",
    "VenueCode": "GOCL",
    "VenueName": "Gold Cinema: Lakhimpur"
  },
  "GPBR": {
    "AvailableFormats": "2D",
    "City": "Bengaluru",
    "Latitude": "12.9144",
    "Longitude": "77.5995",
    "RegionCode": "HOKT",
    "State": "Karnataka",
    "SubRegionCode": "HOKT",
    "VenueAddress": "Near Jayadeva Hospital, Bannerghatta Road, Opp Shoppers Stop, Bengaluru, Karnataka 560076, India",
    "VenueCode": "GPBR",
    "VenueName": "Gopalan Cinemas: Bannerghatta Road"
  },
  "GPTB": {
    "AvailableFormats": "2D",
    "City": "Bengaluru",
    "Latitude": "12.8912",
    "Longitude": "77.6265",
    "RegionCode": "HOKT",
    "State": "Karnataka",
    "SubRegionCode": "HOKT",
    "VenueAddress": "12th Cross, Bommanahalli Post, Begur Main Road,Hongasandra Next To Banashankari Tent, Bengaluru, Karnataka 560068, India",
    "VenueCode": "GPTB",
    "VenueName": "Galaxy Paradise (Miniplex): Begur Road"
  },
  "GSEE": {
    "AvailableFormats": "",
    "City": "Baikunthpur",
    "FirstTracked": "2026-07-14",
    "Latitude": "23.2686",
    "Longitude": "82.5548",
    "RegionCode": "BKTH",
    "State": "Chhattisgarh",
    "SubRegionCode": "BKTH",
    "VenueAddress": "Mission School Road, Harratola, Near Hotel Shree Ganga, Baikunthpur, Chhattisgarh 497335, India",
    "VenueCode": "GSEE",
    "VenueName": "Ganga Shree Cineplex: Baikunthpur"
  },
  "GTCP": {
    "AvailableFormats": "",
    "City": "Channarayapatna",
    "FirstTracked": "2026-07-14",
    "Latitude": "12.905309",
    "Longitude": "76.38963",
    "RegionCode": "CHNN",
    "State": "Karnataka",
    "SubRegionCode": "CHNN",
    "VenueAddress": "Renukamba Road, Near Channarayapatna Post Office, Channarayapatna, Karnataka 573116, India",
    "VenueCode": "GTCP",
    "VenueName": "Gayatri Theatre: Channarayapatna"
  },
  "GTTA": {
    "AvailableFormats": "2D",
    "City": "Falakata",
    "Latitude": "26.5179",
    "Longitude": "89.2024",
    "RegionCode": "FALA",
    "State": "West Bengal",
    "SubRegionCode": "FALA",
    "VenueAddress": "Babupara, Near Netaji Road, Opposite Falakata Park, Falakata, West Bengal 735211, India",
    "VenueCode": "GTTA",
    "VenueName": "Gouri Talkies: Falakata"
  },
  "GVCP": {
    "AvailableFormats": "2D",
    "City": "Pileru",
    "Latitude": "13.6577",
    "Longitude": "78.9366",
    "RegionCode": "PLRU",
    "State": "Andhra Pradesh",
    "SubRegionCode": "PLRU",
    "VenueAddress": "Off National Highway 205, Piler, Pileru, Andhra Pradesh 517214, India",
    "VenueCode": "GVCP",
    "VenueName": "GV Cinemas (Ajantha Theater): Pileru"
  },
  "HANS": {
    "AvailableFormats": "",
    "City": "Chalisgaon",
    "FirstTracked": "2026-07-14",
    "Latitude": "20.4616",
    "Longitude": "74.9972",
    "RegionCode": "CHLS",
    "State": "Maharashtra",
    "SubRegionCode": "CHLS",
    "VenueAddress": "92, Ganesh Nagar, Hans Theatre Road, Chalisgaon, Maharashtra 424101, India",
    "VenueCode": "HANS",
    "VenueName": "Raj Chitramandir: Chalisgaon"
  },
  "HFLM": {
    "AvailableFormats": "",
    "City": "Margao",
    "FirstTracked": "2026-07-14",
    "Latitude": "15.2715",
    "Longitude": "73.9686",
    "RegionCode": "MARG",
    "State": "Goa",
    "SubRegionCode": "MARG",
    "VenueAddress": "St. Joaquim Aquem Road, Opp Monastery, Near Aquem Post Office, Margao, Goa 403601, India",
    "VenueCode": "HFLM",
    "VenueName": "Z Square Cine Vishant: Margao"
  },
  "HILC": {
    "AvailableFormats": "2D",
    "City": "Renukoot",
    "Latitude": "24.2144",
    "Longitude": "83.0364",
    "RegionCode": "RENU",
    "State": "Uttar Pradesh",
    "SubRegionCode": "RENU",
    "VenueAddress": "Hindalco Colony, Opp. Ramleela ground, Birla Market, Renukoot, Uttar Pradesh 231217, India",
    "VenueCode": "HILC",
    "VenueName": "HIL Cinema: Renukoot"
  },
  "HSTK": {
    "AvailableFormats": "2D",
    "City": "Trivandrum",
    "Latitude": "8.58223",
    "Longitude": "76.8612",
    "RegionCode": "VKAL",
    "State": "Kerala",
    "SubRegionCode": "VKAL",
    "VenueAddress": "Vettur Road, Kazhakootam, Trivandrum, Kerala 695301, India",
    "VenueCode": "HSTK",
    "VenueName": "Harisree Theatre 4K 3D Dolby 7.1: Kazhakkoottam"
  },
  "ICCM": {
    "AvailableFormats": "2D|3D",
    "City": "Mysuru (Mysore)",
    "Latitude": "12.3098",
    "Longitude": "76.6585",
    "RegionCode": "MYS",
    "State": "Karnataka",
    "SubRegionCode": "MYS",
    "VenueAddress": "INOX Leisure Ltd, 3rd Floor, Centro, Bangalore-Nilgiri Road, Mysuru (Mysore), Karnataka 570001, India",
    "VenueCode": "ICCM",
    "VenueName": "INOX: Centro, Mysore"
  },
  "IGAM": {
    "AvailableFormats": "2D|3D",
    "City": "Gurugram (Gurgaon)",
    "Latitude": "28.4453",
    "Longitude": "77.0811",
    "RegionCode": "NCR",
    "State": "NCR",
    "SubRegionCode": "GURG",
    "VenueAddress": "4th Floor, Ardee Mall, Ardee City, Sector 52, Gurugram, Haryana, Gurugram (Gurgaon), NCR 122003, India",
    "VenueCode": "IGAM",
    "VenueName": "INOX: Ardee Mall, Gurugram"
  },
  "IMCH": {
    "AvailableFormats": "2D",
    "City": "Namchi",
    "Latitude": "27.164",
    "Longitude": "88.3619",
    "RegionCode": "NAMI",
    "State": "Sikkim",
    "SubRegionCode": "NAMI",
    "VenueAddress": "NMC Museum Building, Singithang, Shaheed Sanjog Chettri Marg, Namchi, Sikkim 737126, India",
    "VenueCode": "IMCH",
    "VenueName": "Imperial Talkies: Namchi"
  },
  "IMSH": {
    "AvailableFormats": "3D|2D",
    "City": "Shajapur",
    "Latitude": "23.4188",
    "Longitude": "76.2637",
    "RegionCode": "SJUR",
    "State": "Madhya Pradesh",
    "SubRegionCode": "SJUR",
    "VenueAddress": "1st floor, Seva Shree Mall, Dupada Road, Near Vyas Hospital, Shajapur, Madhya Pradesh 465001, India",
    "VenueCode": "IMSH",
    "VenueName": "Imusica Cinema: Shajapur"
  },
  "INBC": {
    "AvailableFormats": "2D",
    "City": "Bengaluru",
    "Latitude": "12.9166",
    "Longitude": "77.5923",
    "RegionCode": "HOKT",
    "State": "Karnataka",
    "SubRegionCode": "HOKT",
    "VenueAddress": "5th Floor Central, 45th Cross, J P Nagar 2nd Phase, Marenhalli Road, Bengaluru, Karnataka 560069, India",
    "VenueCode": "INBC",
    "VenueName": "INOX: Central, JP Nagar, Mantri Junction"
  },
  "INCH": {
    "AvailableFormats": "2D",
    "City": "Chennai",
    "Latitude": "13.0432",
    "Longitude": "80.2738",
    "RegionCode": "CHEN",
    "State": "Tamil Nadu",
    "SubRegionCode": "CHEN",
    "VenueAddress": "3rd Floor, Chennai Citi Center, Doctor Radha Krishnan Salai, Chennai, Tamil Nadu 600004, India",
    "VenueCode": "INCH",
    "VenueName": "INOX: Chennai Citi Centre, Dr. RK Salai"
  },
  "INGA": {
    "AvailableFormats": "2D",
    "City": "Gandhinagar",
    "Latitude": "23.1803",
    "Longitude": "72.5653",
    "RegionCode": "GNAGAR",
    "State": "Gujarat",
    "SubRegionCode": "GNAGAR",
    "VenueAddress": "Near Adalaj, Gandhinagar Sarkhej Highway, Near Tri Mandir, Gandhinagar, Gujarat 380055, India",
    "VenueCode": "INGA",
    "VenueName": "INOX: Gandhinagar, Adalaj"
  },
  "INJV": {
    "AvailableFormats": "3D|2D",
    "City": "Jaipur",
    "Latitude": "26.9128",
    "Longitude": "75.7435",
    "RegionCode": "JAIP",
    "State": "Rajasthan",
    "SubRegionCode": "JAIP",
    "VenueAddress": "Vaibhav Complex, C-1 C Block, Amrapali Circle, Vaishali Nagar, Near Vaishali Hospital, Jaipur, Rajasthan 302021, India",
    "VenueCode": "INJV",
    "VenueName": "INOX: Vaibhav, Amarapali Circle"
  },
  "INMT": {
    "AvailableFormats": "2D",
    "City": "Kakinada",
    "Latitude": "16.9979",
    "Longitude": "82.2434",
    "RegionCode": "KAKI",
    "State": "Andhra Pradesh",
    "SubRegionCode": "KAKI",
    "VenueAddress": "3rd Floor, 82-EAST, SRMT Mall, Lalitha Nagar, Ramanayyapeta, Pithapuram Road, Sarpavaram Junction, Kakinada, Andhra Pradesh 533005, India",
    "VenueCode": "INMT",
    "VenueName": "INOX: SRMT Mall, Kakinada"
  },
  "INPN": {
    "AvailableFormats": "2D|3D",
    "City": "Pune",
    "Latitude": "18.527",
    "Longitude": "73.8777",
    "RegionCode": "PUNE",
    "State": "Maharashtra",
    "SubRegionCode": "PUNE",
    "VenueAddress": "Plot No.D, Bund Garden Road, Agarkar Nagar, Near Central Park Hotel, Pune, Maharashtra 411001, India",
    "VenueCode": "INPN",
    "VenueName": "INOX: Bund Garden Road"
  },
  "INRJ": {
    "AvailableFormats": "2D|3D",
    "City": "Jalandhar",
    "Latitude": "31.307",
    "Longitude": "75.5926",
    "RegionCode": "JALA",
    "State": "Punjab",
    "SubRegionCode": "JALA",
    "VenueAddress": "INOX Leisure Ltd., 3rd Floor, Reliance Mall, Chotti Baradari Part-2, Puda, Jalandhar, Punjab 144001, India",
    "VenueCode": "INRJ",
    "VenueName": "INOX: Reliance Mall, Jalandhar"
  },
  "INSL": {
    "AvailableFormats": "2D|3D",
    "City": "Kolkata",
    "Latitude": "22.589",
    "Longitude": "88.4082",
    "RegionCode": "BARR",
    "State": "West Bengal",
    "SubRegionCode": "BARR",
    "VenueAddress": "City Centre, DC Block I, Sector-1, City Center Mall, Kolkata, West Bengal 700020, India",
    "VenueCode": "INSL",
    "VenueName": "INOX: City Center, Salt Lake"
  },
  "INVB": {
    "AvailableFormats": "2D|3D",
    "City": "Vizag (Visakhapatnam)",
    "Latitude": "17.7111",
    "Longitude": "83.3167",
    "RegionCode": "SABB",
    "State": "Andhra Pradesh",
    "SubRegionCode": "SABB",
    "VenueAddress": "Survey No.120 and 121, Varun Beach, 3rd Floor, R K Beach Road, Maharani Pet, Vizag, Andhra Pradesh 530003, India",
    "VenueCode": "INVB",
    "VenueName": "INOX: Varun Beach, Beach Road"
  },
  "INVZ": {
    "AvailableFormats": "",
    "City": "Vizianagaram",
    "FirstTracked": "2026-07-14",
    "Latitude": "18.107111",
    "Longitude": "83.39902",
    "RegionCode": "VIZI",
    "State": "Andhra Pradesh",
    "SubRegionCode": "VIZI",
    "VenueAddress": "3rd Floor, NCS Mall, Bochu Peta, Beside Thotapalem Road, Opposite RTC Complex, Vizianagaram, Andhra Pradesh 535002, India",
    "VenueCode": "INVZ",
    "VenueName": "INOX: NCS Mall, Vizianagaram"
  },
  "IOMM": {
    "AvailableFormats": "2D|3D",
    "City": "Gorakhpur",
    "Latitude": "26.7498",
    "Longitude": "83.4007",
    "RegionCode": "GRKP",
    "State": "Uttar Pradesh",
    "SubRegionCode": "GRKP",
    "VenueAddress": "INOX Leisure Ltd, 4th Floor, Orion Mall, Mohaddipur, Gorakhpur, Uttar Pradesh 273010, India",
    "VenueCode": "IOMM",
    "VenueName": "INOX: Orion Mall, Gorakhpur"
  },
  "IPPL": {
    "AvailableFormats": "2D|MX4D|IMAX 2D|3D|MX4D 3D",
    "City": "Lucknow",
    "Latitude": "26.8085",
    "Longitude": "81.0123",
    "RegionCode": "LUCK",
    "State": "Uttar Pradesh",
    "SubRegionCode": "LUCK",
    "VenueAddress": "INOX Leisure Ltd., 3rd Floor, Phoenix Palassio Mall Amar Saheed Path, Gomti Nagar Extension, Lucknow, Uttar Pradesh 226010, India",
    "VenueCode": "IPPL",
    "VenueName": "INOX: Megaplex Phoenix Palassio Mall"
  },
  "ISMR": {
    "AvailableFormats": "2D",
    "City": "Dharwad",
    "Latitude": "15.4452",
    "Longitude": "75.0136",
    "RegionCode": "DHAW",
    "State": "Karnataka",
    "SubRegionCode": "DHAW",
    "VenueAddress": "2nd Floor, Smart City Mall, Lakamanahalli, P B Road, Dharwad, Karnataka 580001, India",
    "VenueCode": "ISMR",
    "VenueName": "INOX: Smartcity Mall, Dharwad"
  },
  "IXIM": {
    "AvailableFormats": "2D",
    "City": "Jodhpur",
    "Latitude": "26.2195",
    "Longitude": "73.0422",
    "RegionCode": "JODH",
    "State": "Rajasthan",
    "SubRegionCode": "JODH",
    "VenueAddress": "1st Floor, Indiabulls Mega Mall, Vijayrajey Nagar, NH-65, Pali Road, Jodhpur, Rajasthan 342005, India",
    "VenueCode": "IXIM",
    "VenueName": "INOX: Indiabulls Mall, Jodhpur"
  },
  "JBCA": {
    "AvailableFormats": "2D",
    "City": "Trivandrum",
    "Latitude": "8.71232",
    "Longitude": "76.813",
    "RegionCode": "VKAL",
    "State": "Kerala",
    "SubRegionCode": "VKAL",
    "VenueAddress": "Alamcode, Near - Vazhiyorakkada Restaurant, Trivandrum, Kerala 695102, India",
    "VenueCode": "JBCA",
    "VenueName": "Thapasya Cine House: Attingal"
  },
  "JCMA": {
    "AvailableFormats": "2D|3D",
    "City": "Ambikapur",
    "Latitude": "23.1266",
    "Longitude": "83.1916",
    "RegionCode": "AMBI",
    "State": "Chhattisgarh",
    "SubRegionCode": "AMBI",
    "VenueAddress": "Devigang Road, Near Mahamaya Chowk, Ambikapur, Chhattisgarh 497001, India",
    "VenueCode": "JCMA",
    "VenueName": "JCM Multiplex: Ambikapur"
  },
  "JDDG": {
    "AvailableFormats": "",
    "City": "Gauriganj",
    "FirstTracked": "2026-07-14",
    "Latitude": "26.210785",
    "Longitude": "81.71261",
    "RegionCode": "GNGJ",
    "State": "Uttar Pradesh",
    "SubRegionCode": "GNGJ",
    "VenueAddress": "Jamo Shopping Centre, Near Bank of Baraoda-V mart, Gauriganj, Uttar Pradesh 227409, India",
    "VenueCode": "JDDG",
    "VenueName": "Jamo DD Cinema: Gauriganj"
  },
  "JHVN": {
    "AvailableFormats": "2D",
    "City": "Varanasi",
    "Latitude": "25.3358",
    "Longitude": "82.9773",
    "RegionCode": "VAR",
    "State": "Uttar Pradesh",
    "SubRegionCode": "VAR",
    "VenueAddress": "JHV Mall, The Mall Road, Cantonment, Varanasi Cantt, Near Nehru Park, Varanasi, Uttar Pradesh 221001, India",
    "VenueCode": "JHVN",
    "VenueName": "JHV Cinemas: Varanasi"
  },
  "JLSL": {
    "AvailableFormats": "2D",
    "City": "Peddapuram",
    "Latitude": "17.0801",
    "Longitude": "82.1326",
    "RegionCode": "PEDP",
    "State": "Andhra Pradesh",
    "SubRegionCode": "PEDP",
    "VenueAddress": "7, Peddapuram Rajahmundry Main Road, Chadalada, Near Main Mosque, Peddapuram, Andhra Pradesh 533437, India",
    "VenueCode": "JLSL",
    "VenueName": "Lalitha Sri Lalitha Theatre: Peddapuram"
  },
  "JMRC": {
    "AvailableFormats": "2D",
    "City": "Vellampalli",
    "Latitude": "15.6382",
    "Longitude": "80.0137",
    "RegionCode": "VMPL",
    "State": "Andhra Pradesh",
    "SubRegionCode": "VMPL",
    "VenueAddress": "Vellampalli - Tallur Road, Near Panchayathi Office, Vellampalli, Andhra Pradesh 523211, India",
    "VenueCode": "JMRC",
    "VenueName": "JMR Cinemas: Vellampalli"
  },
  "JSCH": {
    "AvailableFormats": "",
    "City": "Haldwani",
    "FirstTracked": "2026-07-14",
    "Latitude": "29.2267",
    "Longitude": "79.4217",
    "RegionCode": "HALD",
    "State": "Uttarakhand",
    "SubRegionCode": "HALD",
    "VenueAddress": "JAGS City Mall, Naripur, Lamachaur Khas, Near Amrapali University, Haldwani, Uttarakhand 263139, India",
    "VenueCode": "JSCH",
    "VenueName": "Jags Cinema: Haldwani"
  },
  "JTGA": {
    "AvailableFormats": "",
    "City": "Lucknow",
    "FirstTracked": "2026-07-14",
    "Latitude": "26.84866",
    "Longitude": "80.92571",
    "RegionCode": "LUCK",
    "State": "Uttar Pradesh",
    "SubRegionCode": "LUCK",
    "VenueAddress": "Central Hotal, Khayali Ganj, Aminabad, Near Ameeruddaula Jhande Wala Park, Lucknow, Uttar Pradesh 226018, India",
    "VenueCode": "JTGA",
    "VenueName": "Jagat Cinema: Lucknow"
  },
  "JTME": {
    "AvailableFormats": "",
    "City": "Maheshwar",
    "FirstTracked": "2026-07-14",
    "Latitude": "22.178774",
    "Longitude": "75.58646",
    "RegionCode": "MAHE",
    "State": "Madhya Pradesh",
    "SubRegionCode": "MAHE",
    "VenueAddress": "Near Ajanta Lodge, Dhamnod Road, Maheshwar, Madhya Pradesh 451224, India",
    "VenueCode": "JTME",
    "VenueName": "Janata Talkies: Maheshwar"
  },
  "JTPL": {
    "AvailableFormats": "2D",
    "City": "Chennai",
    "Latitude": "12.9697",
    "Longitude": "80.1494",
    "RegionCode": "CHEN",
    "State": "Tamil Nadu",
    "SubRegionCode": "CHEN",
    "VenueAddress": "Srinivasa Perumal Koil, Rajendra Nagar, Pallavaram, Behind Pallavaram Bus Stop, Chennai, Tamil Nadu 600043, India",
    "VenueCode": "JTPL",
    "VenueName": "Janatha Theatre 4K AC DTS (JBL AUDIO): Pallavaram"
  },
  "JTSM": {
    "AvailableFormats": "2D",
    "City": "Nellore",
    "Latitude": "14.4561",
    "Longitude": "79.9816",
    "RegionCode": "NELL",
    "State": "Andhra Pradesh",
    "SubRegionCode": "NELL",
    "VenueAddress": "Ramji Nagar, ., Nellore, Andhra Pradesh 524001, India",
    "VenueCode": "JTSM",
    "VenueName": "Siri Multiplex: Nellore"
  },
  "JTYS": {
    "AvailableFormats": "2D",
    "City": "Vizag (Visakhapatnam)",
    "Latitude": "17.7255",
    "Longitude": "83.3025",
    "RegionCode": "SABB",
    "State": "Andhra Pradesh",
    "SubRegionCode": "SABB",
    "VenueAddress": "Station Road, Dondaparthy, Dwaraka Nagar, Vizag, Andhra Pradesh 530016, India",
    "VenueCode": "JTYS",
    "VenueName": "Sangam Theatre 4K Dolby Atmos: Vizag"
  },
  "JYKL": {
    "AvailableFormats": "3D|2D",
    "City": "Kolkata",
    "Latitude": "22.7609",
    "Longitude": "88.3668",
    "RegionCode": "KOLK",
    "State": "West Bengal",
    "SubRegionCode": "KOLK",
    "VenueAddress": "2, B.T Road, Barrackpore Chiriamore, North 24 Parganas, Near Samanta Automobiles and SBI Railway Station Branch, Kolkata, West Bengal 700120, India",
    "VenueCode": "JYKL",
    "VenueName": "Jayanti Cinema: Barrackpore"
  },
  "KAGY": {
    "AvailableFormats": "",
    "City": "Jaggayyapeta",
    "FirstTracked": "2026-07-14",
    "Latitude": "16.8928",
    "Longitude": "80.1012",
    "RegionCode": "JGGY",
    "State": "Andhra Pradesh",
    "SubRegionCode": "JGGY",
    "VenueAddress": "JRC College Road, Y.Y. Colony, Jaggayyapeta, Andhra Pradesh 521175, India",
    "VenueCode": "KAGY",
    "VenueName": "Kamala Theater: Jaggayyapeta"
  },
  "KAVE": {
    "AvailableFormats": "2D",
    "City": "Coimbatore",
    "Latitude": "11.0192",
    "Longitude": "76.9639",
    "RegionCode": "COIM",
    "State": "Tamil Nadu",
    "SubRegionCode": "COIM",
    "VenueAddress": "No 167, Dr Rajendraprasad Road (100 ft road), Karpagam Cine Complex, Gandhipuram, Coimbatore, Tamil Nadu 641012, India",
    "VenueCode": "KAVE",
    "VenueName": "Kaveri Cinema: Coimbatore"
  },
  "KCCG": {
    "AvailableFormats": "2D",
    "City": "Gwalior",
    "Latitude": "26.2045",
    "Longitude": "78.1555",
    "RegionCode": "GWAL",
    "State": "Madhya Pradesh",
    "SubRegionCode": "GWAL",
    "VenueAddress": "Lashkar, Gangwal Bhawan Marg, Gwalior, Madhya Pradesh 474001, India",
    "VenueCode": "KCCG",
    "VenueName": "Kailash Cineplex Dolby Digital: Gwalior"
  },
  "KCMW": {
    "AvailableFormats": "2D",
    "City": "Mawana",
    "Latitude": "29.1007",
    "Longitude": "77.9156",
    "RegionCode": "MERT",
    "State": "Uttar Pradesh",
    "SubRegionCode": "MERT",
    "VenueAddress": "Mill Road, Mohalla Kalyan Singh, Mawana, Uttar Pradesh 250401, India",
    "VenueCode": "KCMW",
    "VenueName": "Kapil Cinema: Mawana"
  },
  "KDCA": {
    "AvailableFormats": "",
    "City": "Akbarpur",
    "FirstTracked": "2026-07-14",
    "Latitude": "26.417946",
    "Longitude": "82.53027",
    "RegionCode": "AKBR",
    "State": "Uttar Pradesh",
    "SubRegionCode": "AKBR",
    "VenueAddress": "Indralok Colony, Shahzad Pur, Akbarpur, Uttar Pradesh 224122, India",
    "VenueCode": "KDCA",
    "VenueName": "Kapoor DD Cinemas: Akbarpur"
  },
  "KFMT": {
    "AvailableFormats": "2D",
    "City": "Thalikulam",
    "Latitude": "10.4413",
    "Longitude": "76.0938",
    "RegionCode": "THAI",
    "State": "Kerala",
    "SubRegionCode": "THAI",
    "VenueAddress": "Karthika Movies, National Highway 66, Thalikulam, Kerala 680569, India",
    "VenueCode": "KFMT",
    "VenueName": "Karthika Fun Movies Thalikulam RGB 4K Laser Atmos"
  },
  "KIGH": {
    "AvailableFormats": "2D",
    "City": "Mandla",
    "Latitude": "22.5624",
    "Longitude": "80.3518",
    "RegionCode": "MADL",
    "State": "Madhya Pradesh",
    "SubRegionCode": "MADL",
    "VenueAddress": "Maharajpur, Kolpewadi, Mandla Road, Rangoli Restaurant, Mandla, Madhya Pradesh 481665, India",
    "VenueCode": "KIGH",
    "VenueName": "Kingfisher Multiplex: Mandla"
  },
  "KKTJ": {
    "AvailableFormats": "2D",
    "City": "Jeypore",
    "Latitude": "18.8573",
    "Longitude": "82.5722",
    "RegionCode": "JEYP",
    "State": "Odisha",
    "SubRegionCode": "JEYP",
    "VenueAddress": "Bidyadhar Market Road, Mill Street, Jeypore, Odisha 764001, India",
    "VenueCode": "KKTJ",
    "VenueName": "Korosudha Kalamandir Theatre: Jeypore"
  },
  "KMJR": {
    "AvailableFormats": "2D",
    "City": "Jintur",
    "Latitude": "19.5956",
    "Longitude": "76.6741",
    "RegionCode": "PARB",
    "State": "Maharashtra",
    "SubRegionCode": "PARB",
    "VenueAddress": "Jalna, Jintur Road, Jintur, Maharashtra 431509, India",
    "VenueCode": "KMJR",
    "VenueName": "Khushi Multiplex: Jintur"
  },
  "KNOX": {
    "AvailableFormats": "2D",
    "City": "Keonjhar",
    "Latitude": "21.6354",
    "Longitude": "85.616",
    "RegionCode": "KNJH",
    "State": "Odisha",
    "SubRegionCode": "KNJH",
    "VenueAddress": "Kashvi Mall, Mining Road, Opposite Keonjhar Law College, Keonjhar, Odisha 758001, India",
    "VenueCode": "KNOX",
    "VenueName": "KNOX Cinema: Keonjhar"
  },
  "KRBC": {
    "AvailableFormats": "2D|3D",
    "City": "Bahadurgarh",
    "Latitude": "28.6779",
    "Longitude": "76.8975",
    "RegionCode": "BAHD",
    "State": "Haryana",
    "SubRegionCode": "BAHD",
    "VenueAddress": "2nd Floor, Minervas West Side Mall, Sector 14, Jhajjar Road, Jhajjar, Bahadurgarh, Haryana 124507, India",
    "VenueCode": "KRBC",
    "VenueName": "KRB Cineplex: Bahadurgarh"
  },
  "KRPM": {
    "AvailableFormats": "2D",
    "City": "Kurumaseri",
    "Latitude": "10.180087",
    "Longitude": "76.331202",
    "RegionCode": "KURY",
    "State": "Kerala",
    "SubRegionCode": "KURY",
    "VenueAddress": "N Poovathusssery - Meladoor Road, Nearby Kaitharan Build Ware, Kurumaseri, Kerala 683579, India",
    "VenueCode": "KRPM",
    "VenueName": "Kripa Movies 4K Dolby: Kurumassery"
  },
  "KSDE": {
    "AvailableFormats": "",
    "City": "Deoli (Rajasthan)",
    "FirstTracked": "2026-07-14",
    "Latitude": "25.76135",
    "Longitude": "75.37665",
    "RegionCode": "DEOY",
    "State": "Rajasthan",
    "SubRegionCode": "DEOY",
    "VenueAddress": "National Highway 52, Tonk Road, Narayani Nagar, Deoli (Rajasthan), Rajasthan 304804, India",
    "VenueCode": "KSDE",
    "VenueName": "Kisan Talkies: Deoli"
  },
  "KSTC": {
    "AvailableFormats": "2D",
    "City": "Alappuzha",
    "Latitude": "9.68907",
    "Longitude": "76.3428",
    "RegionCode": "CRTL",
    "State": "Kerala",
    "SubRegionCode": "CRTL",
    "VenueAddress": "Cherthala Road, Kodathikavala, Cherthala, Near State Bank of India, Cherthala Branch, Alappuzha, Kerala 688524, India",
    "VenueCode": "KSTC",
    "VenueName": "Cherthala: Kairali Sree Theatre"
  },
  "KTEK": {
    "AvailableFormats": "2D",
    "City": "Kochi",
    "Latitude": "9.97858",
    "Longitude": "76.2826",
    "RegionCode": "PALY",
    "State": "Kerala",
    "SubRegionCode": "PALY",
    "VenueAddress": "Paza Hotel, Mahatma Gandhi Road, Shenoys - Ernakulam, Near Abad, Kochi, Kerala 682011, India",
    "VenueCode": "KTEK",
    "VenueName": "Kavitha Theatre 4K 3D Dolby 7.1: Ernakulam"
  },
  "KTTT": {
    "AvailableFormats": "",
    "City": "Tonk",
    "FirstTracked": "2026-07-14",
    "Latitude": "26.173922",
    "Longitude": "75.794624",
    "RegionCode": "TONK",
    "State": "Rajasthan",
    "SubRegionCode": "TONK",
    "VenueAddress": "Rooi Panch ka Maidan, Ambika Colony, Near Janki Bai Guest House, Tonk, Rajasthan 304001, India",
    "VenueCode": "KTTT",
    "VenueName": "Kiran Talkies: Tonk"
  },
  "LACK": {
    "AvailableFormats": "",
    "City": "Chanpatia",
    "FirstTracked": "2026-07-14",
    "Latitude": "26.948313",
    "Longitude": "84.53663",
    "RegionCode": "CHAT",
    "State": "Bihar",
    "SubRegionCode": "CHAT",
    "VenueAddress": "Chanpatia Station Road, Near Chanpatia Police Station, Chanpatia, Bihar 845449, India",
    "VenueCode": "LACK",
    "VenueName": "Lal Talkies(AC, Dolby 7.1): Chanpatia"
  },
  "LASK": {
    "AvailableFormats": "",
    "City": "Karaikal",
    "FirstTracked": "2026-07-14",
    "Latitude": "10.936586",
    "Longitude": "79.830025",
    "RegionCode": "KARA",
    "State": "Tamil Nadu",
    "SubRegionCode": "KARA",
    "VenueAddress": "National Highway 45A, Viola Garden, Nehrunagar, Karaikal, Puducherry, Near Pondicherry University, Karaikal, Tamil Nadu 609605, India",
    "VenueCode": "LASK",
    "VenueName": "LA Cinema Shamina A/C Dolby Atmos: Karaikal"
  },
  "LCMV": {
    "AvailableFormats": "2D",
    "City": "Kankavli",
    "Latitude": "16.2655",
    "Longitude": "73.7061",
    "RegionCode": "KNKS",
    "State": "Maharashtra",
    "SubRegionCode": "KNKS",
    "VenueAddress": "Achara Road, Near - Police Station, Kalmath, Kankavli, Maharashtra 416602, India",
    "VenueCode": "LCMV",
    "VenueName": "Laxmi Chitramandir: Kankavli"
  },
  "LCZP": {
    "AvailableFormats": "2D",
    "City": "Zirakpur",
    "Latitude": "30.6599",
    "Longitude": "76.8218",
    "RegionCode": "CHD",
    "State": "Punjab",
    "SubRegionCode": "ZRIK",
    "VenueAddress": "Paras Down Town Square Mall, The Golden Plaza Hotel, Ambala Chandigarh Express Way, Zirakpur, Zirakpur, Punjab 140603, India",
    "VenueCode": "LCZP",
    "VenueName": "Legend Cinemas: Paras Downtown Square, Zirakpur"
  },
  "LITH": {
    "AvailableFormats": "2D",
    "City": "Hinganghat",
    "Latitude": "20.5505",
    "Longitude": "78.8364",
    "RegionCode": "HINA",
    "State": "Maharashtra",
    "SubRegionCode": "HINA",
    "VenueAddress": "Civil Lines Road, Dag Borkhedi, Hinganghat, Maharashtra 442301, India",
    "VenueCode": "LITH",
    "VenueName": "Laxmi Talkies: Hinganghat"
  },
  "LKTK": {
    "AvailableFormats": "2D",
    "City": "Karur",
    "Latitude": "10.9587",
    "Longitude": "78.0829",
    "RegionCode": "KARU",
    "State": "Tamil Nadu",
    "SubRegionCode": "KARU",
    "VenueAddress": "No 61, Dindigul Road, Opposite Bombay sweets and Bakery, Karur, Tamil Nadu 639001, India",
    "VenueCode": "LKTK",
    "VenueName": "Lakshmi Raam Theatre: Karur"
  },
  "LMSR": {
    "AvailableFormats": "2D",
    "City": "Sehore",
    "Latitude": "23.2016",
    "Longitude": "77.0796",
    "RegionCode": "SEHO",
    "State": "Madhya Pradesh",
    "SubRegionCode": "SEHO",
    "VenueAddress": "42, Sindhi Colony, Main Road, Near State bank of India, Next to City Post Office, Sehore, Madhya Pradesh 466001, India",
    "VenueCode": "LMSR",
    "VenueName": "Lisa Multiplex Screen 2: Sehore"
  },
  "LSCM": {
    "AvailableFormats": "2D",
    "City": "Gurugram (Gurgaon)",
    "Latitude": "28.4347",
    "Longitude": "77.0681",
    "RegionCode": "NCR",
    "State": "NCR",
    "SubRegionCode": "GURG",
    "VenueAddress": "Mall Fifty One 104, Sector 51, Gurugram (Gurgaon), NCR 122003, India",
    "VenueCode": "LSCM",
    "VenueName": "Legend Cinema Lounges: Mall Fifty One, Gurgaon"
  },
  "LXCM": {
    "AvailableFormats": "",
    "City": "Navsari",
    "FirstTracked": "2026-07-14",
    "Latitude": "20.954329",
    "Longitude": "72.922935",
    "RegionCode": "NVSR",
    "State": "Gujarat",
    "SubRegionCode": "NVSR",
    "VenueAddress": "Karwad Road, Fuwara, Navsari, Gujarat 396445, India",
    "VenueCode": "LXCM",
    "VenueName": "Laxmi Cine Magic Multiplex: Navsari"
  },
  "MAAM": {
    "AvailableFormats": "",
    "City": "Ahmedabad",
    "FirstTracked": "2026-07-14",
    "Latitude": "22.9973",
    "Longitude": "72.5927",
    "RegionCode": "AHD",
    "State": "Gujarat",
    "SubRegionCode": "AHD",
    "VenueAddress": "Mira Cinema BRTS Bus Stop, Bhairavnath Road, Maninagar, Ahmedabad, Gujarat 380008, India",
    "VenueCode": "MAAM",
    "VenueName": "Mira Cinema: Ahmedabad"
  },
  "MACX": {
    "AvailableFormats": "2D",
    "City": "Shajapur",
    "Latitude": "23.4169",
    "Longitude": "76.2898",
    "RegionCode": "SJUR",
    "State": "Madhya Pradesh",
    "SubRegionCode": "SJUR",
    "VenueAddress": "Near Hotel Manorama Garden, Bercha Road, Shajapur, Madhya Pradesh 465001, India",
    "VenueCode": "MACX",
    "VenueName": "Manorama Cineplex: Shajapur"
  },
  "MAHT": {
    "AvailableFormats": "2D",
    "City": "Dakshin Barasat",
    "Latitude": "22.2236",
    "Longitude": "88.4478",
    "RegionCode": "DAKS",
    "State": "West Bengal",
    "SubRegionCode": "DAKS",
    "VenueAddress": "P/S Joynagar, Dist: 24 Parganas (South), Baruipur-Kulpi Road, Dakshin Barasat, West Bengal 743372, India",
    "VenueCode": "MAHT",
    "VenueName": "Mahamaya Talkies: Dakshin Barasat"
  },
  "MAPJ": {
    "AvailableFormats": "",
    "City": "Jhajha",
    "FirstTracked": "2026-07-14",
    "Latitude": "24.773512",
    "Longitude": "86.375114",
    "RegionCode": "JHAA",
    "State": "Bihar",
    "SubRegionCode": "JHAA",
    "VenueAddress": "No 827, Bus stand Road, Jhajha, Bihar 811308, India",
    "VenueCode": "MAPJ",
    "VenueName": "Maa Lakhi Cineplex (70mm, Dolby 5.1): Jhajha"
  },
  "MAVO": {
    "AvailableFormats": "2D|3D",
    "City": "Samastipur",
    "Latitude": "25.8496",
    "Longitude": "85.7733",
    "RegionCode": "SMST",
    "State": "Bihar",
    "SubRegionCode": "SMST",
    "VenueAddress": "Fourth Floor, Vinuss One Building, NH 322, Near Pantaloon, Mohanpur, Samastipur, Bihar 848101, India",
    "VenueCode": "MAVO",
    "VenueName": "Mukta A2 Cinemas: Vinuss One Mall, Samastipur"
  },
  "MBCR": {
    "AvailableFormats": "2D|3D",
    "City": "Jodhpur",
    "Latitude": "26.2837",
    "Longitude": "73.0383",
    "RegionCode": "JODH",
    "State": "Rajasthan",
    "SubRegionCode": "JODH",
    "VenueAddress": "Blue City Mall, 3rd Floor, Circuit House Road, Jodhpur, Rajasthan 342001, India",
    "VenueCode": "MBCR",
    "VenueName": "Miraj Cinemas: Blue City Mall, Jodhpur"
  },
  "MCAN": {
    "AvailableFormats": "3D|2D",
    "City": "Ulhasnagar",
    "Latitude": "19.2083",
    "Longitude": "73.1966",
    "RegionCode": "MUMBAI",
    "State": "Maharashtra",
    "SubRegionCode": "ULHA",
    "VenueAddress": "854, Kalyan - Badlapur Road, Wimco Naka Matoshree Nagar, Ambernath, Ulhasnagar, Maharashtra 421505, India",
    "VenueCode": "MCAN",
    "VenueName": "Miraj Cinemas, Star: Ambernath"
  },
  "MCCR": {
    "AvailableFormats": "3D|2D",
    "City": "Chandrapur",
    "Latitude": "19.9774",
    "Longitude": "79.2829",
    "RegionCode": "CHAN",
    "State": "Maharashtra",
    "SubRegionCode": "CHAN",
    "VenueAddress": "MDR Mall and Multiplex, Survey No.-59, Wadgaon Bapat Nagar, Chandrapur, Maharashtra 442401, India",
    "VenueCode": "MCCR",
    "VenueName": "Miraj Cinema: Chandrapur"
  },
  "MCFP": {
    "AvailableFormats": "",
    "City": "Fatehpur",
    "FirstTracked": "2026-07-14",
    "Latitude": "26.03003",
    "Longitude": "80.580124",
    "RegionCode": "FATE",
    "State": "Uttar Pradesh",
    "SubRegionCode": "FATE",
    "VenueAddress": "Kashi Complex, Mughal Road, Near Laluli Chauraha Bindki, Fatehpur, Uttar Pradesh 212635, India",
    "VenueCode": "MCFP",
    "VenueName": "Aryan M Cinemas: Bindki, Fatehpur"
  },
  "MCHP": {
    "AvailableFormats": "",
    "City": "Hoshiarpur",
    "FirstTracked": "2026-07-14",
    "Latitude": "31.528864",
    "Longitude": "75.907646",
    "RegionCode": "HOSH",
    "State": "Punjab",
    "SubRegionCode": "HOSH",
    "VenueAddress": "Js Eminent Mall, Sutheri Road, Manavta Nagar, Hoshiarpur, Punjab 146001, India",
    "VenueCode": "MCHP",
    "VenueName": "Miraj Cinemas: Hoshiarpur"
  },
  "MCKO": {
    "AvailableFormats": "2D",
    "City": "Kolkata",
    "Latitude": "22.5973",
    "Longitude": "88.3719",
    "RegionCode": "KOLK",
    "State": "West Bengal",
    "SubRegionCode": "KOLK",
    "VenueAddress": "136/2, Bidhan Sarani, Shyam Bazar, Sovabazar, Hati Bagan, Kolkata, West Bengal 700004, India",
    "VenueCode": "MCKO",
    "VenueName": "Minar Cinema: Kolkata"
  },
  "MCMP": {
    "AvailableFormats": "",
    "City": "Patna",
    "Latitude": "25.6178",
    "Longitude": "85.1488",
    "RegionCode": "PATN",
    "State": "Bihar",
    "SubRegionCode": "PATN",
    "VenueAddress": "Gandhi Maidan Road, Bakerganj, Patna, Bihar 800004, India",
    "VenueCode": "MCMP",
    "VenueName": "Mona: Christie 4K RGB Laser & Dolby Atmos"
  },
  "MCRL": {
    "AvailableFormats": "2D|3D",
    "City": "Kanpur",
    "Latitude": "26.4564",
    "Longitude": "80.3342",
    "RegionCode": "KANP",
    "State": "Uttar Pradesh",
    "SubRegionCode": "KANP",
    "VenueAddress": "Ratan Elegance, Afim Kothi Chauraha, 86/275, Rajpurwa, Kanpur, Uttar Pradesh 208012, India",
    "VenueCode": "MCRL",
    "VenueName": "Movietime Cinemas: Ratan Elegance, Kanpur"
  },
  "MCSR": {
    "AvailableFormats": "",
    "City": "Saharanpur",
    "FirstTracked": "2026-07-14",
    "Latitude": "29.92732",
    "Longitude": "77.52606",
    "RegionCode": "SAHA",
    "State": "Uttar Pradesh",
    "SubRegionCode": "SAHA",
    "VenueAddress": "GNG Mall, 91-93, 2nd floor, Mavikaala, Pant Vihar, South Saharanpur, Near Standard Chartered Bank, Saharanpur, Uttar Pradesh 247001, India",
    "VenueCode": "MCSR",
    "VenueName": "Miraj Cinemas: Saharanpur, Uttar Pradesh"
  },
  "MCVM": {
    "AvailableFormats": "",
    "City": "Delhi",
    "Latitude": "28.6123",
    "Longitude": "77.3111",
    "RegionCode": "NCR",
    "State": "NCR",
    "SubRegionCode": "DELHI",
    "VenueAddress": "Chand Cinema Building, Trilokpuri, Mayur Vihar Phase 1, Near Sanjay Lake Trilokpuri Metro Station, New Delhi, Delhi, NCR 110091, India",
    "VenueCode": "MCVM",
    "VenueName": "Miraj Cinemas: Chand, Mayur Vihar Phase 1"
  },
  "MDIT": {
    "AvailableFormats": "2D",
    "City": "Trichy",
    "Latitude": "10.7464",
    "Longitude": "78.59",
    "RegionCode": "TRIC",
    "State": "Tamil Nadu",
    "SubRegionCode": "TRIC",
    "VenueAddress": "484 Navalurkottapattu, Dindigul High Road, Trichy, Tamil Nadu 620009, India",
    "VenueCode": "MDIT",
    "VenueName": "A-Moorthys Drive-In Theatre: Trichy"
  },
  "MELD": {
    "AvailableFormats": "2D",
    "City": "Vizag (Visakhapatnam)",
    "Latitude": "17.7113",
    "Longitude": "83.3005",
    "RegionCode": "SABB",
    "State": "Andhra Pradesh",
    "SubRegionCode": "SABB",
    "VenueAddress": "Suryabagh, Jagadamba Junction, V Max Theatre, Vizag, Andhra Pradesh 530020, India",
    "VenueCode": "MELD",
    "VenueName": "Sri Melody HDR Dolby Atmos: Vizag"
  },
  "METH": {
    "AvailableFormats": "2D|3D",
    "City": "Ahmedabad",
    "Latitude": "23.1027",
    "Longitude": "72.5952",
    "RegionCode": "AHD",
    "State": "Gujarat",
    "SubRegionCode": "AHD",
    "VenueAddress": "4D Square Mall, Visat - Gandhinagar Highway, Ahmedabad, Gujarat 380005, India",
    "VenueCode": "METH",
    "VenueName": "PVR: Motera, Ahmedabad"
  },
  "MHFF": {
    "AvailableFormats": "3D|2D",
    "City": "Yavatmal",
    "Latitude": "20.4011",
    "Longitude": "78.1302",
    "RegionCode": "YAVA",
    "State": "Maharashtra",
    "SubRegionCode": "YAVA",
    "VenueAddress": "Bombaywala Compound, C/o Zuber Imdad Ali Bombaywala, Plot No.6 Wanjari Fail SBI Road, Opposite Khoja Colony, Yavatmal, Maharashtra 445001, India",
    "VenueCode": "MHFF",
    "VenueName": "MH29 Fun N Food Miniplex: Yavatmal"
  },
  "MINL": {
    "AvailableFormats": "2D",
    "City": "Sangli",
    "Latitude": "17.094",
    "Longitude": "74.459",
    "RegionCode": "ASMA",
    "State": "Maharashtra",
    "SubRegionCode": "ASMA",
    "VenueAddress": "Karad Tasgaon Road, Near Old S T Stand, Sangli, Maharashtra 416310, India",
    "VenueCode": "MINL",
    "VenueName": "Minakshi Cinema: Palus"
  },
  "MJMJ": {
    "AvailableFormats": "2D|3D",
    "City": "Jabalpur",
    "Latitude": "23.1241",
    "Longitude": "79.9273",
    "RegionCode": "JABL",
    "State": "Madhya Pradesh",
    "SubRegionCode": "JABL",
    "VenueAddress": "2nd Floor, South Avenue Mall, Narmada Road, Polipather, Jabalpur, Madhya Pradesh 482008, India",
    "VenueCode": "MJMJ",
    "VenueName": "Movie Magic (SAM): Jabalpur"
  },
  "MKNS": {
    "AvailableFormats": "",
    "City": "Aligarh",
    "FirstTracked": "2026-07-14",
    "Latitude": "27.886385",
    "Longitude": "78.07768",
    "RegionCode": "ALI",
    "State": "Uttar Pradesh",
    "SubRegionCode": "ALI",
    "VenueAddress": "Ramghat Road, Shyam Nagar, Aligarh, Uttar Pradesh 202001, India",
    "VenueCode": "MKNS",
    "VenueName": "Meenakshi Cinema: Aligarh"
  },
  "MLDT": {
    "AvailableFormats": "2D",
    "City": "Bengaluru",
    "Latitude": "12.9987",
    "Longitude": "77.5035",
    "RegionCode": "HOKT",
    "State": "Karnataka",
    "SubRegionCode": "HOKT",
    "VenueAddress": "Magadi Main Road, Near Hegganahalli Cross, Sunkadakatte, Bengaluru, Karnataka 560091, India",
    "VenueCode": "MLDT",
    "VenueName": "Mohan Cinema Barco 4K A/C 7.1: Sunkadakatte"
  },
  "MMCK": {
    "AvailableFormats": "2D",
    "City": "Katghora",
    "Latitude": "22.4996",
    "Longitude": "82.5419",
    "RegionCode": "KATG",
    "State": "Chhattisgarh",
    "SubRegionCode": "KATG",
    "VenueAddress": "Murli Metro Cinema, Near Gopal Petro Pump, Bilaspur - Katghora Highway, Katghora, Chhattisgarh 495445, India",
    "VenueCode": "MMCK",
    "VenueName": "Murli Metro Cinema: Katghora"
  },
  "MMKJ": {
    "AvailableFormats": "",
    "City": "Selu",
    "FirstTracked": "2026-07-14",
    "Latitude": "19.460514",
    "Longitude": "76.43564",
    "RegionCode": "SELU",
    "State": "Maharashtra",
    "SubRegionCode": "SELU",
    "VenueAddress": "Swami Vivekanand Nagar, Maulana Azad Nagar, College Road Roadseludegaon, Phata Road, Sailu, Selu, Maharashtra 431503, India",
    "VenueCode": "MMKJ",
    "VenueName": "Meenakshi Cinemark: Selu"
  },
  "MMOM": {
    "AvailableFormats": "",
    "City": "Patiala",
    "FirstTracked": "2026-07-14",
    "Latitude": "30.337278",
    "Longitude": "76.39434",
    "RegionCode": "PATI",
    "State": "Punjab",
    "SubRegionCode": "PATI",
    "VenueAddress": "MovieMax, 2nd Floor, Omaxe Mall, Near Kali Mata Mandir, Patiala, Punjab 147001, India",
    "VenueCode": "MMOM",
    "VenueName": "MovieMax: Omaxe Mall, Patiala (SRS Earlier)"
  },
  "MMTZ": {
    "AvailableFormats": "",
    "City": "Nashik",
    "FirstTracked": "2026-07-14",
    "Latitude": "20.005316",
    "Longitude": "73.76628",
    "RegionCode": "NASK",
    "State": "Maharashtra",
    "SubRegionCode": "NASK",
    "VenueAddress": "MovieMax, Above Big Bazaar, College Road, Near Vitthal Mandir, Nashik, Maharashtra 422005, India",
    "VenueCode": "MMTZ",
    "VenueName": "MovieMaX: The Zone, College Road, Nashik"
  },
  "MMZP": {
    "AvailableFormats": "2D",
    "City": "Ponda",
    "Latitude": "15.4001",
    "Longitude": "74.0185",
    "RegionCode": "GOA",
    "State": "Goa",
    "SubRegionCode": "PONA",
    "VenueAddress": "Upper Bazar Road, Prabhu Nagar, Ponda, Goa 403401, India",
    "VenueCode": "MMZP",
    "VenueName": "Magic Moviez: Ponda"
  },
  "MNSC": {
    "AvailableFormats": "",
    "City": "Jajpur Road",
    "FirstTracked": "2026-07-14",
    "Latitude": "20.93864",
    "Longitude": "86.15278",
    "RegionCode": "JAJP",
    "State": "Odisha",
    "SubRegionCode": "JAJP",
    "VenueAddress": "Vyasanagar, Panikoili Road, Jajpur Road, Odisha 755019, India",
    "VenueCode": "MNSC",
    "VenueName": "Mission Shakti Cinema: Jajpur Road"
  },
  "MRAA": {
    "AvailableFormats": "2D|3D",
    "City": "Hyderabad",
    "Latitude": "17.4824",
    "Longitude": "78.4487",
    "RegionCode": "HYD",
    "State": "Telangana",
    "SubRegionCode": "HYD",
    "VenueAddress": "A2A Central Mall, 4th Floor, Adarsh Nagar, Hyderabad, Telangana 500037, India",
    "VenueCode": "MRAA",
    "VenueName": "Miraj Cinemas: A2A Central Mall, Balanagar"
  },
  "MRHT": {
    "AvailableFormats": "",
    "City": "Kothagudem",
    "Latitude": "17.5638",
    "Longitude": "80.623",
    "RegionCode": "KTGM",
    "State": "Telangana",
    "SubRegionCode": "KTGM",
    "VenueAddress": "9-60 Behind Rajya Laxmi Motors Laxmidevipally, Srinagar, Laxmidevipalle Rural, Near Axis Bank, Kothagudem, Telangana 507101, India",
    "VenueCode": "MRHT",
    "VenueName": "Maheshwari 2K Dolby Atmos: Kothagudem"
  },
  "MRTE": {
    "AvailableFormats": "2D",
    "City": "Mandya",
    "Latitude": "12.5275",
    "Longitude": "76.8955",
    "RegionCode": "MND",
    "State": "Karnataka",
    "SubRegionCode": "MND",
    "VenueAddress": "Bangalore Mysore Highway, M.C. Road, Ashok Nagar, Mandya, Karnataka 571401, India",
    "VenueCode": "MRTE",
    "VenueName": "Mahaveer Theatre: Mandya"
  },
  "MSMA": {
    "AvailableFormats": "2D|3D",
    "City": "Kolkata",
    "Latitude": "22.5777",
    "Longitude": "88.4008",
    "RegionCode": "KOLK",
    "State": "West Bengal",
    "SubRegionCode": "KOLK",
    "VenueAddress": "Mani Square Mall,Plot No 164/1, EM Bypass Road, Beside Apollo Gleaneagles Hospital, Kolkata, West Bengal 700054, India",
    "VenueCode": "MSMA",
    "VenueName": "PVR: Mani Square Mall, Kolkata"
  },
  "MTBN": {
    "AvailableFormats": "",
    "City": "Barwani",
    "FirstTracked": "2026-07-14",
    "Latitude": "22.02927",
    "Longitude": "74.90415",
    "RegionCode": "BRWN",
    "State": "Madhya Pradesh",
    "SubRegionCode": "BRWN",
    "VenueAddress": "Moulana Azad Marg, Maa Vaishno Devi Road, Opposite Ganesh Temple, Near MPEB, Barwani, Madhya Pradesh 451551, India",
    "VenueCode": "MTBN",
    "VenueName": "Mahendra Talkies: Barwani"
  },
  "MTGD": {
    "AvailableFormats": "2D",
    "City": "Mumbai",
    "Latitude": "19.2519",
    "Longitude": "72.8629",
    "RegionCode": "MUMBAI",
    "State": "Maharashtra",
    "SubRegionCode": "MWEST",
    "VenueAddress": "Old Rajeshri Cinema Building, S V Road, Maratha Colony Road, Dahisar East, Near Ravindra Hotel, Mumbai, Maharashtra 400068, India",
    "VenueCode": "MTGD",
    "VenueName": "Movietime: Dahisar (E)"
  },
  "MTLM": {
    "AvailableFormats": "2D",
    "City": "Chennai",
    "Latitude": "13.2795",
    "Longitude": "80.2606",
    "RegionCode": "CHEN",
    "State": "Tamil Nadu",
    "SubRegionCode": "CHEN",
    "VenueAddress": "27,Thiruvottiyur High Road, Minjur, Tiruvallur, Chennai, Tamil Nadu 601203, India",
    "VenueCode": "MTLM",
    "VenueName": "Mani Talkies 2K RGB Laser ATMOS: Minjur"
  },
  "MTRB": {
    "AvailableFormats": "2D|3D",
    "City": "Ahmedabad",
    "Latitude": "23.0303",
    "Longitude": "72.4713",
    "RegionCode": "AHD",
    "State": "Gujarat",
    "SubRegionCode": "AHD",
    "VenueAddress": "5th floor, Block A, The Retail Park (TRP), Near Rajyash City, Central Bopal, Ahmedabad, Gujarat 380058, India",
    "VenueCode": "MTRB",
    "VenueName": "Mukta A2 Cinemas: The Retail Park (TRP) Bopal"
  },
  "MUCK": {
    "AvailableFormats": "3D|2D",
    "City": "Kalyan",
    "Latitude": "19.2602",
    "Longitude": "73.1236",
    "RegionCode": "MUMBAI",
    "State": "Maharashtra",
    "SubRegionCode": "KALYAN",
    "VenueAddress": "Triveni Grande, 4th Floor, D.B Chowk, Adharwadi Jail Road, Kalyan West, Thane, Near Don Bosco School, Kalyan, Maharashtra 421301, India",
    "VenueCode": "MUCK",
    "VenueName": "Mukta A2 Cinemas: Triveni Grande, Kalyan (West)"
  },
  "MVRP": {
    "AvailableFormats": "2D",
    "City": "Rudrapur",
    "Latitude": "28.9757",
    "Longitude": "79.3866",
    "RegionCode": "RUDP",
    "State": "Uttarakhand",
    "SubRegionCode": "RUDP",
    "VenueAddress": "Ground Floor, Old Chawla Cinema, Gaba Chowk, Near Essar Petrol Pump, Rudrapur, Uttarakhand 263153, India",
    "VenueCode": "MVRP",
    "VenueName": "Movietime Cinemas: Rudrapur"
  },
  "MXCS": {
    "AvailableFormats": "2D|3D",
    "City": "Greater Noida",
    "Latitude": "28.458",
    "Longitude": "77.5281",
    "RegionCode": "NCR",
    "State": "NCR",
    "SubRegionCode": "GRET",
    "VenueAddress": "MSX CINEMA, 3rd Floor, Sec-19, Block F, Industrial Area, Greater Noida, NCR 201310, India",
    "VenueCode": "MXCS",
    "VenueName": "MSX Cinemas: Greater Noida"
  },
  "MYCT": {
    "AvailableFormats": "2D",
    "City": "Thalayolaparambu",
    "Latitude": "9.78555",
    "Longitude": "76.4529",
    "RegionCode": "THAL",
    "State": "Kerala",
    "SubRegionCode": "THAL",
    "VenueAddress": "Thalayolaparambu P.O,Kottayam, Ernakulam Road, Ernakulam Road, Near Bharat Petrol Pump, Thalayolaparambu, Kerala 686605, India",
    "VenueCode": "MYCT",
    "VenueName": "MY Cinemas: Thalayolaparambu, Kerala"
  },
  "NACK": {
    "AvailableFormats": "2D",
    "City": "Kolkata",
    "Latitude": "22.5009",
    "Longitude": "88.3486",
    "RegionCode": "KOLK",
    "State": "West Bengal",
    "SubRegionCode": "KOLK",
    "VenueAddress": "85, Prince Anwar Shah Road, Tollygunge, Rajendra Prasad Colony, Kolkata, West Bengal 700033, India",
    "VenueCode": "NACK",
    "VenueName": "Navina Cinema: Tollygunge"
  },
  "NBCH": {
    "AvailableFormats": "2D",
    "City": "Diamond Harbour",
    "Latitude": "22.2053",
    "Longitude": "88.1842",
    "RegionCode": "MNHR",
    "State": "West Bengal",
    "SubRegionCode": "MNHR",
    "VenueAddress": "NH34 New Town, Harindanga, Jaydebpur, Diamond Harbour, West Bengal 743331, India",
    "VenueCode": "NBCH",
    "VenueName": "New Bijoli Cinema: Diamond Harbour"
  },
  "NCJA": {
    "AvailableFormats": "2D",
    "City": "Jalna",
    "Latitude": "19.835",
    "Longitude": "75.8936",
    "RegionCode": "JALN",
    "State": "Maharashtra",
    "SubRegionCode": "JALN",
    "VenueAddress": "Railway Station Road, Nariman Nagar, Jalna, Maharashtra 431213, India",
    "VenueCode": "NCJA",
    "VenueName": "Neelam Cineplex: Jalna"
  },
  "NCTH": {
    "AvailableFormats": "2D",
    "City": "Vizianagaram",
    "Latitude": "18.1174",
    "Longitude": "83.4003",
    "RegionCode": "JAMI",
    "State": "Andhra Pradesh",
    "SubRegionCode": "JAMI",
    "VenueAddress": "Chinna Veedhi, Balaji Nagar, MG Rd NCS Area, Near SBI Main Branch, Vizianagaram, Andhra Pradesh 535001, India",
    "VenueCode": "NCTH",
    "VenueName": "NCS 4K Laser Dolby Atmos: Vizianagaram"
  },
  "NEWC": {
    "AvailableFormats": "2D",
    "City": "Siliguri",
    "Latitude": "26.7048",
    "Longitude": "88.4286",
    "RegionCode": "SILI",
    "State": "West Bengal",
    "SubRegionCode": "SILI",
    "VenueAddress": "Ward 28, New Cinema Road, Para, Siliguri, West Bengal 734001, India",
    "VenueCode": "NEWC",
    "VenueName": "New Cinema: Siliguri"
  },
  "NKCL": {
    "AvailableFormats": "2D",
    "City": "Lakhimpur",
    "Latitude": "27.2374",
    "Longitude": "94.1065",
    "RegionCode": "LAHA",
    "State": "Assam",
    "SubRegionCode": "LAHA",
    "VenueAddress": "Adarsha Market Complex, North Lakhimpur, CD Road, Near State Bank of India, Lakhimpur, Assam 787001, India",
    "VenueCode": "NKCL",
    "VenueName": "A Nakshatra Cinemas: Lakhimpur"
  },
  "NMNA": {
    "AvailableFormats": "2D",
    "City": "Nagari",
    "Latitude": "13.3251",
    "Longitude": "79.5877",
    "RegionCode": "NAGI",
    "State": "Andhra Pradesh",
    "SubRegionCode": "NAGI",
    "VenueAddress": "NH71, Nagari, Near ABCWO office, Nagari, Andhra Pradesh 517590, India",
    "VenueCode": "NMNA",
    "VenueName": "NMC Cinemas A/C 3D 4K DOLBY ATMOS: Nagari"
  },