{
  "AACK": {
    "AvailableFormats": "",
    "City": "Kasdol",
    "FirstTracked": "2026-07-14",
    "Latitude": "21.621115",
    "Longitude": "82.424225",
    "RegionCode": "KASD",
    "State": "Chhattisgarh",
    "SubRegionCode": "KASD",
    "VenueAddress": "89/3,State Highway 14, Opposite Metro Studio, Kasdol, Chhattisgarh 493335, India",
    "VenueCode": "AACK",
    "VenueName": "Shri Balaji Cinema (Airconditioned): Kasdol"
  },
  "AAME": {
    "AvailableFormats": "2D",
    "City": "Deesa",
    "Latitude": "24.2421",
    "Longitude": "72.1826",
    "RegionCode": "DEES",
    "State": "Gujarat",
    "SubRegionCode": "DEES",
    "VenueAddress": "Multiplex Entertainment Complex, Patan Cross Road, Deesa, Gujarat 385535, India",
    "VenueCode": "AAME",
    "VenueName": "Shree Ram Multiplex: Deesa"
  },
  "AAVB": {
    "AvailableFormats": "2D",
    "City": "Vijayapura (Bijapur)",
    "Latitude": "16.8338",
    "Longitude": "75.7151",
    "RegionCode": "VJPR",
    "State": "Karnataka",
    "SubRegionCode": "VJPR",
    "VenueAddress": "Ram Mandir Road, Behind Sideshwara Gudi, Sholapur, Vijayapura (Bijapur), Karnataka 586101, India",
    "VenueCode": "AAVB",
    "VenueName": "Amir Talkies: Vijayapura (Bijapur)"
  },
  "ABND": {
    "AvailableFormats": "2D",
    "City": "Nandyal",
    "Latitude": "15.4858",
    "Longitude": "78.4861",
    "RegionCode": "NADY",
    "State": "Andhra Pradesh",
    "SubRegionCode": "NADY",
    "VenueAddress": "Ramnath Cine Complex, Telugu Peta, Nandyal, Andhra Pradesh 518501, India",
    "VenueCode": "ABND",
    "VenueName": "Abhiram Theater: Nandyal"
  },
  "ACBD": {
    "AvailableFormats": "",
    "City": "Basantpur",
    "FirstTracked": "2026-07-14",
    "Latitude": "26.1698",
    "Longitude": "84.6684",
    "RegionCode": "BABA",
    "State": "Bihar",
    "SubRegionCode": "BABA",
    "VenueAddress": "Abhishek Cineplex, Basant Pur, Siwan, Basantpur, Bihar 841406, India",
    "VenueCode": "ACBD",
    "VenueName": "Abhishek Cineplex: Basantpur"
  },
  "ACHP": {
    "AvailableFormats": "2D",
    "City": "Pasighat",
    "Latitude": "28.0594",
    "Longitude": "95.3313",
    "RegionCode": "PSHG",
    "State": "Arunachal Pradesh",
    "SubRegionCode": "PSHG",
    "VenueAddress": "Aarun Tamuk Complex, Main Market Pasighat, Near Arunachal Pradesh Rural Bank,Pasighat, Arunachal Pradesh 791102, India",
    "VenueCode": "ACHP",
    "VenueName": "Abor Cinema Hall: Pasighat"
  },
  "ACKL": {
    "AvailableFormats": "2D",
    "City": "Khila",
    "Latitude": "22.6733",
    "Longitude": "88.0003",
    "RegionCode": "KHIL",
    "State": "West Bengal",
    "SubRegionCode": "KHIL",
    "VenueAddress": "Udaynarayanpur, Munshirhat Road, Khila, West Bengal 711410, India",
    "VenueCode": "ACKL",
    "VenueName": "Aparupa Cinema: Khila"
  },
  "ACNB": {
    "AvailableFormats": "2D|3D",
    "City": "Barasat",
    "Latitude": "22.7199",
    "Longitude": "88.4875",
    "RegionCode": "BSRT",
    "State": "West Bengal",
    "SubRegionCode": "BSRT",
    "VenueAddress": "Bus Stand, 125/1, Jessore Road, Champadali, Barasat, West Bengal 700124, India",
    "VenueCode": "ACNB",
    "VenueName": "SSR Cinemas, Suncity Mall: Barasat"
  },
  "ACRT": {
    "AvailableFormats": "2D",
    "City": "Haliya",
    "Latitude": "16.7799",
    "Longitude": "79.3224",
    "RegionCode": "HALI",
    "State": "Telangana",
    "SubRegionCode": "HALI",
    "VenueAddress": "NH 565, Near ICICI Bank ATM, Haliya, Telangana 508377, India",
    "VenueCode": "ACRT",
    "VenueName": "Acchi Reddy Theater A/c Dolby DTS: Haliya"
  },
  "ACVZ": {
    "AvailableFormats": "",
    "City": "Vizianagaram",
    "FirstTracked": "2026-07-14",
    "Latitude": "18.118046",
    "Longitude": "83.411736",
    "RegionCode": "JAMI",
    "State": "Andhra Pradesh",
    "SubRegionCode": "JAMI",
    "VenueAddress": "New Poorna Road, Park Gate Area, Near Two Town Police Station, Vizianagaram, Andhra Pradesh 535001, India",
    "VenueCode": "ACVZ",
    "VenueName": "Aditya Theatre A/c Dts: Vizianagaram"
  },
  "ADDC": {
    "AvailableFormats": "2D",
    "City": "Lucknow",
    "Latitude": "26.8362",
    "Longitude": "81.002",
    "RegionCode": "LUCK",
    "State": "Uttar Pradesh",
    "SubRegionCode": "LUCK",
    "VenueAddress": "1/23, Vardan Khand, Sector 1, Gomti Nagar, Makhdoom Pur, Lucknow, Uttar Pradesh 226010, India",
    "VenueCode": "ADDC",
    "VenueName": "Antas DD Cinemas: Lucknow"
  },
  "AETE": {
    "AvailableFormats": "2D|3D",
    "City": "Thane",
    "Latitude": "19.1848",
    "Longitude": "72.9749",
    "RegionCode": "MUMBAI",
    "State": "Maharashtra",
    "SubRegionCode": "THNE",
    "VenueAddress": "Kopri Colony, Gidwani Road, Near Railway Station, Thane, Maharashtra 400603, India",
    "VenueCode": "AETE",
    "VenueName": "Anand Cinema: Thane"
  },
  "AICM": {
    "AvailableFormats": "2D",
    "City": "Madurai",
    "Latitude": "9.92601",
    "Longitude": "78.121",
    "RegionCode": "MADU",
    "State": "Tamil Nadu",
    "SubRegionCode": "MADU",
    "VenueAddress": "Thirumalairayar Padithurai Road, Simmakkal, Madurai Main, Near Sivan Temple, Madurai, Tamil Nadu 625001, India",
    "VenueCode": "AICM",
    "VenueName": "Annamalai Cinemas A/C 4K: Madurai"
  },
  "AKRC": {
    "AvailableFormats": "2D",
    "City": "Kundli",
    "Latitude": "28.8879",
    "Longitude": "77.1178",
    "RegionCode": "RAIH",
    "State": "NCR",
    "SubRegionCode": "RAIH",
    "VenueAddress": "3rd Floor, TDI Mall, Sonipat, Kundli, NCR 131101, India",
    "VenueCode": "AKRC",
    "VenueName": "AKR Cinemas,TDI Mall: Kundli"
  },
  "ALAT": {
    "AvailableFormats": "2D",
    "City": "Ponnamaravathi",
    "Latitude": "10.2757",
    "Longitude": "78.5367",
    "RegionCode": "PONM",
    "State": "Tamil Nadu",
    "SubRegionCode": "PONM",
    "VenueAddress": "Amman Kovil Street, Ponnamaravathy, Near Ponnamaravathi Police Station, Ponnamaravathi, Tamil Nadu 622407, India",
    "VenueCode": "ALAT",
    "VenueName": "Alankar Theatre 2K 7.1: Ponnamaravathi"
  },
  "AMAU": {
    "AvailableFormats": "",
    "City": "Ulhasnagar",
    "FirstTracked": "2026-07-14",
    "Latitude": "19.233112",
    "Longitude": "73.15781",
    "RegionCode": "MUMBAI",
    "State": "Maharashtra",
    "SubRegionCode": "ULHA",
    "VenueAddress": "Aman Talkies Road, Beside New Telephone Exchange, Sidhi Vinayak Nagar, Ulhasnagar, Maharashtra 421003, India",
    "VenueCode": "AMAU",
    "VenueName": "Aman Theatre: Ulhasnagar"
  },
  "AMCM": {
    "AvailableFormats": "2D",
    "City": "Hyderabad",
    "Latitude": "17.6388",
    "Longitude": "78.4849",
    "RegionCode": "MDCH",
    "State": "Telangana",
    "SubRegionCode": "MDCH",
    "VenueAddress": "Medchal Road, National Highway 44, Near City Union Bank, Secunderabad, Opposite RK Lodge, Hyderabad, Telangana 501401, India",
    "VenueCode": "AMCM",
    "VenueName": "Asian Mukund Cinema: Medchal"
  },
  "AMLU": {
    "AvailableFormats": "",
    "City": "Eluru",
    "FirstTracked": "2026-07-14",
    "Latitude": "16.707937",
    "Longitude": "81.10276",
    "RegionCode": "ELRU",
    "State": "Andhra Pradesh",
    "SubRegionCode": "ELRU",
    "VenueAddress": "Dongala Mandapam Road, Southen Street, Agraharam, Eluru, Andhra Pradesh 534001, India",
    "VenueCode": "AMLU",
    "VenueName": "Ambica Mini (Screen 2): Eluru"
  },
  "AMTI": {
    "AvailableFormats": "2D",
    "City": "Kosamba",
    "Latitude": "21.4683",
    "Longitude": "72.9535",
    "RegionCode": "KOSA",
    "State": "Gujarat",
    "SubRegionCode": "KOSA",
    "VenueAddress": "V S Patel Road, Shraddha, Opposite Ambedkar Statue, Tarsadi, Kosamba, Gujarat 394120, India",
    "VenueCode": "AMTI",
    "VenueName": "Amisha Miniplex: Tarsadi"
  },
  "ANCL": {
    "AvailableFormats": "2D",
    "City": "Lalgudi",
    "Latitude": "10.8747",
    "Longitude": "78.8186",
    "RegionCode": "LALG",
    "State": "Tamil Nadu",
    "SubRegionCode": "LALG",
    "VenueAddress": "No.79F, Main Road, Opposite IOB, Lalgudi, Tamil Nadu 621601, India",
    "VenueCode": "ANCL",
    "VenueName": "Anbu Cinemas A/C 7.1: Lalgudi"
  },
  "ANNT": {
    "AvailableFormats": "2D",
    "City": "Tatipaka",
    "Latitude": "16.4952",
    "Longitude": "81.8747",
    "RegionCode": "TATI",
    "State": "Andhra Pradesh",
    "SubRegionCode": "TATI",
    "VenueAddress": "Jaggnnapeta Road, NH 214, Near TVS Showroom, Tatipaka, Andhra Pradesh 533249, India",
    "VenueCode": "ANNT",
    "VenueName": "Annapurna Theatre AC DTS 2K: Tatipaka"
  },
  "ANTS": {
    "AvailableFormats": "2D",
    "City": "Shoranur",
    "Latitude": "10.7604",
    "Longitude": "76.2759",
    "RegionCode": "SHNR",
    "State": "Kerala",
    "SubRegionCode": "SHNR",
    "VenueAddress": "SH 2, Thrissur-Shoranur Road, Palakkad, Near SMP Junction, Shoranur, Kerala 679121, India",
    "VenueCode": "ANTS",
    "VenueName": "Anurag Cinema: Shoranur"
  },
  "APCX": {
    "AvailableFormats": "2D",
    "City": "Punalur",
    "Latitude": "9.01592",
    "Longitude": "76.939",
    "RegionCode": "PUNA",
    "State": "Kerala",
    "SubRegionCode": "PUNA",
    "VenueAddress": "Kalayanad, Kollam Thirumangalam Road, Punalur, Kerala 691305, India",
    "VenueCode": "APCX",
    "VenueName": "ARIESPLEX PUNALUR RGB LASER 4K ATMOS"
  },
  "APRC": {
    "AvailableFormats": "2D|3D",
    "City": "Gaya",
    "Latitude": "24.7915",
    "Longitude": "84.9997",
    "RegionCode": "GAYA",
    "State": "Bihar",
    "SubRegionCode": "GAYA",
    "VenueAddress": "APR City Centre Mall, Rai Kasinath More, Near Gandhi Maidan, Gaya, Bihar 823001, India",
    "VenueCode": "APRC",
    "VenueName": "APR Cinemas (Dolby Atmos, Christie Laser): Gaya"
  },
  "APVZ": {
    "AvailableFormats": "2D",
    "City": "Vizag (Visakhapatnam)",
    "Latitude": "17.6866",
    "Longitude": "83.1663",
    "RegionCode": "VIZA",
    "State": "Andhra Pradesh",
    "SubRegionCode": "VIZA",
    "VenueAddress": "Askapalli - Aganampudi Road, Kurmannapalem, Vizag (Visakhapatnam), Andhra Pradesh 530046, India",
    "VenueCode": "APVZ",
    "VenueName": "Annapurna A/C 2KDolby Digital:Kurmananapalem,Vizag"
  },
  "ARED": {
    "AvailableFormats": "2D|3D",
    "City": "Ahmedabad",
    "Latitude": "23.0685",
    "Longitude": "72.576",
    "RegionCode": "AHD",
    "State": "Gujarat",
    "SubRegionCode": "AHD",
    "VenueAddress": "Arved Transcube Plaza, Bandhu Nagar, Vijay Nagar, 132 Feet Ring Road, Ranip, Ahmedabad, Gujarat 382480, India",
    "VenueCode": "ARED",
    "VenueName": "PVR: Arved Transcube, Ahmedabad"
  },
  "ARUT": {
    "AvailableFormats": "2D",
    "City": "Anakapalle",
    "Latitude": "17.6874",
    "Longitude": "83.0143",
    "RegionCode": "ANKP",
    "State": "Andhra Pradesh",
    "SubRegionCode": "ANKP",
    "VenueAddress": "No. 10-16, 30, Niddanam Doddi, Gavarapalem, Anakapalle, Andhra Pradesh 531001, India",
    "VenueCode": "ARUT",
    "VenueName": "Sri Satyanarayana Picture Palace AC DTS:Anakapalle"
  },
  "ASGG": {
    "AvailableFormats": "",
    "City": "Chennai",
    "FirstTracked": "2026-07-16",
    "Latitude": "12.5081",
    "Longitude": "79.8855",
    "RegionCode": "CHEN",
    "State": "Tamil Nadu",
    "SubRegionCode": "CHEN",
    "VenueAddress": "No.27, Rr.Ayyangar Street, Near S.Manakchand Jewellers, Chennai, Tamil Nadu 603306, India",
    "VenueCode": "ASGG",
    "VenueName": "Alankar Theatre: Maduranthakam"
  },
  "ASKO": {
    "AvailableFormats": "3D|2D",
    "City": "Kolkata",
    "Latitude": "22.4937",
    "Longitude": "88.3166",
    "RegionCode": "KOLK",
    "State": "West Bengal",
    "SubRegionCode": "KOLK",
    "VenueAddress": "No. 905/2, Diamond Harbour Road, Arcadia, Behala, Kolkata, West Bengal 700034, India",
    "VenueCode": "ASKO",
    "VenueName": "Asoka Cinema: Behala"
  },
  "ASPD": {
    "AvailableFormats": "2D",
    "City": "Palakkad",
    "Latitude": "10.7774",
    "Longitude": "76.6533",
    "RegionCode": "PLKK",
    "State": "Kerala",
    "SubRegionCode": "PLKK",
    "VenueAddress": "Priyadarshini Road, Sultanpet, Near Apex Residence, Palakkad, Kerala 678001, India",
    "VenueCode": "ASPD",
    "VenueName": "Aroma Screen 2: Palakkad"
  },
  "ASST": {
    "AvailableFormats": "",
    "City": "Thorrur",
    "FirstTracked": "2026-07-14",
    "Latitude": "17.578054",
    "Longitude": "79.66545",
    "RegionCode": "THOR",
    "State": "Telangana",
    "SubRegionCode": "THOR",
    "VenueAddress": "Kodad - Khammam Road, Rayapatnam, Thorrur, Telangana 506163, India",
    "VenueCode": "ASST",
    "VenueName": "Ashwini Theatre: Thorrur"
  },
  "ATAG": {
    "AvailableFormats": "2D",
    "City": "Angul",
    "Latitude": "20.8411",
    "Longitude": "85.2256",
    "RegionCode": "ANGL",
    "State": "Odisha",
    "SubRegionCode": "ANGL",
    "VenueAddress": "Nuahata, Banarpal, Near Tata Steel, Near SBI ATM, Angul, Odisha 759128, India",
    "VenueCode": "ATAG",
    "VenueName": "Asha Cine Palace: Banarpal"
  },
  "ATHG": {
    "AvailableFormats": "",
    "City": "Gooty",
    "FirstTracked": "2026-07-14",
    "Latitude": "15.116565",
    "Longitude": "77.63751",
    "RegionCode": "GOOT",
    "State": "Andhra Pradesh",
    "SubRegionCode": "GOOT",
    "VenueAddress": "Amruth Talkies Complex, Karnam Street, Gooty, Andhra Pradesh 515401, India",
    "VenueCode": "ATHG",
    "VenueName": "Amruth Theater: Gooty"
  },
  "ATRD": {
    "AvailableFormats": "2D",
    "City": "Erode",
    "Latitude": "11.3451",
    "Longitude": "77.7087",
    "RegionCode": "EROD",
    "State": "Tamil Nadu",
    "SubRegionCode": "EROD",
    "VenueAddress": "Manikampalayam Housing Unit, Erode, Tamil Nadu, Near SSPE Cotton Mills, Erode, Tamil Nadu 638011, India",
    "VenueCode": "ATRD",
    "VenueName": "Anna Theatre A/C: Erode"
  },
  "AUBB": {
    "AvailableFormats": "2D",
    "City": "Bhadrachalam",
    "Latitude": "17.6735",
    "Longitude": "80.8891",
    "RegionCode": "BHDR",
    "State": "Telangana",
    "SubRegionCode": "BHDR",
    "VenueAddress": "NH30, Bhadrachalam Rd, Ashok Nagar Colony, Bhadrachalam, Telangana 507111, India",
    "VenueCode": "AUBB",
    "VenueName": "Asian Uday Bhaskar: Bhadrachalam"
  },
  "AVMT": {
    "AvailableFormats": "",
    "City": "Chennai",
    "FirstTracked": "2026-07-14",
    "Latitude": "13.3341",
    "Longitude": "79.8884",
    "RegionCode": "CHEN",
    "State": "Tamil Nadu",
    "SubRegionCode": "CHEN",
    "VenueAddress": "Tirupati Road, Uthukkottai, Near Andhra Bank, Chennai, Tamil Nadu 602026, India",
    "VenueCode": "AVMT",
    "VenueName": "AVM Cinemas: Uthukkottai"
  },
  "AXMP": {
    "AvailableFormats": "2D",
    "City": "Pattambi",
    "Latitude": "10.8064",
    "Longitude": "76.1899",
    "RegionCode": "PTMB",
    "State": "Kerala",
    "SubRegionCode": "PTMB",
    "VenueAddress": "Alex Theatre, Kaithali Temple Road, Near ICICI Bank Pattambi, Pattambi, Kerala 679303, India",
    "VenueCode": "AXMP",
    "VenueName": "Alex Movies: Christe Rbe Laser Pattambi"
  },
  "BAHS": {
    "AvailableFormats": "2D",
    "City": "Basti",
    "Latitude": "26.7995",
    "Longitude": "82.7341",
    "RegionCode": "BAST",
    "State": "Uttar Pradesh",
    "SubRegionCode": "BAST",
    "VenueAddress": "Baadshah Tower, Malviya Road, Bhatolowa, Basti, Uttar Pradesh 272001, India",
    "VenueCode": "BAHS",
    "VenueName": "Baadshah Multiplex: Basti"
  },
  "BATK": {
    "AvailableFormats": "2D",
    "City": "Kanchipuram",
    "Latitude": "12.8294",
    "Longitude": "79.7001",
    "RegionCode": "MMNR",
    "State": "Tamil Nadu",
    "SubRegionCode": "MMNR",
    "VenueAddress": "Madam Thottam Street Madam, Pillaiyarpalayam, Kanchipuram, Tamil Nadu 631501, India",
    "VenueCode": "BATK",
    "VenueName": "Babu Cinemas - RGB Laser: Kanchipuram"
  },
  "BCBP": {
    "AvailableFormats": "2D",
    "City": "Bhopal",
    "Latitude": "23.2601",
    "Longitude": "77.4104",
    "RegionCode": "BHOP",
    "State": "Madhya Pradesh",
    "SubRegionCode": "BHOP",
    "VenueAddress": "Near Shakir Ali Khan Hospital, Opposite Capital Hotel, Hamidia Road, Near Shakir Ali Khan Hospital, Bhopal, Madhya Pradesh 462001, India",
    "VenueCode": "BCBP",
    "VenueName": "Bharat Cineplex: Bhopal"
  },
  "BEMR": {
    "AvailableFormats": "2D",
    "City": "Malur",
    "Latitude": "13.0176",
    "Longitude": "77.938",
    "RegionCode": "MLLR",
    "State": "Karnataka",
    "SubRegionCode": "MLLR",
    "VenueAddress": "Harohalli Road, Malur Taluk, Kolar District, Malur, Karnataka 563130, India",
    "VenueCode": "BEMR",
    "VenueName": "Benaka Theatre: Malur"
  },
  "BHKN": {
    "AvailableFormats": "",
    "City": "Bichkunda",
    "FirstTracked": "2026-07-14",
    "Latitude": "18.402649",
    "Longitude": "77.69941",
    "RegionCode": "BHCK",
    "State": "Telangana",
    "SubRegionCode": "BHCK",
    "VenueAddress": "Main Road, Near Masjid, Bichkunda, Telangana 503306, India",
    "VenueCode": "BHKN",
    "VenueName": "Parameswari Theatre: Bichkunda"
  },
  "BISW": {
    "AvailableFormats": "2D",
    "City": "Siliguri",
    "Latitude": "26.7286",
    "Longitude": "88.4139",
    "RegionCode": "SILI",
    "State": "West Bengal",
    "SubRegionCode": "SILI",
    "VenueAddress": "Hill Cart Road, Ward 2,  Sevoke Road, Pradhan Nagar, Siliguri, West Bengal 734001, India",
    "VenueCode": "BISW",
    "VenueName": "Biswadeep Talkies: Siliguri"
  },
  "BKTL": {
    "AvailableFormats": "",
    "City": "Cherukupalli",
    "FirstTracked": "2026-07-14",
    "Latitude": "16.0529",
    "Longitude": "80.6789",
    "RegionCode": "EHRK",
    "State": "Andhra Pradesh",
    "SubRegionCode": "EHRK",
    "VenueAddress": "3M3H+4GX, NTR Nagar, Cherukupalli, Andhra Pradesh 522309, India",
    "VenueCode": "BKTL",
    "VenueName": "Bhaskar Theater: Cherukupalli"
  },
  "BMBK": {
    "AvailableFormats": "2D",
    "City": "Bhawanipatna",
    "Latitude": "19.9065",
    "Longitude": "83.1421",
    "RegionCode": "BHAW",
    "State": "Odisha",
    "SubRegionCode": "BHAW",
    "VenueAddress": "Bhagirathi Mall, Sambhunagar Pada, Bhawanipatna, Odisha 766002, India",
    "VenueCode": "BMBK",
    "VenueName": "Bhagirathi Multiplex: Bhawanipatna"
  },
  "BNBA": {
    "AvailableFormats": "2D",
    "City": "Dehradun",
    "Latitude": "30.3329",
    "Longitude": "78.054",
    "RegionCode": "DEH",
    "State": "Uttarakhand",
    "SubRegionCode": "DEH",
    "VenueAddress": "1 Old Survey Road, Crossroads Mall, Dehradun, Uttarakhand 248001, India",
    "VenueCode": "BNBA",
    "VenueName": "Movie Lounge: Crossroads Mall, Dehradun"
  },
  "BRUN": {
    "AvailableFormats": "2D|3D",
    "City": "Cuttack",
    "Latitude": "20.465",
    "Longitude": "85.8852",
    "RegionCode": "CUTT",
    "State": "Odisha",
    "SubRegionCode": "CUTT",
    "VenueAddress": "Bajrakabati Road, Siba Bazar, Near Bank Of India, Cuttack, Odisha 753001, India",
    "VenueCode": "BRUN",
    "VenueName": "Brundaban (4k, Dolby Atmos 64 Channel Sounds)"
  },
  "BSVK": {
    "AvailableFormats": "2D",
    "City": "Krishnarajpete (K.R.Pete)",
    "Latitude": "12.6644",
    "Longitude": "76.4876",
    "RegionCode": "KEKE",
    "State": "Karnataka",
    "SubRegionCode": "KEKE",
    "VenueAddress": "No 1231/1142/A, Old Kikkeri Road, BasaveshwaraNagar, Krishnarajpete (K.R.Pete), Karnataka 571426, India",
    "VenueCode": "BSVK",
    "VenueName": "Sri Basaveshwara Cinemas: K.R. Pete"
  },
  "BTLR": {
    "AvailableFormats": "2D",
    "City": "Lakhimpur",
    "Latitude": "27.2365",
    "Longitude": "94.1042",
    "RegionCode": "LAHA",
    "State": "Assam",
    "SubRegionCode": "LAHA",
    "VenueAddress": "Biswa Talkies, NH 15, North Lakhimpur, Lakhimpur, Assam 787001, India",
    "VenueCode": "BTLR",
    "VenueName": "Biswa Talkies: Lakhimpur"
  },
  "CACN": {
    "AvailableFormats": "2D",
    "City": "Mahuva",
    "Latitude": "21.1266",
    "Longitude": "71.7984",
    "RegionCode": "MAHV",
    "State": "Gujarat",
    "SubRegionCode": "MAHV",
    "VenueAddress": "City Mall Opposite Reliance Petrol Pump, Next to Vibrant Dehydration, At. Bhadrod, Mahuva, Mahuva, Gujarat 364290, India",
    "VenueCode": "CACN",
    "VenueName": "Cine Arc Multiplex: Mahuva"
  },
  "CBPB": {
    "AvailableFormats": "2D|3D",
    "City": "Bhopal",
    "Latitude": "23.2199",
    "Longitude": "77.4395",
    "RegionCode": "BHOP",
    "State": "Madhya Pradesh",
    "SubRegionCode": "BHOP",
    "VenueAddress": "4th Floor, Bansal Plaza, Rani Kamplapati Railway Station, Bhopal, Madhya Pradesh 462023, India",
    "VenueCode": "CBPB",
    "VenueName": "Cinepolis: Bansal Plaza, Bhopal"
  },
  "CCBT": {
    "AvailableFormats": "2D|3D",
    "City": "Guwahati",
    "Latitude": "26.1202",
    "Longitude": "91.7981",
    "RegionCode": "GUW",
    "State": "Assam",
    "SubRegionCode": "GUW",
    "VenueAddress": "Beltola-Basistha Road, Beltola, Opposite Shankardeva Netralaya, Lakhi Mandir,Guwahati, Assam 781028, India",
    "VenueCode": "CCBT",
    "VenueName": "Matrix Cinemas: Matrix Mall, Beltola, Guwahati"
  },
  "CCIA": {
    "AvailableFormats": "2D",
    "City": "Agra",
    "Latitude": "27.1911",
    "Longitude": "78.0085",
    "RegionCode": "AGRA",
    "State": "Uttar Pradesh",
    "SubRegionCode": "AGRA",
    "VenueAddress": "Near Bagh Muzaffar Khan, Mantola, Opposite Guru Nanak Sweet House, Agra, Uttar Pradesh 282001, India",
    "VenueCode": "CCIA",
    "VenueName": "Chitra Cinema: Agra"
  },
  "CCMG": {
    "AvailableFormats": "2D|3D",
    "City": "Guwahati",
    "Latitude": "26.1571",
    "Longitude": "91.7778",
    "RegionCode": "GUW",
    "State": "Assam",
    "SubRegionCode": "GUW",
    "VenueAddress": "4th Floor, Central Mall, GS Road, Christian Basti, Near Income Tax Office, Guwahati, Assam 781005, India",
    "VenueCode": "CCMG",
    "VenueName": "Cinepolis: Central Mall, Guwahati"
  },
  "CCOA": {
    "AvailableFormats": "",
    "City": "Asika",
    "FirstTracked": "2026-07-14",
    "Latitude": "19.61157",
    "Longitude": "84.6632",
    "RegionCode": "ASIK",
    "State": "Odisha",
    "SubRegionCode": "ASIK",
    "VenueAddress": "Old Ashoka Cinema Hall, Near Hatpada, Near Hanuman Temple, Asika, Odisha 761110, India",
    "VenueCode": "CCOA",
    "VenueName": "Cine Caarnival: Asika"
  },
  "CCRP": {
    "AvailableFormats": "2D",
    "City": "Raipur",
    "Latitude": "21.2173",
    "Longitude": "81.6566",
    "RegionCode": "RAIPUR",
    "State": "Chhattisgarh",
    "SubRegionCode": "RAIPUR",
    "VenueAddress": "Colors Cinema, 3rd floor, Colors Mall, Pachpedi Naka, NH 43, Raipur, Chhattisgarh 492001, India",
    "VenueCode": "CCRP",
    "VenueName": "Colors Cinemas: Colors Mall, Raipur"
  },
  "CCZC": {
    "AvailableFormats": "2D",
    "City": "Chikhli",
    "Latitude": "20.3177",
    "Longitude": "76.2555",
    "RegionCode": "CHIH",
    "State": "Maharashtra",
    "SubRegionCode": "CHIH",
    "VenueAddress": "Jalna Road, Plot No: 12, Survey No 190 Chikhli, District Buldana, Chikhli, Maharashtra 443201, India",
    "VenueCode": "CCZC",
    "VenueName": "Cine Magic Cinema: Chikhli"
  },
  "CECB": {
    "AvailableFormats": "2D|3D",
    "City": "Bardoli",
    "Latitude": "21.118",
    "Longitude": "73.0958",
    "RegionCode": "BRDL",
    "State": "Gujarat",
    "SubRegionCode": "BRDL",
    "VenueAddress": "1st Floor Cineverse Complex, Bardoli Road, Near Vimal Agro Industries, Bardoli, Gujarat 394601, India",
    "VenueCode": "CECB",
    "VenueName": "Cineverse Cinema: Bardoli"
  },
  "CFEA": {
    "AvailableFormats": "",
    "City": "Rourkela",
    "FirstTracked": "2026-07-14",
    "Latitude": "22.253101",
    "Longitude": "84.86569",
    "RegionCode": "RKOR",
    "State": "Odisha",
    "SubRegionCode": "RKOR",
    "VenueAddress": "Fe2 Arcade Mall, Sector 5, Aambagan, Rourkela, Odisha 769002, India",
    "VenueCode": "CFEA",
    "VenueName": "Cinepolis Fe2 Arcade: Rourkela"
  },
  "CGHH": {
    "AvailableFormats": "2D",
    "City": "Kakinada",
    "Latitude": "16.9573",
    "Longitude": "82.2365",
    "RegionCode": "KAKI",
    "State": "Andhra Pradesh",
    "SubRegionCode": "KAKI",
    "VenueAddress": "Cinema Hall Road, Surya Rao Peta, Opposite Municipal Office, Kakinada, Andhra Pradesh 533001, India",
    "VenueCode": "CGHH",
    "VenueName": "Chandra Guptha Complex Screen 2: Kakinada"
  },
  "CGVA": {
    "AvailableFormats": "",
    "City": "Ahmedabad",
    "FirstTracked": "2026-07-14",
    "Latitude": "22.988194",
    "Longitude": "72.66375",
    "RegionCode": "AHD",
    "State": "Gujarat",
    "SubRegionCode": "AHD",
    "VenueAddress": "Sur No./757/758 TP No.114, FP-1, Near - Ramol Toll Tax Vastral, Opposite -  RAF Campus, Ahmedabad, Gujarat 382418, India",
    "VenueCode": "CGVA",
    "VenueName": "City Gold: Vastral, Ahmedabad"
  },
  "CHTI": {
    "AvailableFormats": "2D",
    "City": "Poovar",
    "Latitude": "8.31976",
    "Longitude": "77.0743",
    "RegionCode": "TRIV",
    "State": "Kerala",
    "SubRegionCode": "TRIV",
    "VenueAddress": "Cine Cafe Restaurant and Cineplex, Bridge Road, Opposite To Thuruthil Granite, Poovar, Kerala 695525, India",
    "VenueCode": "CHTI",
    "VenueName": "Chhotu Maharaj Cine Cafe: Poovar, Kerala"
  },
  "CIGK": {
    "AvailableFormats": "3D|2D",
    "City": "Delhi",
    "Latitude": "28.5416",
    "Longitude": "77.2402",
    "RegionCode": "NCR",
    "State": "NCR",
    "SubRegionCode": "DELHI",
    "VenueAddress": "Greater Kailash, Part 2, Outer Ring Road, Block E, Near Bank Of India, Delhi, NCR 110048, India",
    "VenueCode": "CIGK",
    "VenueName": "Cinepolis: Savitri Complex GK2"
  },
  "CITD": {
    "AvailableFormats": "2D|3D",
    "City": "Shivamogga",
    "Latitude": "13.9304",
    "Longitude": "75.5733",
    "RegionCode": "SHIA",
    "State": "Karnataka",
    "SubRegionCode": "SHIA",
    "VenueAddress": "Bharath Cinemas, Bearys City Center, BH Road, Shivamogga, Karnataka 577201, India",
    "VenueCode": "CITD",
    "VenueName": "Bharath Cinemas: Shivamogga"
  },
  "CLBC": {
    "AvailableFormats": "",
    "City": "Muzaffarpur",
    "FirstTracked": "2026-07-14",
    "Latitude": "26.1112",
    "Longitude": "85.3656",
    "RegionCode": "MUZA",
    "State": "Bihar",
    "SubRegionCode": "MUZA",
    "VenueAddress": "5th Floor, Dwarka City Center Mall, Opposite MPS Science College, NH22 Muzaffarpur, Muzaffarpur, Bihar 843146, India",
    "VenueCode": "CLBC",
    "VenueName": "Connplex Cinemas Luxuriance: Muzaffarpur"
  },
  "CLLB": {
    "AvailableFormats": "2D",
    "City": "Bhagalpur",
    "Latitude": "25.2483",
    "Longitude": "86.9764",
    "RegionCode": "BHAG",
    "State": "Bihar",
    "SubRegionCode": "BHAG",
    "VenueAddress": "4th floor, H L Tower, DN Singh Road, Near Hari Om Laxmi Narayan Jewellers, Kharmanchak, PS, Jogsar, Adampur, Bhagalpur, Bihar 812002, India",
    "VenueCode": "CLLB",
    "VenueName": "Connplex Cinemas (Luxuriance): Bhagalpur"
  },
  "CMBE": {
    "AvailableFormats": "2D",
    "City": "Begusarai",
    "Latitude": "25.4371",
    "Longitude": "86.1382",
    "RegionCode": "BEGS",
    "State": "Bihar",
    "SubRegionCode": "BEGS",
    "VenueAddress": "Panhas Garden and Resort, Near Krishi Bazar Samiti,Sh -55, Begusarai, Bihar 851101, India",
    "VenueCode": "CMBE",
    "VenueName": "Chhotu Maharaj Cine Cafe: Begusarai"
  },
  "CMJM": {
    "AvailableFormats": "",
    "City": "Moradabad",
    "FirstTracked": "2026-07-14",
    "Latitude": "28.82498",
    "Longitude": "78.69148",
    "RegionCode": "MORA",
    "State": "Uttar Pradesh",
    "SubRegionCode": "MORA",
    "VenueAddress": "Sector 12A-C/96/05 Sector 12A, Naya Moradabad, Moradabad Tehsil, Moradabad, Uttar Pradesh 244001, India",
    "VenueCode": "CMJM",
    "VenueName": "Chhotu Maharaj CineCafe: Moradabad, UP"
  },
  "CMMP": {
    "AvailableFormats": "2D",
    "City": "Rampur",
    "Latitude": "28.7516",
    "Longitude": "79.0545",
    "RegionCode": "RAMU",
    "State": "Uttar Pradesh",
    "SubRegionCode": "RAMU",
    "VenueAddress": "Modi Mall, Modipur, Faizulla Nagar, Nh-24, Bareilly Road, Rampur, Uttar Pradesh 244901, India",
    "VenueCode": "CMMP",
    "VenueName": "Cinepolis: Modi Mall, Rampur"
  },
  "CMTT": {
    "AvailableFormats": "2D",
    "City": "Trivandrum",
    "Latitude": "8.48693",
    "Longitude": "76.9263",
    "RegionCode": "TRIV",
    "State": "Kerala",
    "SubRegionCode": "TRIV",
    "VenueAddress": "2nd floor, Mall of Travancore, International Airport Road, Next to Ananthapuri Hospital, Eanchakkal, Trivandrum, Kerala 695024, India",
    "VenueCode": "CMTT",
    "VenueName": "Cinepolis: MOT, Trivandrum"
  },
  "CMXM": {
    "AvailableFormats": "2D",
    "City": "Mehkar",
    "Latitude": "20.1661",
    "Longitude": "76.61",
    "RegionCode": "MEHK",
    "State": "Maharashtra",
    "SubRegionCode": "MEHK",
    "VenueAddress": "Shop No 2, Main Road, Near Khanadala, Mehkar, Maharashtra 443301, India",
    "VenueCode": "CMXM",
    "VenueName": "Cinemark Multiplex: Mehkar"
  },
  "CNCT": {
    "AvailableFormats": "2D",
    "City": "Taliparamba",
    "Latitude": "12.0345",
    "Longitude": "75.3627",
    "RegionCode": "TALI",
    "State": "Kerala",
    "SubRegionCode": "TALI",
    "VenueAddress": "Trichambaram Temple Road, Trichambaram, Near State Bank of India, Taliparamba, Kerala 670141, India",
    "VenueCode": "CNCT",
    "VenueName": "Crown Cinema 2K Dolby: Taliparamba"
  },
  "CNMS": {
    "AvailableFormats": "2D",
    "City": "Surat",
    "Latitude": "21.2299",
    "Longitude": "72.7786",
    "RegionCode": "SURT",
    "State": "Gujarat",
    "SubRegionCode": "SURT",
    "VenueAddress": "Prabhudarshan Society, Jahangirabad, Sima Nagar, Near DMart, Surat, Gujarat 395005, India",
    "VenueCode": "CNMS",
    "VenueName": "Cinezza Multiplex: Jahangirpura, Surat"
  },
  "CNRY": {
    "AvailableFormats": "",
    "City": "Jangareddy Gudem",
    "FirstTracked": "2026-07-14",
    "Latitude": "17.127705",
    "Longitude": "81.293495",
    "RegionCode": "JANG",
    "State": "Andhra Pradesh",
    "SubRegionCode": "JANG",
    "VenueAddress": "47HV+79P, Government College Road, Near Classic Automotives, Jangareddy Gudem, Andhra Pradesh 534447, India",
    "VenueCode": "CNRY",
    "VenueName": "CNR Mall: Y Screens, Jangareddy Gudem"
  },
  "COAC": {
    "AvailableFormats": "3D|2D",
    "City": "Lucknow",
    "Latitude": "26.8624",
    "Longitude": "81.0105",
    "RegionCode": "LUCK",
    "State": "Uttar Pradesh",
    "SubRegionCode": "LUCK",
    "VenueAddress": "Plot No 384, Vibhuti Khand, Gomti Nagar, Gomti Nagar Road, Lucknow, Uttar Pradesh 226010, India",
    "VenueCode": "COAC",
    "VenueName": "Cinepolis: One Awadh Centre, Lucknow"
  },
  "COSM": {
    "AvailableFormats": "2D",
    "City": "Rajkot",
    "Latitude": "22.271",
    "Longitude": "70.7418",
    "RegionCode": "RAJK",
    "State": "Gujarat",
    "SubRegionCode": "RAJK",
    "VenueAddress": "Mota Mauva Road, Kalawad Road, Near Rangoli Park Restaurant, Rajkot, Gujarat 360001, India",
    "VenueCode": "COSM",
    "VenueName": "Cosmoplex Multiplex: Rajkot"
  },
  "CPEB": {
    "AvailableFormats": "2D",
    "City": "Bengaluru",
    "Latitude": "12.9676",
    "Longitude": "77.5584",
    "RegionCode": "HOKT",
    "State": "Karnataka",
    "SubRegionCode": "HOKT",
    "VenueAddress": "ETA Namma Mall, Binneypet, Magadi Road, Bengaluru, Karnataka 560023, India",
    "VenueCode": "CPEB",
    "VenueName": "Cinepolis: Binnypet Mall"
  },
  "CPJR": {
    "AvailableFormats": "2D",
    "City": "Bengaluru",
    "Latitude": "12.8915",
    "Longitude": "77.598",
    "RegionCode": "HOKT",
    "State": "Karnataka",
    "SubRegionCode": "HOKT",
    "VenueAddress": "SJR Spectrum Mall, Near Arkere Gate Signal, Bengaluru, Karnataka 560076, India",
    "VenueCode": "CPJR",
    "VenueName": "Cinepolis: SJR (Central Mall) Arekere, Bannergatta"
  },
  "CPMF": {
    "AvailableFormats": "",
    "City": "Faridabad",
    "FirstTracked": "2026-07-14",
    "Latitude": "28.3874",
    "Longitude": "77.312",
    "RegionCode": "NCR",
    "State": "NCR",
    "SubRegionCode": "FARI",
    "VenueAddress": "Second Floor, Plot No. 05, Sector 20B, Near Radisson Blue Hotel, Faridabad, NCR 121001, India",
    "VenueCode": "CPMF",
    "VenueName": "Cinepolis: Pacific Mall, Faridabad"
  },
  "CPOE": {
    "AvailableFormats": "2D",
    "City": "Bengaluru",
    "Latitude": "13.0018",
    "Longitude": "77.6329",
    "RegionCode": "BANG",
    "State": "Karnataka",
    "SubRegionCode": "BANG",
    "VenueAddress": "3rd floor, Orion Avenue Mall, Banasawadi Main Road, Maruti Seva Nagar, Bengaluru, Karnataka 560033, India",
    "VenueCode": "CPOE",
    "VenueName": "Cinepolis: Orion Avenue Mall, Banaswadi"
  },
  "CPSK": {
    "AvailableFormats": "2D",
    "City": "Kochi",
    "Latitude": "9.97799",
    "Longitude": "76.2833",
    "RegionCode": "KOCH",
    "State": "Kerala",
    "SubRegionCode": "KOCH",
    "VenueAddress": "6th Floor, M.G.Rroad, Ernakulam, Near Abad Plaza Hotel, Kochi, Kerala 682035, India",
    "VenueCode": "CPSK",
    "VenueName": "Cinepolis: VIP Centre Square Mall, Kochi"
  },
  "CRCM": {
    "AvailableFormats": "2D",
    "City": "Moga",
    "Latitude": "30.8188",
    "Longitude": "75.2186",
    "RegionCode": "MOGA",
    "State": "Punjab",
    "SubRegionCode": "MOGA",
    "VenueAddress": "Barnala-Amritsar Bypass Road, Bugipura Chowk, Moga, Punjab 142001, India",
    "VenueCode": "CRCM",
    "VenueName": "Cineroyale Cinemas: Chokha Empire, Moga"
  },
  "CSAN": {
    "AvailableFormats": "",
    "City": "Ahmedabad",
    "FirstTracked": "2026-07-14",
    "Latitude": "22.9638",
    "Longitude": "72.5911",
    "RegionCode": "AHD",
    "State": "Gujarat",
    "SubRegionCode": "AHD",
    "VenueAddress": "4th Floor, Arbuda Trade Center, Survey 243/1/1, Vatva Cross Road, Narol, Opposite Swaminarayan Complex, Ahmedabad, Gujarat 382405, India",
    "VenueCode": "CSAN",
    "VenueName": "Connplex Cinemas (Signature): Narol"
  },
  "CSMD": {
    "AvailableFormats": "2D",
    "City": "Dhrangadhra",
    "Latitude": "23.0008",
    "Longitude": "71.4156",
    "RegionCode": "DHRN",
    "State": "Gujarat",
    "SubRegionCode": "DHRN",
    "VenueAddress": "Ahmedabad, Kutch Highway, Dhrangadhra, Gujarat 363310, India",
    "VenueCode": "CSMD",
    "VenueName": "Connplex Cinemas: Sir Jadeja, Dhrangadhra"
  },
  "CSTE": {
    "AvailableFormats": "2D",
    "City": "Ahmedabad",
    "Latitude": "23.1067",
    "Longitude": "72.5418",
    "RegionCode": "AHD",
    "State": "Gujarat",
    "SubRegionCode": "AHD",
    "VenueAddress": "RCC ROAD, 1st Floor, The Link, 100 FT, Krishna Hardware Road, Near JLR Showroom, Ahmedabad, Gujarat 382481, India",
    "VenueCode": "CSTE",
    "VenueName": "Connplex Cinemas (Signature): Gota"
  },
  "CTBJ": {
    "AvailableFormats": "",
    "City": "Bokaro",
    "FirstTracked": "2026-07-14",
    "Latitude": "23.634192",
    "Longitude": "86.17827",
    "RegionCode": "BOKA",
    "State": "Jharkhand",
    "SubRegionCode": "BOKA",
    "VenueAddress": "Bihar Colony, Main Road, Chas, Bokaro, Jharkhand 827013, India",
    "VenueCode": "CTBJ",
    "VenueName": "Chandra Talkies: Bokaro"
  },
  "CTML": {
    "AvailableFormats": "2D|3D",
    "City": "Bilaspur",
    "Latitude": "22.0942",
    "Longitude": "82.1257",
    "RegionCode": "BILA",
    "State": "Chhattisgarh",
    "SubRegionCode": "BILA",
    "VenueAddress": "36 City Mall, Mungeli Road, Near Mangala Chowk, Bilaspur, Chhattisgarh 495001, India",
    "VenueCode": "CTML",
    "VenueName": "City36 Cinemas: Bilaspur"
  },
  "CTRR": {
    "AvailableFormats": "3D|2D",
    "City": "Mumbai",
    "Latitude": "19.0134",
    "Longitude": "72.8439",
    "RegionCode": "MUMBAI",
    "State": "Maharashtra",
    "SubRegionCode": "MCENT",
    "VenueAddress": "198, Dr. Baba Saheb Ambedkar Road, Dadar East, Mumbai, Maharashtra 400014, India",
    "VenueCode": "CTRR",
    "VenueName": "Chitra Cinema: Dadar (Newly Renovated)"
  },
  "CVDK": {
    "AvailableFormats": "2D|3D",
    "City": "Rajkot",
    "Latitude": "22.264",
    "Longitude": "70.7996",
    "RegionCode": "RAJK",
    "State": "Gujarat",
    "SubRegionCode": "RAJK",
    "VenueAddress": "Vandana Heritage 4th  and 5th Floor, Opposite Atika Railway Crossing, Gondal Road, Rajkot, Gujarat 360004, India",
    "VenueCode": "CVDK",
    "VenueName": "Cinepolis Vandana: Rajkot"
  },
  "CWTB": {
    "AvailableFormats": "",
    "City": "Buhari",
    "FirstTracked": "2026-07-14",
    "Latitude": "20.974022",
    "Longitude": "73.30542",
    "RegionCode": "BUHA",
    "State": "Gujarat",
    "SubRegionCode": "BUHA",
    "VenueAddress": "Amrut shopping center, Plot no 162/A Buhari, Dist-Valod, Buhari, Gujarat 394630, India",
    "VenueCode": "CWTB",
    "VenueName": "Cineworld Theater: Buhari"
  },
  "CXST": {
    "AvailableFormats": "2D",
    "City": "Ahmedabad",
    "Latitude": "23.0295",
    "Longitude": "72.4662",
    "RegionCode": "AHD",
    "State": "Gujarat",
    "SubRegionCode": "AHD",
    "VenueAddress": "2nd Floor, Turquoise 3, Gala Gymkhana Road, South Bopal, Ahmedabad, Gujarat 380058, India",
    "VenueCode": "CXST",
    "VenueName": "Connplex Cinemas: South Bopal"
  },
  "DAMD": {
    "AvailableFormats": "2D",
    "City": "Tirupur",
    "Latitude": "11.0991",
    "Longitude": "77.3444",
    "RegionCode": "AVII",
    "State": "Tamil Nadu",
    "SubRegionCode": "AVII",
    "VenueAddress": "State Highway 169, Puliyamara Thottam, Katapalayam, Near Arulmigu Sri Pattathaarasi Amman Thirukovil, Tirupur, Tamil Nadu 641604, India",
    "VenueCode": "DAMD",
    "VenueName": "Diamond Cinemas A/C 4K Dolby: Tirupur"
  },
  "DCCT": {
    "AvailableFormats": "2D",
    "City": "Thrissur",
    "Latitude": "10.5616",
    "Longitude": "76.2174",
    "RegionCode": "THSR",
    "State": "Kerala",
    "SubRegionCode": "THSR",
    "VenueAddress": "Thrissur - Shoranur Road, Padukad, Keltron Nagar, Kolazhy, Thrissur, Kerala 680010, India",
    "VenueCode": "DCCT",
    "VenueName": "Deepa Cinema 4K RGB Laser DTS X: Viyyur"
  },
  "DCMJ": {
    "AvailableFormats": "2D",
    "City": "Manjeri",
    "Latitude": "11.1232",
    "Longitude": "76.1175",
    "RegionCode": "MAJR",
    "State": "Kerala",
    "SubRegionCode": "MAJR",
    "VenueAddress": "Rajiv Gandhi Bypass, Karuvambram, Manjeri, Kerala 676121, India",
    "VenueCode": "DCMJ",
    "VenueName": "Devaki Cinemax: Manjeri"
  },
  "DDCK": {
    "AvailableFormats": "2D|3D",
    "City": "Hajipur",
    "Latitude": "25.6943",
    "Longitude": "85.2116",
    "RegionCode": "HAJI",
    "State": "Bihar",
    "SubRegionCode": "HAJI",
    "VenueAddress": "Cine Krishna Mall ,1st Floor, Cinema Road, Hajipur, Bihar 844101, India",
    "VenueCode": "DDCK",
    "VenueName": "DD Cinemas: Cine Krishna Mall, Hajipur"
  },
  "DESA": {
    "AvailableFormats": "2D",
    "City": "Porumamilla",
    "Latitude": "15.0024",
    "Longitude": "78.9905",
    "RegionCode": "PORU",
    "State": "Andhra Pradesh",
    "SubRegionCode": "PORU",
    "VenueAddress": "Reddy Nagar, Main Road, Near Andhra Pragathi Gramina Bank, Porumamilla, Andhra Pradesh 516193, India",
    "VenueCode": "DESA",
    "VenueName": "Desai Mahal A/C 2K Dolby 7.1: Porumamilla"
  },
  "DHCB": {
    "AvailableFormats": "",
    "City": "Basti",
    "FirstTracked": "2026-07-14",
    "Latitude": "26.805424",
    "Longitude": "82.725296",
    "RegionCode": "BAST",
    "State": "Uttar Pradesh",
    "SubRegionCode": "BAST",
    "VenueAddress": "Badevan Over Bridge, Gorakhpur to Lucknow Highway Road, Near Toll Plaza, Basti, Uttar Pradesh 272002, India",
    "VenueCode": "DHCB",
    "VenueName": "Darsh Cinema: Basti"
  },
  "DLCD": {
    "AvailableFormats": "2D",
    "City": "Itanagar",
    "Latitude": "27.1018",
    "Longitude": "93.6297",
    "RegionCode": "ITNG",
    "State": "Arunachal Pradesh",
    "SubRegionCode": "ITNG",
    "VenueAddress": "AAB Arcade Building, NH 415, Zero Point, Itanagar, Arunachal Pradesh 791111, India",
    "VenueCode": "DLCD",
    "VenueName": "Drodel Cineworld, Zero point: Itanagar"
  },
  "DMKT": {
    "AvailableFormats": "2D",
    "City": "Nagapattinam",
    "Latitude": "10.7691",
    "Longitude": "79.8414",
    "RegionCode": "NGPT",
    "State": "Tamil Nadu",
    "SubRegionCode": "NGPT",
    "VenueAddress": "Public Office Road, ASN Colony, Elancheran Nagar, Nagapattinam, Tamil Nadu 611001, India",
    "VenueCode": "DMKT",
    "VenueName": "Devi Cinemas (Karthik Cinemas) A/C Dolby Atmos"
  },
  "DOMY": {
    "AvailableFormats": "3D|2D",
    "City": "Ayodhya",
    "Latitude": "26.784",
    "Longitude": "82.1443",
    "RegionCode": "FAZA",
    "State": "Uttar Pradesh",
    "SubRegionCode": "FAZA",
    "VenueAddress": "3rd Floor, Mall of Avadh, Ram Path, Ayodhya, Uttar Pradesh 224001, India",
    "VenueCode": "DOMY",
    "VenueName": "Dhishoom Cinemas: Ayodhya"
  },
  "DRMY": {
    "AvailableFormats": "2D|3D",
    "City": "Mysuru (Mysore)",
    "Latitude": "12.3221",
    "Longitude": "76.6208",
    "RegionCode": "MYS",
    "State": "Karnataka",
    "SubRegionCode": "MYS",
    "VenueAddress": "Gokulam Road, Jayalakshmipuram, Behind BM Hospital, Mysuru (Mysore), Karnataka 570012, India",
    "VenueCode": "DRMY",
    "VenueName": "DRC Cinemas: BM Habitat Mall"
  },
  "DTPD": {
    "AvailableFormats": "2D",
    "City": "Pendra",
    "Latitude": "22.7551",
    "Longitude": "81.9028",
    "RegionCode": "PEND",
    "State": "Chhattisgarh",
    "SubRegionCode": "PEND",
    "VenueAddress": "Gaurella, Pendra Road, Opposite Shivam Mithai, Pendra, Chhattisgarh 495117, India",
    "VenueCode": "DTPD",
    "VenueName": "Durgesh Talkies: Pendra"
  },
  "DVCF": {
    "AvailableFormats": "2D",
    "City": "Ramjibanpur",
    "Latitude": "22.8259",
    "Longitude": "87.6007",
    "RegionCode": "PUUR",
    "State": "West Bengal",
    "SubRegionCode": "PUUR",
    "VenueAddress": "Devleen Cinema, Near Sandipa Jewellers, Pashchim Medinipur, Ramjibanpur, West Bengal 721242, India",
    "VenueCode": "DVCF",
    "VenueName": "Devleen Cinema: Ramjibanpur"
  },
  "EBCA": {
    "AvailableFormats": "",
    "City": "Kundli",
    "Latitude": "28.9099",
    "Longitude": "77.1097",
    "RegionCode": "NCR",
    "State": "NCR",
    "SubRegionCode": "KUND",
    "VenueAddress": "Parker Mall Sector 62, National Highway 1, Kundli, NCR 131028, India",
    "VenueCode": "EBCA",
    "VenueName": "eBox Cinema: Parker Mall, Kundli"
  },
  "EDMP": {
    "AvailableFormats": "2D|3D",
    "City": "Ghaziabad",
    "Latitude": "28.6412",
    "Longitude": "77.317",
    "RegionCode": "MRDG",
    "State": "NCR",
    "SubRegionCode": "MRDG",
    "VenueAddress": "East Delhi Mall, Opp Anand Vihar, Kaushambi, Near Big Bazaar, Ghaziabad, NCR 201010, India",
    "VenueCode": "EDMP",
    "VenueName": "PVR: EDM, Ghaziabad"
  },
  "ELYE": {
    "AvailableFormats": "2D|3D",
    "City": "Jorhat",
    "Latitude": "26.7568",
    "Longitude": "94.2151",
    "RegionCode": "JORT",
    "State": "Assam",
    "SubRegionCode": "JORT",
    "VenueAddress": "Gar Ali Road, Babupatty, Jorhat, Assam 785001, India",
    "VenueCode": "ELYE",
    "VenueName": "Eleye Multiplex: Jorhat"
  },
  "EOSE": {
    "AvailableFormats": "2D|3D",
    "City": "Shahdol",
    "Latitude": "23.2961",
    "Longitude": "81.3732",
    "RegionCode": "SHAH",
    "State": "Madhya Pradesh",
    "SubRegionCode": "SHAH",
    "VenueAddress": "K Square Mall, MP SH 9A, Bhatnagar, Budhar Main Road, Shahdol, Madhya Pradesh 484001, India",
    "VenueCode": "EOSE",
    "VenueName": "K-Square Cinemas: Shahdol"
  },
  "ESEM": {
    "AvailableFormats": "2D|3D",
    "City": "Pune",
    "Latitude": "18.5927",
    "Longitude": "73.7453",
    "RegionCode": "PUNE",
    "State": "Maharashtra",
    "SubRegionCode": "PUNE",
    "VenueAddress": "1st Floor, XION Mall, Hinjawadi Road, Wakad, Pune, Maharashtra 411057, India",
    "VenueCode": "ESEM",
    "VenueName": "E-SQUARE: Xion Mall, Hinjawadi"
  },
  "ETPB": {
    "AvailableFormats": "2D",
    "City": "Bhavnagar",
    "Latitude": "21.7716",
    "Longitude": "72.1462",
    "RegionCode": "BHNG",
    "State": "Gujarat",
    "SubRegionCode": "BHNG",
    "VenueAddress": "Shiva Blessing 2, Shilpi Nagar, Opposite Bhavnagar Municipal Corporation, Bhavnagar, Gujarat 364001, India",
    "VenueCode": "ETPB",
    "VenueName": "The Entertainment Park: Bhavnagar"
  },
  "EYHZ": {
    "AvailableFormats": "2D",
    "City": "Hazaribagh",
    "Latitude": "23.9914",
    "Longitude": "85.3541",
    "RegionCode": "HAZA",
    "State": "Jharkhand",
    "SubRegionCode": "HAZA",
    "VenueAddress": "Indralok Tower, 4th floor, Main Road Gwal Toli Chowk, Azad Mahalla, Hazaribagh, Jharkhand 825301, India",
    "VenueCode": "EYHZ",
    "VenueName": "Eylex Cinema: Hazaribagh"
  },
  "FCMG": {
    "AvailableFormats": "2D",
    "City": "Nipani",
    "Latitude": "16.4083",
    "Longitude": "74.4892",
    "RegionCode": "NIPN",
    "State": "Karnataka",
    "SubRegionCode": "NIPN",
    "VenueAddress": "Mall Road, Next to Nipani Bus Stand, Chikodi Road, Nipani, Karnataka 591237, India",
    "VenueCode": "FCMG",
    "VenueName": "Magnum Fun Cinemas: Nipani"
  },
  "FLMB": {
    "AvailableFormats": "2D|3D",
    "City": "Ranchi",
    "Latitude": "23.3331",
    "Longitude": "85.3171",
    "RegionCode": "RANC",
    "State": "Jharkhand",
    "SubRegionCode": "RANC",
    "VenueAddress": "Spring City Mall, Hinoo Main Road, Beside Hinoo Bridge, Ranchi, Jharkhand 834002, India",
    "VenueCode": "FLMB",
    "VenueName": "Fun Cinemas: Springcity, Ranchi"
  },
  "FMLB": {
    "AvailableFormats": "2D",
    "City": "Bengaluru",
    "Latitude": "12.9732",
    "Longitude": "77.6213",
    "RegionCode": "HOKT",
    "State": "Karnataka",
    "SubRegionCode": "HOKT",
    "VenueAddress": "2nd Floor - Lido Mall, Swamy Vivekananda Road, Halasuru, Next to Hyatt Hotel, Bengaluru, Karnataka 560008, India",
    "VenueCode": "FMLB",
    "VenueName": "INOX Lido: Off MG Road, Ulsoor"
  },
  "FNAS": {
    "AvailableFormats": "2D|3D",
    "City": "Amritsar",
    "Latitude": "31.62",
    "Longitude": "74.9068",
    "RegionCode": "AMRI",
    "State": "Punjab",
    "SubRegionCode": "AMRI",
    "VenueAddress": "Alpha One, Level-2, G.T. Road, Maqbool Pura, Amritsar, Punjab 143006, India",
    "VenueCode": "FNAS",
    "VenueName": "Cinepolis: Nexus Amritsar"
  },
  "FNJJ": {
    "AvailableFormats": "2D|3D",
    "City": "Jaipur",
    "Latitude": "26.9422",
    "Longitude": "75.771",
    "RegionCode": "JAIP",
    "State": "Rajasthan",
    "SubRegionCode": "JAIP",
    "VenueAddress": "Jhotwara Road, Plot No: 1/1, Triton Mega Mall, Jaipur, Rajasthan 302012, India",
    "VenueCode": "FNJJ",
    "VenueName": "Cinepolis: Triton Mega Mall, Jaipur"
  },
  "FQSA": {
    "AvailableFormats": "2D",
    "City": "Navi Mumbai",
    "Latitude": "19.066",
    "Longitude": "73.0083",
    "RegionCode": "MUMBAI",
    "State": "Maharashtra",
    "SubRegionCode": "THAN",
    "VenueAddress": "Sector 3, Sanpada, Navi Mumbai, Maharashtra 400705, India",
    "VenueCode": "FQSA",
    "VenueName": "Fun Square Cinema: Sanpada"
  },
  "FSTD": {
    "AvailableFormats": "2D",
    "City": "Jaipur",
    "Latitude": "26.9606",
    "Longitude": "75.7786",
    "RegionCode": "JAIP",
    "State": "Rajasthan",
    "SubRegionCode": "JAIP",
    "VenueAddress": "Vidyadhar Nagar, Times square Mall, Jaipur, Rajasthan 302039, India",
    "VenueCode": "FSTD",
    "VenueName": "Funstar Cinemas: Vidhyadhar Nagar, Jaipur"
  },
  "GAGC": {
    "AvailableFormats": "2D",
    "City": "Delhi",
    "Latitude": "28.6964",
    "Longitude": "77.3149",
    "RegionCode": "NCR",
    "State": "NCR",
    "SubRegionCode": "DELHI",
    "VenueAddress": "Main Road Nand Nagari, Kanchipuram, Community Centre, Village Mandoli, Delhi, NCR 110093, India",
    "VenueCode": "GAGC",
    "VenueName": "Gagan Theatre: Nand Nagri, Delhi"
  },
  "GATP": {
    "AvailableFormats": "2D",
    "City": "Palakollu",
    "Latitude": "16.5176",
    "Longitude": "81.7184",
    "RegionCode": "PLKL",
    "State": "Andhra Pradesh",
    "SubRegionCode": "PLKL",
    "VenueAddress": "PP Road, Near Krishna Bhavani Hospital, Palakollu, Andhra Pradesh 534260, India",
    "VenueCode": "GATP",
    "VenueName": "Geetha Annapurna Theatre: Palakollu"
  },
  "GCBA": {
    "AvailableFormats": "2D",
    "City": "Barnala",
    "Latitude": "30.2621",
    "Longitude": "75.2356",
    "RegionCode": "BAR",
    "State": "Punjab",
    "SubRegionCode": "BAR",
    "VenueAddress": "Bathinda Road, Near T-Point, Barnala, Punjab 148101, India",
    "VenueCode": "GCBA",
    "VenueName": "GE Cinemas: Barnala"
  },
  "GCDT": {
    "AvailableFormats": "2D",
    "City": "Thrissur",
    "Latitude": "10.5091",
    "Longitude": "76.2374",
    "RegionCode": "MANR",
    "State": "Kerala",
    "SubRegionCode": "MANR",
    "VenueAddress": "Valarkavu, Nehru Nagar, Kuriachira P.O, Thrissur, Kerala 680006, India",
    "VenueCode": "GCDT",
    "VenueName": "Ganam Cinemas 4K RGB Laser Dolby Atmos: Thrissur"
  },
  "GCKG": {
    "AvailableFormats": "2D",
    "City": "Kokrajhar",
    "Latitude": "26.4275",
    "Longitude": "90.2815",
    "RegionCode": "KKJR",
    "State": "Assam",
    "SubRegionCode": "KKJR",
    "VenueAddress": "Dimalgaon, Near Jwngma Hotel, Kokrajhar, Assam 783370, India",
    "VenueCode": "GCKG",
    "VenueName": "Gold Cinema: Kokrajhar"
  },
  "GCMM": {
    "AvailableFormats": "2D",
    "City": "Madurai",
    "Latitude": "9.93746",
    "Longitude": "78.1219",
    "RegionCode": "MADU",
    "State": "Tamil Nadu",
    "SubRegionCode": "MADU",
    "VenueAddress": "50 Feet Road, Sellur, Madurai, Tamil Nadu 625002, India",
    "VenueCode": "GCMM",
    "VenueName": "Gopuram Cinemas ATMOS and Laser Projector: Madurai"
  },
  "GCTA": {
    "AvailableFormats": "2D",
    "City": "Alwar",
    "Latitude": "27.5611",
    "Longitude": "76.6048",
    "RegionCode": "ALWR",
    "State": "Rajasthan",
    "SubRegionCode": "ALWR",
    "VenueAddress": "3rd Floor, Capital Galleria Plot No 4, Manumarg Kabir Colony, Alwar, Rajasthan 301001, India",
    "VenueCode": "GCTA",
    "VenueName": "Gold Cinema: Alwar CG, Manu Marg"
  },
  "GDBW": {
    "AvailableFormats": "2D",
    "City": "Bhiwadi",
    "Latitude": "28.2131",
    "Longitude": "76.8545",
    "RegionCode": "BHWD",
    "State": "Rajasthan",
    "SubRegionCode": "BHWD",
    "VenueAddress": "Capital Mall, H.C. Buildcon Pvt. Ltd. 812 C.P. 4 Riico Industrial Area, Bhiwadi, Rajasthan 301019, India",
    "VenueCode": "GDBW",
    "VenueName": "Gold Cinema: Bhiwadi"
  },
  "GDKA": {
    "AvailableFormats": "2D",
    "City": "Kota",
    "Latitude": "25.1683",
    "Longitude": "75.8532",
    "RegionCode": "KOTA",
    "State": "Rajasthan",
    "SubRegionCode": "KOTA",
    "VenueAddress": "Aakash Multiplex, Aerodrome Circle, New Grain Mandi,Kota, Rajasthan 324007, India",
    "VenueCode": "GDKA",
    "VenueName": "Gold Cinema: Kota"
  },
  "GEKR": {
    "AvailableFormats": "2D",
    "City": "Tumakuru (Tumkur)",
    "Latitude": "13.3375",
    "Longitude": "77.1039",
    "RegionCode": "TUMK",
    "State": "Karnataka",
    "SubRegionCode": "TUMK",
    "VenueAddress": "B.H. Road, CSI Layout, Near Shiva Agencies, Tumakuru (Tumkur), Karnataka 572101, India",
    "VenueCode": "GEKR",
    "VenueName": "Gayatri Theater 2K Digital A/C Dolby: Tumakuru"
  },
  "GGGZ": {
    "AvailableFormats": "2D",
    "City": "Jalore",
    "Latitude": "25.339",
    "Longitude": "72.6284",
    "RegionCode": "LALO",
    "State": "Rajasthan",
    "SubRegionCode": "LALO",
    "VenueAddress": "RSS Entertainments, Graveet Tower, Bhinmal by Pass Road, Jalore, Rajasthan 343001, India",
    "VenueCode": "GGGZ",
    "VenueName": "Glitz Cinemas: Jalore"
  },
  "GKCC": {
    "AvailableFormats": "2D",
    "City": "Coimbatore",
    "Latitude": "10.9543",
    "Longitude": "76.7892",
    "RegionCode": "COIM",
    "State": "Tamil Nadu",
    "SubRegionCode": "COIM",
    "VenueAddress": "Siruvani Road, Alandurai, Near Canara Bank, Coimbatore, Tamil Nadu 641010, India",
    "VenueCode": "GKCC",
    "VenueName": "Gokulam Cinemas A/C 2K: Coimbatore"
  },
  "GLDC": {
    "AvailableFormats": "2D",
    "City": "Chaygaon",
    "Latitude": "26.0476",
    "Longitude": "91.3844",
    "RegionCode": "CHOG",
    "State": "Assam",
    "SubRegionCode": "CHOG",
    "VenueAddress": "Goalpara - Guwahati Road, Near Bank Of Baroda, Chaygaon, Assam 781124, India",
    "VenueCode": "GLDC",
    "VenueName": "Gold Cinema: Chaygaon"
  },
  "GNDS": {
    "AvailableFormats": "2D",
    "City": "Shikrapur",
    "Latitude": "18.703",
    "Longitude": "74.1389",
    "RegionCode": "SKHR",
    "State": "Maharashtra",
    "SubRegionCode": "SKHR",
    "VenueAddress": "Besides Nandini Villa, Hiware Road, Shikrapur, Maharashtra 412208, India",
    "VenueCode": "GNDS",
    "VenueName": "Gunjan Dijeplex: Shikrapur"
  },
  "GPAM": {
    "AvailableFormats": "2D",
    "City": "Bengaluru",
    "Latitude": "12.9359",
    "Longitude": "77.5176",
    "RegionCode": "HOKT",
    "State": "Karnataka",
    "SubRegionCode": "HOKT",
    "VenueAddress": "Arcade Mall, Rajarajeshwari Nagar, Opposite The Club Mysore Road, Bengaluru, Karnataka 560098, India",
    "VenueCode": "GPAM",
    "VenueName": "Gopalan Cinemas: Arcade Mall, Mysore Road"
  },
  "GPRH": {
    "AvailableFormats": "2D|3D",
    "City": "Hyderabad",
    "Latitude": "17.4993",
    "Longitude": "78.3907",
    "RegionCode": "HYD",
    "State": "Telangana",
    "SubRegionCode": "HYD",
    "VenueAddress": "Nizampet X Roads, Kukatpally, Hyderabad, Telangana 500072, India",
    "VenueCode": "GPRH",
    "VenueName": "GPR Multiplex: Nizampet, Hyderabad"
  },
  "GRNT": {
    "AvailableFormats": "",
    "City": "Ongole",
    "FirstTracked": "2026-07-14",
    "Latitude": "15.51021",
    "Longitude": "80.05091",
    "RegionCode": "ADKI",
    "State": "Andhra Pradesh",
    "SubRegionCode": "ADKI",
    "VenueAddress": "Cumbu, Gopal Nagar, Near Andhra Bank, Ongole, Andhra Pradesh 523001, India",
    "VenueCode": "GRNT",
    "VenueName": "Gorantla Cinemas: Ongole"
  },
  "GTCK": {
    "AvailableFormats": "2D",
    "City": "Trivandrum",
    "Latitude": "8.60425",
    "Longitude": "76.8156",
    "RegionCode": "VKAL",
    "State": "Kerala",
    "SubRegionCode": "VKAL",
    "VenueAddress": "Puthukurichy (P.O), Kaniyapuram, Near V Tracks Cinemas, Trivandrum, Kerala 695303, India",
    "VenueCode": "GTCK",
    "VenueName": "GTracks Screen 2 Sony 4K: Kadinamkulam"
  },
  "GTNA": {
    "AvailableFormats": "2D",
    "City": "Nidadavolu",
    "Latitude": "16.9054",
    "Longitude": "81.6714",
    "RegionCode": "NDVD",
    "State": "Andhra Pradesh",
    "SubRegionCode": "NDVD",
    "VenueAddress": "Nidadavole Road, West Godavari, Opposite Ratna Nursing Home, Nidadavolu, Andhra Pradesh 534301, India",
    "VenueCode": "GTNA",
    "VenueName": "Ganapathi Theatre A/C Dts: Nidadavolu"
  },
  "GTWH": {
    "AvailableFormats": "2D|3D",
    "City": "Wardha",
    "Latitude": "20.7372",
    "Longitude": "78.6028",
    "RegionCode": "WARD",
    "State": "Maharashtra",
    "SubRegionCode": "WARD",
    "VenueAddress": "Sevagram Road, Mahadevpura, Near District General Hospital, Wardha, Maharashtra 442001, India",
    "VenueCode": "GTWH",
    "VenueName": "Ganesh Talkies: Wardha"
  },
  "HAMC": {
    "AvailableFormats": "2D",
    "City": "Shikarpur",
    "Latitude": "28.2792",
    "Longitude": "78.0104",
    "RegionCode": "SHIP",
    "State": "Uttar Pradesh",
    "SubRegionCode": "SHIP",
    "VenueAddress": "HEM Palace Cinema, 100 Kot Shar Khan, Bulandshahr, Shikarpur, Uttar Pradesh 203129, India",
    "VenueCode": "HAMC",
    "VenueName": "Hem Cineplex: Shikarpur"
  },
  "HCKI": {
    "AvailableFormats": "2D",
    "City": "Kotputli",
    "Latitude": "27.7087",
    "Longitude": "76.1956",
    "RegionCode": "KPLI",
    "State": "Rajasthan",
    "SubRegionCode": "KPLI",
    "VenueAddress": "NH 8, Near Patel Oil Company, Kotputli, Rajasthan 303108, India",
    "VenueCode": "HCKI",
    "VenueName": "Heeramoti Cinema: Kotputli"
  },
  "HHCG": {
    "AvailableFormats": "2D",
    "City": "Guntur",
    "Latitude": "16.3097",
    "Longitude": "80.4342",
    "RegionCode": "GUNT",
    "State": "Andhra Pradesh",
    "SubRegionCode": "GUNT",
    "VenueAddress": "Opp LVR Club, Road Lakshmipuram, Koritepadu Road, Guntur, Andhra Pradesh 522007, India",
    "VenueCode": "HHCG",
    "VenueName": "Harihar Cinemas: Guntur"
  },
  "HOUT": {
    "AvailableFormats": "2D",
    "City": "Moranhat",
    "Latitude": "27.1869",
    "Longitude": "94.9144",
    "RegionCode": "MORH",
    "State": "Assam",
    "SubRegionCode": "MORH",
    "VenueAddress": "Peoli Nagar, AT Road, Near State Bank Of India, Moranhat, Assam 785670, India",
    "VenueCode": "HOUT",
    "VenueName": "Houseful Talkies: Moranhat"
  },
  "HVCD": {
    "AvailableFormats": "",
    "City": "Gurugram (Gurgaon)",
    "Latitude": "28.403",
    "Longitude": "76.9739",
    "RegionCode": "NCR",
    "State": "NCR",
    "SubRegionCode": "GURG",
    "VenueAddress": "SVH Metro Street, 2nd Floor, Sector 83, Gurugram (Gurgaon), NCR 122012, India",
    "VenueCode": "HVCD",
    "VenueName": "Cineport Cinemas: SVH Metro Street, Sector 83"
  },
  "IDRM": {
    "AvailableFormats": "2D|3D",
    "City": "Bhubaneswar",
    "Latitude": "20.241",
    "Longitude": "85.7585",
    "RegionCode": "JATN",
    "State": "Odisha",
    "SubRegionCode": "JATN",
    "VenueAddress": "2nd Floor, DN Regalia Mall, IDCO Plot No 1/A, Bhagabanpur Industrial Estate, Patrapada, Bhubaneswar, Odisha 751019, India",
    "VenueCode": "IDRM",
    "VenueName": "INOX: DN Regalia Mall"
  },
  "ILKS": {
    "AvailableFormats": "2D",
    "City": "Hyderabad",
    "Latitude": "17.477071",
    "Longitude": "78.422257",
    "RegionCode": "HYD",
    "State": "Telangana",
    "SubRegionCode": "HYD",
    "VenueAddress": "2nd Floor, Lake Shore Mall, IDA Kukatpally, Hyderabad, Telangana 500072, India",
    "VenueCode": "ILKS",
    "VenueName": "PVR Lakeshore PXL 4K Laser ATMOS DTS-X Y Junction"
  },
  "IMKN": {
    "AvailableFormats": "2D|3D",
    "City": "Kolkata",
    "Latitude": "22.7032",
    "Longitude": "88.4718",
    "RegionCode": "KOLK",
    "State": "West Bengal",
    "SubRegionCode": "KOLK",
    "VenueAddress": "3rd Floor, Star Mall, 74/Mall/1 Jessore Road (North), Sisir Kunja,Madhyamgram, Kolkata, West Bengal 700129, India",
    "VenueCode": "IMKN",
    "VenueName": "INOX: Star Mall, Madhyamgram"
  },
  "INAG": {
    "AvailableFormats": "3D|2D",
    "City": "Guwahati",
    "Latitude": "26.1495",
    "Longitude": "91.7858",
    "RegionCode": "GUW",
    "State": "Assam",
    "SubRegionCode": "GUW",
    "VenueAddress": "Aurus Mall, 5th Floor, G.S. Road, Dispur, Guwahati, Assam 781006, India",
    "VenueCode": "INAG",
    "VenueName": "INOX: Aurus, Guwahati"
  },
  "INBM": {
    "AvailableFormats": "2D|3D",
    "City": "Bengaluru",
    "Latitude": "12.966",
    "Longitude": "77.7179",
    "RegionCode": "HOKT",
    "State": "Karnataka",
    "SubRegionCode": "HOKT",
    "VenueAddress": "INOX Leisure Ltd, 4th Floor, Brookefield Mall, Kundalahalli Main Road, Bengaluru, Karnataka 560037, India",
    "VenueCode": "INBM",
    "VenueName": "INOX: Brookefield Mall"
  },
  "INEL": {
    "AvailableFormats": "2D|3D",
    "City": "Lucknow",
    "Latitude": "26.788",
    "Longitude": "80.9105",
    "RegionCode": "LUCK",
    "State": "Uttar Pradesh",
    "SubRegionCode": "LUCK",
    "VenueAddress": "3rd Floor, Emerald Mall, CP 138, Sector D1, LDA Colony, Ashiyana, Lucknow, Uttar Pradesh 226012, India",
    "VenueCode": "INEL",
    "VenueName": "INOX: Megaplex Emerald, Lucknow"
  },
  "INHD": {
    "AvailableFormats": "2D",
    "City": "Kolkata",
    "Latitude": "22.5649",
    "Longitude": "88.3592",
    "RegionCode": "KOLK",
    "State": "West Bengal",
    "SubRegionCode": "KOLK",
    "VenueAddress": "76, Ganesh Chandra Avenue, Bow Bazaar, Dharmatala, Near Chandni Chowk Metro Station, Kolkata, West Bengal 700013, India",
    "VenueCode": "INHD",
    "VenueName": "Hind INOX: Kolkata"
  },
  "INMB": {
    "AvailableFormats": "2D|IMAX 2D|3D",
    "City": "Bengaluru",
    "Latitude": "12.9922",
    "Longitude": "77.5703",
    "RegionCode": "HOKT",
    "State": "Karnataka",
    "SubRegionCode": "HOKT",
    "VenueAddress": "Mantri Square Mall, Sampige Road, Malleswaram, Bengaluru, Karnataka 560052, India",
    "VenueCode": "INMB",
    "VenueName": "INOX: Mantri Square, Malleshwaram"
  },
  "INOG": {
    "AvailableFormats": "2D|3D",
    "City": "Kalaburagi (Gulbarga)",
    "Latitude": "17.3287",
    "Longitude": "76.8337",
    "RegionCode": "GULB",
    "State": "Karnataka",
    "SubRegionCode": "GULB",
    "VenueAddress": "Mahaveer Nagar, Khuba Plot, Brhampur, Kalaburagi (Gulbarga), Karnataka 585105, India",
    "VenueCode": "INOG",
    "VenueName": "INOX: Orchid Mall, Kalaburagi"
  },
  "INPT": {
    "AvailableFormats": "2D|3D",
    "City": "Coimbatore",
    "Latitude": "11.0548",
    "Longitude": "76.9943",
    "RegionCode": "COIM",
    "State": "Tamil Nadu",
    "SubRegionCode": "COIM",
    "VenueAddress": "S.F. No. 201, Sathy Main Road, Coimbatore, Tamil Nadu 641035, India",
    "VenueCode": "INPT",
    "VenueName": "INOX: Prozone Mall, Coimbatore"
  },
  "INRZ": {
    "AvailableFormats": "IMAX 2D|2D",
    "City": "Bengaluru",
    "Latitude": "13.0943",
    "Longitude": "77.5956",
    "RegionCode": "HOKT",
    "State": "Karnataka",
    "SubRegionCode": "HOKT",
    "VenueAddress": "INOX Leisure Ltd.,2nd Floor, Galleria Mall, Ambedkar Colony, Yelahanka, Bengaluru, Karnataka 560064, India",
    "VenueCode": "INRZ",
    "VenueName": "INOX: Galleria Mall, Yelahanka"
  },
  "INTM": {
    "AvailableFormats": "3D|2D",
    "City": "Nagpur",
    "Latitude": "21.173",
    "Longitude": "79.1004",
    "RegionCode": "NAGP",
    "State": "Maharashtra",
    "SubRegionCode": "NAGP",
    "VenueAddress": "1st floor, Jaswant Tuli Mall, Indora Square, Kamptee Road, Near Indora Chowk, Nagpur, Maharashtra 440017, India",
    "VenueCode": "INTM",
    "VenueName": "INOX: Jaswant Tuli Mall, Kamptee Road"
  },
  "INVM": {
    "AvailableFormats": "2D|3D|IMAX 2D",
    "City": "Delhi",
    "Latitude": "28.6508",
    "Longitude": "77.1206",
    "RegionCode": "NCR",
    "State": "NCR",
    "SubRegionCode": "DELHI",
    "VenueAddress": "1st Floor, Vishal Cinema Complex, Plot No 1, District Center Rajouri Garden, Delhi, NCR 110027, India",
    "VenueCode": "INVM",
    "VenueName": "INOX: Vishal Mall, Rajouri Garden"
  },
  "INZS": {
    "AvailableFormats": "2D|3D",
    "City": "Kanpur",
    "Latitude": "26.473",
    "Longitude": "80.353",
    "RegionCode": "KANP",
    "State": "Uttar Pradesh",
    "SubRegionCode": "KANP",
    "VenueAddress": "3rd Floor, Z Square Mall, Bada Chauraha, Mahatma Gandhi Road, Mall Road, Downtown, Kanpur, Uttar Pradesh 208001, India",
    "VenueCode": "INZS",
    "VenueName": "INOX: Z Square, Bada Chauraha"
  },
  "IPCM": {
    "AvailableFormats": "2D",
    "City": "Varanasi",
    "Latitude": "25.2975",
    "Longitude": "83.0012",
    "RegionCode": "VAR",
    "State": "Uttar Pradesh",
    "SubRegionCode": "VAR",
    "VenueAddress": "Vijaya Mall, Bhelupur Crossing, Durgakund Road, Varanasi, Uttar Pradesh 221010, India",
    "VenueCode": "IPCM",
    "VenueName": "IP Cinemas: IP Vijaya Mall, Varanasi"
  },
  "IRMM": {
    "AvailableFormats": "2D|3D",
    "City": "Vadodara",
    "Latitude": "22.2851",
    "Longitude": "73.1641",
    "RegionCode": "VAD",
    "State": "Gujarat",
    "SubRegionCode": "VAD",
    "VenueAddress": "Reliance Mega Mall, Old Padra Road, Muj Mahuda, Vadodara, Gujarat 390020, India",
    "VenueCode": "IRMM",
    "VenueName": "INOX: Reliance Mega Mall, Vadodara"
  },
  "ISTN": {
    "AvailableFormats": "2D|3D",
    "City": "Hyderabad",
    "Latitude": "17.4237",
    "Longitude": "78.4951",
    "RegionCode": "HYD",
    "State": "Telangana",
    "SubRegionCode": "HYD",
    "VenueAddress": "INOX Leisure Ltd, 4th Floor, Sattva Necklace Mall, Kavadiguda Main Road, Secunderabad, Hyderabad, Telangana 500080, India",
    "VenueCode": "ISTN",
    "VenueName": "INOX: Sattva Necklace Mall, Kavadiguda"
  },
  "JACS": {
    "AvailableFormats": "2D",
    "City": "Madurai",
    "Latitude": "9.92872",
    "Longitude": "78.1488",
    "RegionCode": "MADU",
    "State": "Tamil Nadu",
    "SubRegionCode": "MADU",
    "VenueAddress": "5, 80 Feet Road, Deputy Collector Colony, k.k.Nagar, Madurai, Tamil Nadu 625020, India",
    "VenueCode": "JACS",
    "VenueName": "Jazz And Arsh Cinemas A/C Sony 4K: Madurai"
  },
  "JCCB": {
    "AvailableFormats": "2D|3D",
    "City": "Cooch Behar",
    "Latitude": "26.3451",
    "Longitude": "89.4559",
    "RegionCode": "COBE",
    "State": "West Bengal",
    "SubRegionCode": "COBE",
    "VenueAddress": "City Mall, Near 133 KVA Electric Substation, East Khagrabari, New Cooch Behar Road, Cooch Behar, West Bengal 736179, India",
    "VenueCode": "JCCB",
    "VenueName": "Jaya Cinemas, City Mall: Cooch Behar"
  },
  "JCRJ": {
    "AvailableFormats": "2D",
    "City": "Jamnagar",
    "Latitude": "22.4451",
    "Longitude": "70.1166",
    "RegionCode": "JAM",
    "State": "Gujarat",
    "SubRegionCode": "JAM",
    "VenueAddress": "JCR Drive-In Cinema, Theba Chokdi, Jamnagar-Dwarka Bypass Road, Jamnagar, Gujarat 361120, India",
    "VenueCode": "JCRJ",
    "VenueName": "JCR Drive-In Cinema: Jamnagar, Gujarat"
  },
  "JGTK": {
    "AvailableFormats": "2D",
    "City": "Jayamkondacholapuram",
    "Latitude": "11.2136",
    "Longitude": "79.3569",
    "RegionCode": "JYAM",
    "State": "Tamil Nadu",
    "SubRegionCode": "JYAM",
    "VenueAddress": "National Highway 227, Jayankondam, Near Mangalam mahal, Jayamkondacholapuram, Tamil Nadu 621802, India",
    "VenueCode": "JGTK",
    "VenueName": "JANAGAR CINEMAS A/C DOLBY 7.1"
  },
  "JKCM": {
    "AvailableFormats": "2D",
    "City": "Irinjalakuda",
    "Latitude": "10.3651",
    "Longitude": "76.1944",
    "RegionCode": "IRNK",
    "State": "Kerala",
    "SubRegionCode": "IRNK",
    "VenueAddress": "Kizhuthani, Irinjalakuda Kattoor Road, Near JK Theatres, Irinjalakuda, Kerala 680125, India",
    "VenueCode": "JKCM",
    "VenueName": "JK Cinemas 4K Dolby Atmos: Kizhuthani"
  },
  "JMJR": {
    "AvailableFormats": "2D|3D",
    "City": "Kolkata",
    "Latitude": "22.7127",
    "Longitude": "88.4753",
    "RegionCode": "BSRT",
    "State": "West Bengal",
    "SubRegionCode": "BSRT",
    "VenueAddress": "1/3 Jessore Road, Barasat, Near Duck Banglow More, Kolkata, West Bengal 700124, India",
    "VenueCode": "JMJR",
    "VenueName": "Jaya Cinemas: City Mall, Barasat"
  },
  "JRCR": {
    "AvailableFormats": "2D",
    "City": "Raghopur",
    "Latitude": "26.3047",
    "Longitude": "86.8414",
    "RegionCode": "RAHO",
    "State": "Bihar",
    "SubRegionCode": "RAHO",
    "VenueAddress": "Raghopur Police Station, Piprahi, National Highway 106, Near Ganesh Electronics, Raghopur, Bihar 852111, India",
    "VenueCode": "JRCR",
    "VenueName": "Jai Rajan Cinema: Raghopur"
  },
  "JTBL": {
    "AvailableFormats": "2D",
    "City": "Vizag (Visakhapatnam)",
    "Latitude": "17.7217",
    "Longitude": "83.2032",
    "RegionCode": "SABB",
    "State": "Andhra Pradesh",
    "SubRegionCode": "SABB",
    "VenueAddress": "No.6-175/20, Sheela Nagar, Beside Ayyapa Swamy Temple, Vizag, Andhra Pradesh 530012, India",
    "VenueCode": "JTBL",
    "VenueName": "STBL Cine World, Sheelanagar: Vizag"
  },
  "JTKZ": {
    "AvailableFormats": "2D",
    "City": "Kozhikode",
    "Latitude": "11.1781",
    "Longitude": "75.8658",
    "RegionCode": "KOZH",
    "State": "Kerala",
    "SubRegionCode": "KOZH",
    "VenueAddress": "3rd Floor, Surabhi Mall, Kozhikode-Palakkad Highway, Ramanattukara, Kozhikode, Kerala 673633, India",
    "VenueCode": "JTKZ",
    "VenueName": "Surabhi Cinemas 4K Dolby Atmos: Kozhikode"
  },
  "JTNM": {
    "AvailableFormats": "2D",
    "City": "Martur",
    "Latitude": "15.9869",
    "Longitude": "80.1031",
    "RegionCode": "MART",
    "State": "Andhra Pradesh",
    "SubRegionCode": "MART",
    "VenueAddress": "Konidena Road, Near Andhra Pragati Grameena Bank, Martur, Andhra Pradesh 523301, India",
    "VenueCode": "JTNM",
    "VenueName": "NR Cinemas A/C Dts: Martur"
  },
  "JTSA": {
    "AvailableFormats": "",
    "City": "Sathupally",
    "FirstTracked": "2026-07-14",
    "Latitude": "17.209696",
    "Longitude": "80.83479",
    "RegionCode": "SATH",
    "State": "Telangana",
    "SubRegionCode": "SATH",
    "VenueAddress": "Aswaraopeta, Srinivasa Theatre Road, Sathupally, Telangana 507303, India",
    "VenueCode": "JTSA",
    "VenueName": "Srinivasa Picture Palace: Sathupally"
  },
  "JTTR": {
    "AvailableFormats": "2D",
    "City": "Jaisalmer",
    "Latitude": "26.9178",
    "Longitude": "70.9136",
    "RegionCode": "JSMR",
    "State": "Rajasthan",
    "SubRegionCode": "JSMR",
    "VenueAddress": "Patwon Ki Haveliyan Road,Amar Sagar Pol,Jaisalmer, Rajasthan 345001, India",
    "VenueCode": "JTTR",
    "VenueName": "Ramesh Talkies: Jaisalmer"
  },
  "JVRM": {
    "AvailableFormats": "2D",
    "City": "Pondicherry",
    "Latitude": "11.9371",
    "Longitude": "79.8226",
    "RegionCode": "AURV",
    "State": "Tamil Nadu",
    "SubRegionCode": "AURV",
    "VenueAddress": "No. 65, Kamaraj Salai, Opposite Hotel Jayaram, Near Punjab National Bank, Pondicherry, Tamil Nadu 605011, India",
    "VenueCode": "JVRM",
    "VenueName": "Jeeva Rukmani Cinemas 4K RGB ATMOS: Pondicherry"
  },
  "KACC": {
    "AvailableFormats": "2D",
    "City": "Coimbatore",
    "Latitude": "10.8806",
    "Longitude": "76.9057",
    "RegionCode": "COIM",
    "State": "Tamil Nadu",
    "SubRegionCode": "COIM",
    "VenueAddress": "K.G.Chavadi Bypass Road, Kandhe Gounden Chavadi, Coimbatore, Tamil Nadu 641105, India",
    "VenueCode": "KACC",
    "VenueName": "Kavitha Cinemas 4K Dolby Atmos: K.G. Chavadi"
  },
  "KARP": {
    "AvailableFormats": "2D",
    "City": "Coimbatore",
    "Latitude": "11.0194",
    "Longitude": "76.9638",
    "RegionCode": "COIM",
    "State": "Tamil Nadu",
    "SubRegionCode": "COIM",
    "VenueAddress": "No-161, 100 Feet Road, Gandhi Puram, Opposite Bharath Electronics, Coimbatore, Tamil Nadu 641012, India",
    "VenueCode": "KARP",
    "VenueName": "Karpagam Theatres 4K Dolby Atmos: Coimbatore"
  },
  "KBTT": {
    "AvailableFormats": "2D",
    "City": "Trivandrum",
    "Latitude": "8.49955",
    "Longitude": "76.958",
    "RegionCode": "VKAL",
    "State": "Kerala",
    "SubRegionCode": "VKAL",
    "VenueAddress": "Womens College Road, Chalachitra Kalabhavan CV Raman Pillai Road, Near Dianby Kids World, Trivandrum, Kerala 695014, India",
    "VenueCode": "KBTT",
    "VenueName": "Kalabhavan Theatre Triple Beam 3D: Trivandrum"
  },
  "KCKN": {
    "AvailableFormats": "2D",
    "City": "Kondagaon",
    "Latitude": "19.5952",
    "Longitude": "81.6674",
    "RegionCode": "KNGN",
    "State": "Chhattisgarh",
    "SubRegionCode": "KNGN",
    "VenueAddress": "Bazar para, Near Sahu Communication, Kondagaon, Chhattisgarh 494226, India",
    "VenueCode": "KCKN",
    "VenueName": "Kishore Cineplex: Kondagaon"
  },
  "KCSN": {
    "AvailableFormats": "",
    "City": "Namakkal",
    "FirstTracked": "2026-07-14",
    "Latitude": "11.22639",
    "Longitude": "78.16373",
    "RegionCode": "NMKL",
    "State": "Tamil Nadu",
    "SubRegionCode": "NMKL",
    "VenueAddress": "49, R.P Pudur, Salem - Namakkal Road, Namakkal, Tamil Nadu 637001, India",
    "VenueCode": "KCSN",
    "VenueName": "KS Cineplex Screen 2 by DNC Theatres: Namakkal"
  },
  "KDCU": {
    "AvailableFormats": "",
    "City": "Surat",
    "FirstTracked": "2026-07-14",
    "Latitude": "21.179148",
    "Longitude": "72.962944",
    "RegionCode": "SURT",
    "State": "Gujarat",
    "SubRegionCode": "SURT",
    "VenueAddress": "Chhatrala City Centre Near NH8, Mc Donalds Kadodara At - Umbhel, Kamrej, Surat, Gujarat 394325, India",
    "VenueCode": "KDCU",
    "VenueName": "K.D. Cinema: Chhatrala Mall, Kadodara-Surat"
  },
  "KHNN": {
    "AvailableFormats": "",
    "City": "Khanna",
    "FirstTracked": "2026-07-14",
    "Latitude": "30.68618",
    "Longitude": "76.25217",
    "RegionCode": "KHAN",
    "State": "Punjab",
    "SubRegionCode": "KHAN",
    "VenueAddress": "The Celebration Bazaar, 15, Near PVR, Khanna, Punjab 141401, India",
    "VenueCode": "KHNN",
    "VenueName": "12D Cinema: Khanna"
  },
  "KKMB": {
    "AvailableFormats": "2D",
    "City": "Navi Mumbai",
    "Latitude": "19.101",
    "Longitude": "73.0102",
    "RegionCode": "MUMBAI",
    "State": "Maharashtra",
    "SubRegionCode": "THAN",
    "VenueAddress": "Bonkode Road, Near Railway Station,Sector 8, RS Regency Road, Kopar Khairane, Navi Mumbai, Maharashtra 400709, India",
    "VenueCode": "KKMB",
    "VenueName": "BMX Cinemas (Balaji Movieplex): Koparkhairane"
  },
  "KLPA": {
    "AvailableFormats": "2D",
    "City": "Udupi",
    "Latitude": "13.3362",
    "Longitude": "74.7505",
    "RegionCode": "MANI",
    "State": "Karnataka",
    "SubRegionCode": "MANI",
    "VenueAddress": "Kadekoppala, Chitpady, Udupi, Karnataka 576101, India",
    "VenueCode": "KLPA",
    "VenueName": "Kalpana Theatre: Udupi"
  },
  "KMPV": {
    "AvailableFormats": "",
    "City": "Vizag (Visakhapatnam)",
    "FirstTracked": "2026-07-14",
    "Latitude": "17.808105",
    "Longitude": "83.388985",
    "RegionCode": "VIZA",
    "State": "Andhra Pradesh",
    "SubRegionCode": "VIZA",
    "VenueAddress": "Infosys lane, Beside Area 51 Coffee Shop, Rushikonda, Near IT Sez, Hill no. 2, Vizag (Visakhapatnam), Andhra Pradesh 530045, India",
    "VenueCode": "KMPV",
    "VenueName": "Krishna Miniplex 2K Dolby, IT Sez: Madhurawada"
  },
  "KPGN": {
    "AvailableFormats": "",
    "City": "Guntakal",
    "FirstTracked": "2026-07-14",
    "Latitude": "15.1665",
    "Longitude": "77.3779",
    "RegionCode": "GUNL",
    "State": "Andhra Pradesh",
    "SubRegionCode": "GUNL",
    "VenueAddress": "Tilak Nagar, Near Hotel Ashok Paradise, Guntakal, Andhra Pradesh 515801, India",
    "VenueCode": "KPGN",
    "VenueName": "KPS Movie: Guntakal"
  },
  "KRIC": {
    "AvailableFormats": "2D",
    "City": "Songadh",
    "Latitude": "21.1669",
    "Longitude": "73.5642",
    "RegionCode": "SONG",
    "State": "Gujarat",
    "SubRegionCode": "SONG",
    "VenueAddress": "3rd and 4th Floor Krishna Mall, SBI Road, Navagam Fort Songadh Tapi, Near Vijaya Bank, Songadh, Gujarat 394670, India",
    "VenueCode": "KRIC",
    "VenueName": "Sanskruti Krishna Multiplex: Songadh"
  },
  "KRTT": {
    "AvailableFormats": "3D",
    "City": "Tirupati",
    "Latitude": "13.6303",
    "Longitude": "79.4239",
    "RegionCode": "TIRU",
    "State": "Andhra Pradesh",
    "SubRegionCode": "TIRU",
    "VenueAddress": "Jayasam Road, Tata Nagar, Tirupati, Andhra Pradesh 517501, India",
    "VenueCode": "KRTT",
    "VenueName": "KrishnaTeja A/C 4K Dolby(Newly Renovated):Tirupati"
  },
  "KSNP": {
    "AvailableFormats": "2D",
    "City": "Kochi",
    "Latitude": "10.1449",
    "Longitude": "76.2355",
    "RegionCode": "PALY",
    "State": "Kerala",
    "SubRegionCode": "PALY",
    "VenueAddress": "North Paravur, Pullomkulam, Near Dr Ambedkar Park, Kochi, Kerala 683513, India",
    "VenueCode": "KSNP",
    "VenueName": "Kairali Sree Theater: North Parvur"
  },
  "KSTT": {
    "AvailableFormats": "2D",
    "City": "Thrissur",
    "Latitude": "10.5281",
    "Longitude": "76.2141",
    "RegionCode": "MANR",
    "State": "Kerala",
    "SubRegionCode": "MANR",
    "VenueAddress": "Karunakaran Nambiar Road, Round North, Patturaikkal, Near Bini Bakers, Thrissur, Kerala 680001, India",
    "VenueCode": "KSTT",
    "VenueName": "Kairali Sree RGB Laser 4K Dolby Atmos: Thrissur"
  },
  "KTKT": {
    "AvailableFormats": "",
    "City": "Hyderabad",
    "FirstTracked": "2026-07-14",
    "Latitude": "17.3888",
    "Longitude": "78.4962",
    "RegionCode": "HYD",
    "State": "Telangana",
    "SubRegionCode": "HYD",
    "VenueAddress": "3-2-1/1, Kachiguda Main Road, Mahalaxmi Nilayam, Kachiguda, Hyderabad, Telangana 500027, India",
    "VenueCode": "KTKT",
    "VenueName": "Kumar Theatre: Kachiguda"
  },
  "KVSW": {
    "AvailableFormats": "2D",
    "City": "Chhatrapati Sambhajinagar (Aurangabad)",
    "Latitude": "19.8379",
    "Longitude": "75.2524",
    "RegionCode": "AURA",
    "State": "Maharashtra",
    "SubRegionCode": "AURA",
    "VenueAddress": "Khinvasara Business centre lot No. X-310/1 MIDC Waluj, More Chawk, Beside Police station, Chhatrapati Sambhaji Nagar, Chhatrapati Sambhajinagar (Aurangabad), Maharashtra 431136, India",
    "VenueCode": "KVSW",
    "VenueName": "Khinvasara Cineplex: Waluj"
  },
  "LAKC": {
    "AvailableFormats": "",
    "City": "Perambalur",
    "FirstTracked": "2026-07-14",
    "Latitude": "11.23471",
    "Longitude": "78.8724",
    "RegionCode": "ARIY",
    "State": "Tamil Nadu",
    "SubRegionCode": "ARIY",
    "VenueAddress": "No 145, Perambalur Road, Venkatesapuram, Sungu Pettai, Near Vasan Medicals Care, Perambalur, Tamil Nadu 621212, India",
    "VenueCode": "LAKC",
    "VenueName": "LA Krishna Cinemas: Perambalur"
  },
  "LBDL": {
    "AvailableFormats": "2D",
    "City": "Delhi",
    "Latitude": "28.6592",
    "Longitude": "77.1897",
    "RegionCode": "NCR",
    "State": "NCR",
    "SubRegionCode": "DELHI",
    "VenueAddress": "19-B, New Rohtak Road Karol Bagh, Near Indian Oil Petrol Pump, Delhi, NCR 110005, India",
    "VenueCode": "LBDL",
    "VenueName": "Liberty Cinema: Karol Bagh"
  },
  "LCSH": {
    "AvailableFormats": "2D|3D",
    "City": "Surat",
    "Latitude": "21.1529",
    "Longitude": "72.7761",
    "RegionCode": "SURT",
    "State": "Gujarat",
    "SubRegionCode": "SURT",
    "VenueAddress": "Second floor, Homeland City, Sai Kutir Society, Piplod, Surat, Gujarat 395007, India",
    "VenueCode": "LCSH",
    "VenueName": "Loop Cinemas Homeland City: Vesu"
  },
  "LHDF": {
    "AvailableFormats": "2D",
    "City": "Ahmedabad",
    "Latitude": "23.1245",
    "Longitude": "72.5837",
    "RegionCode": "GNAGAR",
    "State": "Gujarat",
    "SubRegionCode": "GNAGAR",
    "VenueAddress": "5th Floor,Sai Sapphire Square, BRTS Zundal Chandkheda, Opposite Indian Oil Petrol Pump, Ahmedabad, Gujarat 382424, India",
    "VenueCode": "LHDF",
    "VenueName": "LHD Cinemas: Chandkheda"
  },
  "LKOP": {
    "AvailableFormats": "2D",
    "City": "Chennai",
    "Latitude": "12.6806",
    "Longitude": "79.9805",
    "RegionCode": "CHEN",
    "State": "Tamil Nadu",
    "SubRegionCode": "CHEN",
    "VenueAddress": "56, Alagesan Nagar, Varadharaja Nagar, Chennai, Tamil Nadu 603031, India",
    "VenueCode": "LKOP",
    "VenueName": "Lathaa Cinemas A/C Atmos 2K 3D: Chengalpattu"
  },
  "LMCI": {
    "AvailableFormats": "2D",
    "City": "Ichchapuram",
    "Latitude": "19.1297",
    "Longitude": "84.6921",
    "RegionCode": "ICPR",
    "State": "Andhra Pradesh",
    "SubRegionCode": "ICPR",
    "VenueAddress": "Amin Sahib Peta, Oppsite NECC Office, Ichchapuram, Andhra Pradesh 532312, India",
    "VenueCode": "LMCI",
    "VenueName": "L Max Cinemas AC (2K JBL Dolby Digital 7.1)"
  },
  "LPTY": {
    "AvailableFormats": "2D",
    "City": "Thalassery",
    "Latitude": "11.7463",
    "Longitude": "75.4954",
    "RegionCode": "THAY",
    "State": "Kerala",
    "SubRegionCode": "THAY",
    "VenueAddress": "AVK Nair Road, Pilakool, Thalassery, Kerala 670103, India",
    "VenueCode": "LPTY",
    "VenueName": "Liberty Paradise: Thalassery"
  },
  "LTTR": {
    "AvailableFormats": "2D",
    "City": "Tiptur",
    "Latitude": "13.254",
    "Longitude": "76.4778",
    "RegionCode": "TIPT",
    "State": "Karnataka",
    "SubRegionCode": "TIPT",
    "VenueAddress": "Keragodi Road, Chamundeshwari, Tiptur, Karnataka 572201, India",
    "VenueCode": "LTTR",
    "VenueName": "Lakshmi Talkies: Tiptur"
  },
  "LYMS": {
    "AvailableFormats": "2D",
    "City": "Mysuru (Mysore)",
    "Latitude": "12.3088",
    "Longitude": "76.6595",
    "RegionCode": "MYS",
    "State": "Karnataka",
    "SubRegionCode": "MYS",
    "VenueAddress": "Mandi Mohalla, Bangalore Nilgiri Road, Mysuru (Mysore), Karnataka 570001, India",
    "VenueCode": "LYMS",
    "VenueName": "Lido Theatre: Mysuru"
  },
  "MACD": {
    "AvailableFormats": "",
    "City": "Dehradun",
    "FirstTracked": "2026-07-14",
    "Latitude": "30.327717",
    "Longitude": "78.06602",
    "RegionCode": "DEH",
    "State": "Uttarakhand",
    "SubRegionCode": "DEH",
    "VenueAddress": "Times Square Mall, Sahastradhara Road, Near The Host Restaurant, Dehradun, Uttarakhand 248001, India",
    "VenueCode": "MACD",
    "VenueName": "Mukta A2 Cinemas: Times Square Mall, Dehradun"
  },
  "MAGH": {
    "AvailableFormats": "2D",
    "City": "Station Ghanpur",
    "Latitude": "17.8528",
    "Longitude": "79.3762",
    "RegionCode": "STGH",
    "State": "Telangana",
    "SubRegionCode": "STGH",
    "VenueAddress": "Palakurthy Road, Uppugal - Ghanpur Road, Station Ghanpur, Telangana 506144, India",
    "VenueCode": "MAGH",
    "VenueName": "Mahalaxmi Cinemas: Station Ghanpur"
  },
  "MALB": {
    "AvailableFormats": "",
    "City": "Bhopal",
    "Latitude": "23.2745",
    "Longitude": "77.3703",
    "RegionCode": "BHOP",
    "State": "Madhya Pradesh",
    "SubRegionCode": "BHOP",
    "VenueAddress": "Miraj Cinemas, 4th Floor, Alark Square, Lalghati, Bhopal, Madhya Pradesh 462030, India",
    "VenueCode": "MALB",
    "VenueName": "Miraj Cinemas: Alark Square, Bhopal"
  },
  "MASA": {
    "AvailableFormats": "2D",
    "City": "Ahmedabad",
    "Latitude": "23.0317",
    "Longitude": "72.5705",
    "RegionCode": "AHD",
    "State": "Gujarat",
    "SubRegionCode": "AHD",
    "VenueAddress": "Opposite City Gold Cinema, Ashram Road, Near Kotak Mahindra Bank, Ahmedabad, Gujarat 380009, India",
    "VenueCode": "MASA",
    "VenueName": "Mukta A2 Shiv Cinema: Ahmedabad"
  },
  "MAYJ": {
    "AvailableFormats": "2D|3D",
    "City": "Chennai",
    "Latitude": "12.848",
    "Longitude": "80.2401",
    "RegionCode": "CHEN",
    "State": "Tamil Nadu",
    "SubRegionCode": "CHEN",
    "VenueAddress": "No. 34/1, East Coast Road, Kanathur, Near Toll Plaza, Chennai, Tamil Nadu 603112, India",
    "VenueCode": "MAYJ",
    "VenueName": "MAYAJAAL Multiplex: ECR, Chennai"
  },
  "MBSJ": {
    "AvailableFormats": "2D",
    "City": "Vizag (Visakhapatnam)",
    "Latitude": "17.7266",
    "Longitude": "83.2994",
    "RegionCode": "VIZA",
    "State": "Andhra Pradesh",
    "SubRegionCode": "VIZA",
    "VenueAddress": "Bupathi Surya Central Mall, 5th Floor, 43-29-53 Dondaparthy, Vizag (Visakhapatnam), Andhra Pradesh 530016, India",
    "VenueCode": "MBSJ",
    "VenueName": "Miraj Cinemas: Bupathi Surya Central, Dondaparthy"
  },
  "MCBH": {
    "AvailableFormats": "2D",
    "City": "Hyderabad",
    "Latitude": "17.3559",
    "Longitude": "78.4537",
    "RegionCode": "HYD",
    "State": "Telangana",
    "SubRegionCode": "HYD",
    "VenueAddress": "Bahadurpura, Near Zoo Park Road, Hyderabad, Telangana 500064, India",
    "VenueCode": "MCBH",
    "VenueName": "Metro Cinema: Bahadurpura"
  },
  "MCDE": {
    "AvailableFormats": "",
    "City": "Delhi",
    "Latitude": "28.6384",
    "Longitude": "77.107",
    "RegionCode": "NCR",
    "State": "NCR",
    "SubRegionCode": "DELHI",
    "VenueAddress": "Plot No. S-26, Ajay Enclave, Meenakshi Garden, Subhash Nagar, New Delhi, Delhi, NCR 110018, India",
    "VenueCode": "MCDE",
    "VenueName": "Miraj Cinemas: Ivory Tower, Subhash Nagar"
  },
  "MCGP": {
    "AvailableFormats": "2D|3D",
    "City": "Kanpur",
    "Latitude": "26.4907",
    "Longitude": "80.2847",
    "RegionCode": "KANP",
    "State": "Uttar Pradesh",
    "SubRegionCode": "KANP",
    "VenueAddress": "Gurdev Palace Complex, 181-184, Lakhanpur, G. T. Road, Kanpur, Uttar Pradesh 208024, India",
    "VenueCode": "MCGP",
    "VenueName": "Miraj Cinemas: Gurdev Pammi, Kanpur"
  },
  "MCIW": {
    "AvailableFormats": "2D|IMAX 2D|3D",
    "City": "Mumbai",
    "Latitude": "19.0316",
    "Longitude": "72.8809",
    "RegionCode": "MUMBAI",
    "State": "Maharashtra",
    "SubRegionCode": "MCENT",
    "VenueAddress": "Ajmera I-Land Road, Bhakti Park, Wadala East, Mumbai, Maharashtra 400037, India",
    "VenueCode": "MCIW",
    "VenueName": "Miraj Cinemas: IMAX, Wadala"
  },
  "MCMA": {
    "AvailableFormats": "",
    "City": "Ahmedabad",
    "Latitude": "23.0147",
    "Longitude": "72.5965",
    "RegionCode": "AHD",
    "State": "Gujarat",
    "SubRegionCode": "AHD",
    "VenueAddress": "10, Acer Mall, Kankaria Road, Raipur, Opposite Big Bazaar, Ahmedabad, Gujarat 380001, India",
    "VenueCode": "MCMA",
    "VenueName": "Miraj Cinemas: City Pulse, Ahmedabad"
  },
  "MCNR": {
    "AvailableFormats": "",
    "City": "Raipur",
    "Latitude": "21.1704",
    "Longitude": "81.7708",
    "RegionCode": "RAIPUR",
    "State": "Chhattisgarh",
    "SubRegionCode": "RAIPUR",
    "VenueAddress": "GS Entertainment, 4th Floor, Block E9-B, Retail Complex, Central Business District, Sector - 21, Nava Raipur Atal Nagar, Raipur, Chhattisgarh 492101, India",
    "VenueCode": "MCNR",
    "VenueName": "Miraj Cinemas: CBD, Nava Raipur"
  },
  "MCSD": {
    "AvailableFormats": "2D",
    "City": "Tumakuru (Tumkur)",
    "Latitude": "13.3435",
    "Longitude": "77.0943",
    "RegionCode": "TUMK",
    "State": "Karnataka",
    "SubRegionCode": "TUMK",
    "VenueAddress": "B.H.Main Road, Mandipet, Near Gubbi Gate, Near T H S Super Speciality Hospital, Tumakuru (Tumkur), Karnataka 572101, India",
    "VenueCode": "MCSD",
    "VenueName": "Maruthi Digital 4K Cinemas: B.H.Road Tumakuru"
  },
  "MCTD": {
    "AvailableFormats": "2D",
    "City": "Trivandrum",
    "Latitude": "8.61849",
    "Longitude": "76.8985",
    "RegionCode": "ATTI",
    "State": "Kerala",
    "SubRegionCode": "ATTI",
    "VenueAddress": "Pothencode Junction, Pothencode, Thiruvananthapuram, Near State Bank Of India, Trivandrum, Kerala 695584, India",
    "VenueCode": "MCTD",
    "VenueName": "MT Cineplex 4K DOLBY ATMOS: Pothencode"
  },
  "MCXF": {
    "AvailableFormats": "",
    "City": "Chennai",
    "FirstTracked": "2026-07-14",
    "Latitude": "13.1206",
    "Longitude": "80.0979",
    "RegionCode": "CHEN",
    "State": "Tamil Nadu",
    "SubRegionCode": "CHEN",
    "VenueAddress": "OCF Main Road, Avadi, Next to TNEB Office, Chennai, Tamil Nadu 600054, India",
    "VenueCode": "MCXF",
    "VenueName": "Meenakshi Cinemas (Rakki) 4K Dolby Atmos: Avadi"
  },
  "MDLB": {
    "AvailableFormats": "",
    "City": "Lakhisarai",
    "FirstTracked": "2026-07-14",
    "Latitude": "25.17434",
    "Longitude": "86.09349",
    "RegionCode": "LASK",
    "State": "Bihar",
    "SubRegionCode": "LASK",
    "VenueAddress": "Purani Bazzar, Near - Lakhisarai Station, Lakhisarai, Bihar 811311, India",
    "VenueCode": "MDLB",
    "VenueName": "Mahadev Talkies: Lakhisarai, Bihar"
  },
  "MEML": {
    "AvailableFormats": "2D",
    "City": "Hoshangabad",
    "Latitude": "22.7521",
    "Longitude": "77.7293",
    "RegionCode": "HSGB",
    "State": "Madhya Pradesh",
    "SubRegionCode": "HSGB",
    "VenueAddress": "Meenakshi Chowk, Narmadapuram, Hoshangabad, Madhya Pradesh 461001, India",
    "VenueCode": "MEML",
    "VenueName": "Meenakshi Cineplex (Screen 1 & 2): Hoshangabad"
  },
  "MGGG": {
    "AvailableFormats": "2D",
    "City": "Vijayawada",
    "Latitude": "16.5172",
    "Longitude": "80.6288",
    "RegionCode": "VIJA",
    "State": "Andhra Pradesh",
    "SubRegionCode": "VIJA",
    "VenueAddress": "Andhra Ratna Road, Gandhi Nagar, Vijayawada, Andhra Pradesh 520003, India",
    "VenueCode": "MGGG",
    "VenueName": "G3 Theatres: Raj Yuvraj, Vijayawada"
  },
  "MHNU": {
    "AvailableFormats": "3D|2D",
    "City": "Ghaziabad",
    "Latitude": "28.6453",
    "Longitude": "77.336",
    "RegionCode": "NCR",
    "State": "NCR",
    "SubRegionCode": "GHAZ",
    "VenueAddress": "Mahagun Metro Mall, Sector-3, Vaishali, Vaishali Sector 3, Ghaziabad, NCR 201012, India",
    "VenueCode": "MHNU",
    "VenueName": "PVR: Mahagun, Ghaziabad"
  },
  "MISC": {
    "AvailableFormats": "2D",
    "City": "Hooghly",
    "Latitude": "22.7766",
    "Longitude": "88.3252",
    "RegionCode": "CHDD",
    "State": "West Bengal",
    "SubRegionCode": "CHDD",
    "VenueAddress": "Grand Trunk Road, Sheoraphuli, Near St. John`s Academy, Hooghly, West Bengal 712223, India",
    "VenueCode": "MISC",
    "VenueName": "Mini Sushama Cinema: Sheoraphuli"
  },
  "MJWI": {
    "AvailableFormats": "",
    "City": "Chandigarh",
    "FirstTracked": "2026-07-14",
    "Latitude": "30.692394",
    "Longitude": "76.71335",
    "RegionCode": "CHD",
    "State": "Punjab",
    "SubRegionCode": "CHD",
    "VenueAddress": "Unit no 4 to 9, Third Floor, Jubilee Walk, Opposite SOHANA GURUDWARA, Sector 70, Chandigarh, Punjab 160071, India",
    "VenueCode": "MJWI",
    "VenueName": "7D Masti: Jubilee Walk, Mohali"
  },
  "MKSK": {
    "AvailableFormats": "",
    "City": "Shivamogga",
    "FirstTracked": "2026-07-14",
    "Latitude": "13.934454",
    "Longitude": "75.57287",
    "RegionCode": "SHIA",
    "State": "Karnataka",
    "SubRegionCode": "SHIA",
    "VenueAddress": "Tilak Nagar, Durgigudi, Nehru Road, Near Karnataka Bank, Shivamogga, Karnataka 577201, India",
    "VenueCode": "MKSK",
    "VenueName": "Mallikarjuna Theatre: Shivamogga"
  },
  "MLPG": {
    "AvailableFormats": "3D|2D",
    "City": "Porbandar",
    "Latitude": "21.6684",
    "Longitude": "69.6175",
    "RegionCode": "PORB",
    "State": "Gujarat",
    "SubRegionCode": "PORB",
    "VenueAddress": "Ground Floor Part, Survey No 407, First floor and Mezzanine Floor, Old survey no. 141/6 paiki 9/ paiki 1, Khapat, Porbandar, Gujarat 360579, India",
    "VenueCode": "MLPG",
    "VenueName": "Meridian Multiplex: Porbandar"
  },
  "MMDJ": {
    "AvailableFormats": "7D",
    "City": "Jaipur",
    "Latitude": "26.8552",
    "Longitude": "75.808",
    "RegionCode": "JAIP",
    "State": "Rajasthan",
    "SubRegionCode": "JAIP",
    "VenueAddress": "3rd Floor, GT Central, Plot No.4, Indra Place, Malviya Nagar, Jaipur, Rajasthan 302017, India",
    "VenueCode": "MMDJ",
    "VenueName": "7D Masti: Gaurav Tower Central"
  },
  "MMMC": {
    "AvailableFormats": "2D",
    "City": "Mumbai",
    "Latitude": "18.9712",
    "Longitude": "72.8221",
    "RegionCode": "MUMBAI",
    "State": "Maharashtra",
    "SubRegionCode": "MCENT",
    "VenueAddress": "22, Maratha Mandir Marg, Agripada, Opp. Nayar Dental Hospital, Near Mumbai Central ST Depot, Mumbai, Maharashtra 400008, India",
    "VenueCode": "MMMC",
    "VenueName": "Maratha Mandir: Mumbai Central"
  },
  "MMPS": {
    "AvailableFormats": "",
    "City": "Surendranagar",
    "FirstTracked": "2026-07-14",
    "Latitude": "22.719229",
    "Longitude": "71.65531",
    "RegionCode": "SRDN",
    "State": "Gujarat",
    "SubRegionCode": "SRDN",
    "VenueAddress": "Millenium Plaza, Upasana Circle, Taluka Wadhwan, Surendranagar, Gujarat 363030, India",
    "VenueCode": "MMPS",
    "VenueName": "NY Cinemas: 1 Millenium Plaza, Surendranagar"
  },
  "MMWM": {
    "AvailableFormats": "2D",
    "City": "Thane",
    "Latitude": "19.2211",
    "Longitude": "72.977",
    "RegionCode": "MUMBAI",
    "State": "Maharashtra",
    "SubRegionCode": "THNE",
    "VenueAddress": "MovieMax, Diversion from Vidyapeeth Signal, Opposite Bank Of Baroda, Ghodbunder Road, Kapur Bawadi Naka, Near Safe Way Motors, Thane, Maharashtra 400601, India",
    "VenueCode": "MMWM",
    "VenueName": "MovieMax: Wonder Mall, Thane"
  },
  "MNCV": {
    "AvailableFormats": "2D",
    "City": "Chevella",
    "Latitude": "17.3116",
    "Longitude": "78.138",
    "RegionCode": "CHEV",
    "State": "Telangana",
    "SubRegionCode": "CHEV",
    "VenueAddress": "Survey No.5/3 Part, Main Road, Near Aloor Chevella Vegetable Market, Chevella, Telangana 501503, India",
    "VenueCode": "MNCV",
    "VenueName": "Manikanta Theatre 70mm AC Dolby Atmos 2K: Chevella"
  },
  "MOON": {
    "AvailableFormats": "2D",
    "City": "Kathua",
    "Latitude": "32.3675",
    "Longitude": "75.5236",
    "RegionCode": "KATH",
    "State": "Jammu and Kashmir",
    "SubRegionCode": "KATH",
    "VenueAddress": "Main Bazaar, Urliwand, ITI Road, Kathua HO, Near Adidas showroom, Kathua, Jammu and Kashmir 184101, India",
    "VenueCode": "MOON",
    "VenueName": "Moonlight Cinema: Kathua"
  },
  "MRCB": {
    "AvailableFormats": "",
    "City": "Bharatpur",
    "Latitude": "27.1961",
    "Longitude": "77.5237",
    "RegionCode": "BHRT",
    "State": "Rajasthan",
    "SubRegionCode": "BHRT",
    "VenueAddress": "National Highway 21, Jatoli Ghana, Agra Road, Opposite Surya city Township, Bharatpur, Rajasthan 321001, India",
    "VenueCode": "MRCB",
    "VenueName": "Miraj Cinemas: RDB Multiplex, Bharatpur"
  },
  "MRJH": {
    "AvailableFormats": "3D|2D",
    "City": "Howrah",
    "Latitude": "22.6017",
    "Longitude": "88.3452",
    "RegionCode": "HWRH",
    "State": "West Bengal",
    "SubRegionCode": "HWRH",
    "VenueAddress": "Aurobino Mall,3rd Floor, Sri Arabinda Road, Babudanga, Bandhaghat, Howrah, West Bengal 711106, India",
    "VenueCode": "MRJH",
    "VenueName": "Miraj Cinemas: Howrah"
  },
  "MSAA": {
    "AvailableFormats": "",
    "City": "Amravati",
    "FirstTracked": "2026-07-14",
    "Latitude": "20.899939",
    "Longitude": "77.748405",
    "RegionCode": "AMRA",
    "State": "Maharashtra",
    "SubRegionCode": "AMRA",
    "VenueAddress": "Gopal Nagar Square, Badnera Road, Amravati, Maharashtra 444607, India",
    "VenueCode": "MSAA",
    "VenueName": "7D Masti: Tapadia City Center, Amravati"
  },
  "MSMC": {
    "AvailableFormats": "2D",
    "City": "Biaora",
    "Latitude": "23.927",
    "Longitude": "76.9134",
    "RegionCode": "BIAR",
    "State": "Madhya Pradesh",
    "SubRegionCode": "BIAR",
    "VenueAddress": "NH2, Old AB Road, Krishna Puram Colony, Biaora, Madhya Pradesh 465674, India",
    "VenueCode": "MSMC",
    "VenueName": "MSM Cineplex: Biaora"
  },
  "MTBO": {
    "AvailableFormats": "2D",
    "City": "Berhampore",
    "Latitude": "24.0903",
    "Longitude": "88.2503",
    "RegionCode": "BEHA",
    "State": "West Bengal",
    "SubRegionCode": "BEHA",
    "VenueAddress": "22 Sahid Surya Sen Road, Murshidabad, Berhampore, West Bengal 742101, India",
    "VenueCode": "MTBO",
    "VenueName": "Mohan Talkies: Berhampore"
  },
  "MTGG": {
    "AvailableFormats": "2D",
    "City": "Gangavati",
    "Latitude": "15.4327",
    "Longitude": "76.528",
    "RegionCode": "GAVT",
    "State": "Karnataka",
    "SubRegionCode": "GAVT",
    "VenueAddress": "Gandhi Chowk, Vidya Nagar, M.G. Road, Gangavati, Karnataka 583227, India",
    "VenueCode": "MTGG",
    "VenueName": "Mohiuddin Talkies: Gangavati"
  },
  "MTMA": {
    "AvailableFormats": "3D|2D",
    "City": "Mumbai",
    "Latitude": "19.1892",
    "Longitude": "72.8349",
    "RegionCode": "MUMBAI",
    "State": "Maharashtra",
    "SubRegionCode": "MWEST",
    "VenueAddress": "Jagdamba Commercial Complex, Besides Sai Palace Grand, Link Road, Evershine Nagar, Malad West, Mumbai, Maharashtra 400064, India",
    "VenueCode": "MTMA",
    "VenueName": "MOVIETIME: MALAD (WEST)"
  },
  "MTSC": {
    "AvailableFormats": "3D|2D",
    "City": "Mumbai",
    "Latitude": "19.0283",
    "Longitude": "72.8442",
    "RegionCode": "MUMBAI",
    "State": "Maharashtra",
    "SubRegionCode": "MCENT",
    "VenueAddress": "Bijlee Barkha Complex, Junction of Manmala Tank Road, Taikalwadi Road, Matunga(W), Near Maharashtra Municipal School, Mumbai, Maharashtra 400016, India",
    "VenueCode": "MTSC",
    "VenueName": "Movietime Star City: Matunga (W)"
  },
  "MUPX": {
    "AvailableFormats": "2D",
    "City": "Mahalingpur",
    "Latitude": "16.3903",
    "Longitude": "75.1067",
    "RegionCode": "MAGP",
    "State": "Karnataka",
    "SubRegionCode": "MAGP",
    "VenueAddress": "CMC No:880/1, Near Neelakanteshwara Temple, Mahalingpur, Karnataka 587312, India",
    "VenueCode": "MUPX",
    "VenueName": "Smart Moviz (Maruthi Cineplex): Mahalingpur"
  },
  "MVSK": {
    "AvailableFormats": "",
    "City": "Ahmedabad",
    "Latitude": "22.9926",
    "Longitude": "72.3694",
    "RegionCode": "AHD",
    "State": "Gujarat",
    "SubRegionCode": "AHD",
    "VenueAddress": "Vardhman Square, 3rd Floor, Sanand, Ahmedabad, Gujarat 382110, India",
    "VenueCode": "MVSK",
    "VenueName": "Miraj Cinemas: Vardhman Square, Sanand"
  },
  "MXGN": {
    "AvailableFormats": "2D",
    "City": "Noida",
    "Latitude": "28.5085",
    "Longitude": "77.3871",
    "RegionCode": "NCR",
    "State": "NCR",
    "SubRegionCode": "NOIDA",
    "VenueAddress": "MovieMax Gulshan One 29 Mall C-3, Sector 129, Noida, NCR 201301, India",
    "VenueCode": "MXGN",
    "VenueName": "MovieMax Laserplex: Gulshan One 29 Mall, Noida"
  },
  "MYDC": {
    "AvailableFormats": "2D",
    "City": "Doimukh",
    "Latitude": "27.1454",
    "Longitude": "93.7539",
    "RegionCode": "MDHK",
    "State": "Arunachal Pradesh",
    "SubRegionCode": "MDHK",
    "VenueAddress": "M.Y. Digital Cinema Hall, Opposite - Main Market, Doimukh, Arunachal Pradesh 791112, India",
    "VenueCode": "MYDC",
    "VenueName": "MY Digital Cinema: Doimukh"
  },
  "NACM": {
    "AvailableFormats": "",
    "City": "Mullanpur",
    "FirstTracked": "2026-07-14",
    "Latitude": "30.844576",
    "Longitude": "75.67572",
    "RegionCode": "MULL",
    "State": "Punjab",
    "SubRegionCode": "MULL",
    "VenueAddress": "On Cinema Road,opposite Harjindra Cinema, Mandi Mullanpur, Mullanpur, Punjab 141101, India",
    "VenueCode": "NACM",
    "VenueName": "4G Nova Cinemaz: Mullanpur"
  },
  "NCAM": {
    "AvailableFormats": "",
    "City": "Ratlam",
    "FirstTracked": "2026-07-14",
    "Latitude": "23.332882",
    "Longitude": "75.05844",
    "RegionCode": "RATL",
    "State": "Madhya Pradesh",
    "SubRegionCode": "RATL",
    "VenueAddress": "Anand Big Mall, Dmart Road, Bypass Road, Near Midtown Township, Ratlam, Madhya Pradesh 457001, India",
    "VenueCode": "NCAM",
    "VenueName": "NY Cinemas: Anand Big Mall, Ratlam"
  },
  "NCJN": {
    "AvailableFormats": "2D",
    "City": "Jalna",
    "Latitude": "19.8446",
    "Longitude": "75.8953",
    "RegionCode": "JALN",
    "State": "Maharashtra",
    "SubRegionCode": "JALN",
    "VenueAddress": "Lokhandi Pool Road, Sangram Nagar, Rahman Ganj, Jalna, Maharashtra 431203, India",
    "VenueCode": "NCJN",
    "VenueName": "Natraj Cinema: Jalna"
  },
  "NCUK": {
    "AvailableFormats": "2D",
    "City": "Kanpur",
    "Latitude": "26.4647",
    "Longitude": "80.3463",
    "RegionCode": "KANP",
    "State": "Uttar Pradesh",
    "SubRegionCode": "KANP",
    "VenueAddress": "77/151, Latouche Road, Khoya Bazar, Mulganj, Kanpur, Uttar Pradesh 208001, India",
    "VenueCode": "NCUK",
    "VenueName": "Novelty Cinema: Kanpur"
  },
  "NEWS": {
    "AvailableFormats": "2D",
    "City": "Bhawanipatna",
    "Latitude": "19.9265",
    "Longitude": "83.1518",
    "RegionCode": "BHAW",
    "State": "Odisha",
    "SubRegionCode": "BHAW",
    "VenueAddress": "Bhawanipatna - Raipur Highway, Parmanandapur, Opposite of OMFED Dairy, Bhawanipatna, Odisha 766002, India",
    "VenueCode": "NEWS",
    "VenueName": "New Star Cineplex: Bhawanipatna"
  },
  "NKCP": {
    "AvailableFormats": "2D",
    "City": "Jodhpur",
    "Latitude": "26.2772",
    "Longitude": "72.9952",
    "RegionCode": "JODH",
    "State": "Rajasthan",
    "SubRegionCode": "JODH",
    "VenueAddress": "6th Upper Chopasni Road, Akhaliya Vikas Yojana, Choraha, Jodhpur, Rajasthan 342001, India",
    "VenueCode": "NKCP",
    "VenueName": "New Kohinoor Cinema: Jodhpur"
  },
  "NMNH": {
    "AvailableFormats": "2D",
    "City": "Neemuch",
    "Latitude": "24.457",
    "Longitude": "74.8711",
    "RegionCode": "NMCH",
    "State": "Madhya Pradesh",
    "SubRegionCode": "NMCH",
    "VenueAddress": "Patel Plaza, Tagore Marg, Neemuch, Madhya Pradesh 458441, India",
    "VenueCode": "NMNH",
    "VenueName": "Neemuch Multiplex: Patel Plaza"
  },