{
  "AACM": {
    "AvailableFormats": "2D",
    "City": "Raniganj",
    "Latitude": "23.6272",
    "Longitude": "87.1138",
    "RegionCode": "RNGJ",
    "State": "West Bengal",
    "SubRegionCode": "RNGJ",
    "VenueAddress": "N S B Road, P/O Raniganj, Raniganj, West Bengal 713347, India",
    "VenueCode": "AACM",
    "VenueName": "Anjana Chitra Mandir: Raniganj"
  },
  "AANS": {
    "AvailableFormats": "2D",
    "City": "Sawantwadi",
    "Latitude": "15.9241",
    "Longitude": "73.8362",
    "RegionCode": "ZARA",
    "State": "Maharashtra",
    "SubRegionCode": "ZAEA",
    "VenueAddress": "Survey No.45, 1A-14/15/16, Vengurla-Belgaum Road, Nirukhe, Kolgaon, Taluka Sawantwadi, District Sindudurga, Sawantwadi, Maharashtra 416510, India",
    "VenueCode": "AANS",
    "VenueName": "Arya Nova Cinemaz: Sawantwadi"
  },
  "ABCC": {
    "AvailableFormats": "2D",
    "City": "Chandrapur",
    "Latitude": "19.9469",
    "Longitude": "79.2949",
    "RegionCode": "CHAN",
    "State": "Maharashtra",
    "SubRegionCode": "CHAN",
    "VenueAddress": "Ekori Ward, Near Gandhi Chowk, Chandrapur, Maharashtra 442402, India",
    "VenueCode": "ABCC",
    "VenueName": "Cinejoy Cinema: Chandrapur"
  },
  "ABND": {
    "AvailableFormats": "2D",
    "City": "Nandyal",
    "Latitude": "15.4858",
    "Longitude": "78.4861",
    "RegionCode": "NADY",
    "State": "Andhra Pradesh",
    "SubRegionCode": "NADY",
    "VenueAddress": "Ramnath Cine Complex, Telugu Peta, Nandyal, Andhra Pradesh 518501, India",
    "VenueCode": "ABND",
    "VenueName": "Abhiram Theater: Nandyal"
  },
  "ACBD": {
    "AvailableFormats": "",
    "City": "Basantpur",
    "Latitude": "26.1698",
    "Longitude": "84.6684",
    "RegionCode": "BABA",
    "State": "Bihar",
    "SubRegionCode": "BABA",
    "VenueAddress": "Abhishek Cineplex, Basant Pur, Siwan, Basantpur, Bihar 841406, India",
    "VenueCode": "ACBD",
    "VenueName": "Abhishek Cineplex: Basantpur"
  },
  "ACHP": {
    "AvailableFormats": "2D",
    "City": "Pasighat",
    "Latitude": "28.0594",
    "Longitude": "95.3313",
    "RegionCode": "PSHG",
    "State": "Arunachal Pradesh",
    "SubRegionCode": "PSHG",
    "VenueAddress": "Aarun Tamuk Complex, Main Market Pasighat, Near Arunachal Pradesh Rural Bank,Pasighat, Arunachal Pradesh 791102, India",
    "VenueCode": "ACHP",
    "VenueName": "Abor Cinema Hall: Pasighat"
  },
  "ACKL": {
    "AvailableFormats": "2D",
    "City": "Khila",
    "Latitude": "22.6733",
    "Longitude": "88.0003",
    "RegionCode": "KHIL",
    "State": "West Bengal",
    "SubRegionCode": "KHIL",
    "VenueAddress": "Udaynarayanpur, Munshirhat Road, Khila, West Bengal 711410, India",
    "VenueCode": "ACKL",
    "VenueName": "Aparupa Cinema: Khila"
  },
  "ACNB": {
    "AvailableFormats": "2D|3D",
    "City": "Barasat",
    "Latitude": "22.7199",
    "Longitude": "88.4875",
    "RegionCode": "BSRT",
    "State": "West Bengal",
    "SubRegionCode": "BSRT",
    "VenueAddress": "Bus Stand, 125/1, Jessore Road, Champadali, Barasat, West Bengal 700124, India",
    "VenueCode": "ACNB",
    "VenueName": "SSR Cinemas, Suncity Mall: Barasat"
  },
  "ACRT": {
    "AvailableFormats": "2D",
    "City": "Haliya",
    "Latitude": "16.7799",
    "Longitude": "79.3224",
    "RegionCode": "HALI",
    "State": "Telangana",
    "SubRegionCode": "HALI",
    "VenueAddress": "NH 565, Near ICICI Bank ATM, Haliya, Telangana 508377, India",
    "VenueCode": "ACRT",
    "VenueName": "Acchi Reddy Theater A/c Dolby DTS: Haliya"
  },
  "ACVZ": {
    "AvailableFormats": "",
    "City": "Vizianagaram",
    "Latitude": "18.118046",
    "Longitude": "83.411736",
    "RegionCode": "JAMI",
    "State": "Andhra Pradesh",
    "SubRegionCode": "JAMI",
    "VenueAddress": "New Poorna Road, Park Gate Area, Near Two Town Police Station, Vizianagaram, Andhra Pradesh 535001, India",
    "VenueCode": "ACVZ",
    "VenueName": "Aditya Theatre A/c Dts: Vizianagaram"
  },
  "ADCU": {
    "AvailableFormats": "2D",
    "City": "Ujhani",
    "Latitude": "28.0031",
    "Longitude": "79.0155",
    "RegionCode": "UJHA",
    "State": "Uttar Pradesh",
    "SubRegionCode": "UJHA",
    "VenueAddress": "Mohalla Gaddi Tola Budaun Road, Near Krishna Colony, Ujhani, Uttar Pradesh 243639, India",
    "VenueCode": "ADCU",
    "VenueName": "ADS Cineplex: Ujhani"
  },
  "AEST": {
    "AvailableFormats": "2D",
    "City": "Satna",
    "Latitude": "24.5809",
    "Longitude": "80.7732",
    "RegionCode": "SATN",
    "State": "Madhya Pradesh",
    "SubRegionCode": "SATN",
    "VenueAddress": "Chandi Dai Temple Road Karhi, Satdhar, Near Bharat Petroleum, Satna, Madhya Pradesh 485441, India",
    "VenueCode": "AEST",
    "VenueName": "A - 4 Entertainment: Satna"
  },
  "AICF": {
    "AvailableFormats": "2D",
    "City": "Guwahati",
    "Latitude": "26.1322",
    "Longitude": "91.8207",
    "RegionCode": "GUW",
    "State": "Assam",
    "SubRegionCode": "GUW",
    "VenueAddress": "2nd Floor, Asffdc Limited, Shilpgram Road, Panjabari, Guwahati, Assam 781037, India",
    "VenueCode": "AICF",
    "VenueName": "Aideo Cinema Hall: ASFFDC, Panjabari, Guwahati"
  },
  "AKMD": {
    "AvailableFormats": "2D|3D",
    "City": "Chhindwara",
    "Latitude": "22.0607",
    "Longitude": "78.9455",
    "RegionCode": "CHIN",
    "State": "Madhya Pradesh",
    "SubRegionCode": "CHIN",
    "VenueAddress": "Alka Multiplex Alka Cinema Compound, Bus Stand to Station Road, Chhindwara, Madhya Pradesh 480001, India",
    "VenueCode": "AKMD",
    "VenueName": "Alka Multiplex: Chhindwara"
  },
  "ALAT": {
    "AvailableFormats": "2D",
    "City": "Ponnamaravathi",
    "Latitude": "10.2757",
    "Longitude": "78.5367",
    "RegionCode": "PONM",
    "State": "Tamil Nadu",
    "SubRegionCode": "PONM",
    "VenueAddress": "Amman Kovil Street, Ponnamaravathy, Near Ponnamaravathi Police Station, Ponnamaravathi, Tamil Nadu 622407, India",
    "VenueCode": "ALAT",
    "VenueName": "Alankar Theatre 2K 7.1: Ponnamaravathi"
  },
  "AMAU": {
    "AvailableFormats": "",
    "City": "Ulhasnagar",
    "Latitude": "19.233112",
    "Longitude": "73.15781",
    "RegionCode": "MUMBAI",
    "State": "Maharashtra",
    "SubRegionCode": "ULHA",
    "VenueAddress": "Aman Talkies Road, Beside New Telephone Exchange, Sidhi Vinayak Nagar, Ulhasnagar, Maharashtra 421003, India",
    "VenueCode": "AMAU",
    "VenueName": "Aman Theatre: Ulhasnagar"
  },
  "AMCM": {
    "AvailableFormats": "2D",
    "City": "Hyderabad",
    "Latitude": "17.6388",
    "Longitude": "78.4849",
    "RegionCode": "MDCH",
    "State": "Telangana",
    "SubRegionCode": "MDCH",
    "VenueAddress": "Medchal Road, National Highway 44, Near City Union Bank, Secunderabad, Opposite RK Lodge, Hyderabad, Telangana 501401, India",
    "VenueCode": "AMCM",
    "VenueName": "Asian Mukund Cinema: Medchal"
  },
  "AMLU": {
    "AvailableFormats": "",
    "City": "Eluru",
    "Latitude": "16.707937",
    "Longitude": "81.10276",
    "RegionCode": "ELRU",
    "State": "Andhra Pradesh",
    "SubRegionCode": "ELRU",
    "VenueAddress": "Dongala Mandapam Road, Southen Street, Agraharam, Eluru, Andhra Pradesh 534001, India",
    "VenueCode": "AMLU",
    "VenueName": "Ambica Mini (Screen 2): Eluru"
  },
  "AMTI": {
    "AvailableFormats": "2D",
    "City": "Kosamba",
    "Latitude": "21.4683",
    "Longitude": "72.9535",
    "RegionCode": "KOSA",
    "State": "Gujarat",
    "SubRegionCode": "KOSA",
    "VenueAddress": "V S Patel Road, Shraddha, Opposite Ambedkar Statue, Tarsadi, Kosamba, Gujarat 394120, India",
    "VenueCode": "AMTI",
    "VenueName": "Amisha Miniplex: Tarsadi"
  },
  "ANCL": {
    "AvailableFormats": "2D",
    "City": "Lalgudi",
    "Latitude": "10.8747",
    "Longitude": "78.8186",
    "RegionCode": "LALG",
    "State": "Tamil Nadu",
    "SubRegionCode": "LALG",
    "VenueAddress": "No.79F, Main Road, Opposite IOB, Lalgudi, Tamil Nadu 621601, India",
    "VenueCode": "ANCL",
    "VenueName": "Anbu Cinemas A/C 7.1: Lalgudi"
  },
  "ANNT": {
    "AvailableFormats": "2D",
    "City": "Tatipaka",
    "Latitude": "16.4952",
    "Longitude": "81.8747",
    "RegionCode": "TATI",
    "State": "Andhra Pradesh",
    "SubRegionCode": "TATI",
    "VenueAddress": "Jaggnnapeta Road, NH 214, Near TVS Showroom, Tatipaka, Andhra Pradesh 533249, India",
    "VenueCode": "ANNT",
    "VenueName": "Annapurna Theatre AC DTS 2K: Tatipaka"
  },
  "ANTS": {
    "AvailableFormats": "2D",
    "City": "Shoranur",
    "Latitude": "10.7604",
    "Longitude": "76.2759",
    "RegionCode": "SHNR",
    "State": "Kerala",
    "SubRegionCode": "SHNR",
    "VenueAddress": "SH 2, Thrissur-Shoranur Road, Palakkad, Near SMP Junction, Shoranur, Kerala 679121, India",
    "VenueCode": "ANTS",
    "VenueName": "Anurag Cinema: Shoranur"
  },
  "APCX": {
    "AvailableFormats": "2D",
    "City": "Punalur",
    "Latitude": "9.01592",
    "Longitude": "76.939",
    "RegionCode": "PUNA",
    "State": "Kerala",
    "SubRegionCode": "PUNA",
    "VenueAddress": "Kalayanad, Kollam Thirumangalam Road, Punalur, Kerala 691305, India",
    "VenueCode": "APCX",
    "VenueName": "ARIESPLEX PUNALUR RGB LASER 4K ATMOS"
  },
  "APRC": {
    "AvailableFormats": "2D|3D",
    "City": "Gaya",
    "Latitude": "24.7915",
    "Longitude": "84.9997",
    "RegionCode": "GAYA",
    "State": "Bihar",
    "SubRegionCode": "GAYA",
    "VenueAddress": "APR City Centre Mall, Rai Kasinath More, Near Gandhi Maidan, Gaya, Bihar 823001, India",
    "VenueCode": "APRC",
    "VenueName": "APR Cinemas (Dolby Atmos, Christie Laser): Gaya"
  },
  "APVZ": {
    "AvailableFormats": "2D",
    "City": "Vizag (Visakhapatnam)",
    "Latitude": "17.6866",
    "Longitude": "83.1663",
    "RegionCode": "VIZA",
    "State": "Andhra Pradesh",
    "SubRegionCode": "VIZA",
    "VenueAddress": "Askapalli - Aganampudi Road, Kurmannapalem, Vizag (Visakhapatnam), Andhra Pradesh 530046, India",
    "VenueCode": "APVZ",
    "VenueName": "Annapurna A/C 2KDolby Digital:Kurmananapalem,Vizag"
  },
  "ARED": {
    "AvailableFormats": "2D|3D",
    "City": "Ahmedabad",
    "Latitude": "23.0685",
    "Longitude": "72.576",
    "RegionCode": "AHD",
    "State": "Gujarat",
    "SubRegionCode": "AHD",
    "VenueAddress": "Arved Transcube Plaza, Bandhu Nagar, Vijay Nagar, 132 Feet Ring Road, Ranip, Ahmedabad, Gujarat 382480, India",
    "VenueCode": "ARED",
    "VenueName": "PVR: Arved Transcube, Ahmedabad"
  },
  "ARUT": {
    "AvailableFormats": "2D",
    "City": "Anakapalle",
    "Latitude": "17.6874",
    "Longitude": "83.0143",
    "RegionCode": "ANKP",
    "State": "Andhra Pradesh",
    "SubRegionCode": "ANKP",
    "VenueAddress": "No. 10-16, 30, Niddanam Doddi, Gavarapalem, Anakapalle, Andhra Pradesh 531001, India",
    "VenueCode": "ARUT",
    "VenueName": "Sri Satyanarayana Picture Palace AC DTS:Anakapalle"
  },
  "ASGM": {
    "AvailableFormats": "2D",
    "City": "Warangal",
    "Latitude": "17.9879",
    "Longitude": "79.5927",
    "RegionCode": "WAR",
    "State": "Telangana",
    "SubRegionCode": "WAR",
    "VenueAddress": "SVN Road, Mattewada, Phatak Mohalla, Warangal, Telangana 506002, India",
    "VenueCode": "ASGM",
    "VenueName": "Asian Gemini Theatre: Warangal"
  },
  "ASMA": {
    "AvailableFormats": "",
    "City": "Ahilyanagar (Ahmednagar)",
    "Latitude": "19.0927",
    "Longitude": "74.7362",
    "RegionCode": "AHMED",
    "State": "Maharashtra",
    "SubRegionCode": "AHMED",
    "VenueAddress": "Asha Chowk, Ahmednagar, Near Kotwali Police Headquarter, Ahilyanagar (Ahmednagar), Maharashtra 414001, India",
    "VenueCode": "ASMA",
    "VenueName": "Asha Square Multiplex: Ahilyanagar"
  },
  "ASRM": {
    "AvailableFormats": "2D",
    "City": "Madanapalle",
    "Latitude": "13.5553",
    "Longitude": "78.5081",
    "RegionCode": "MDNP",
    "State": "Andhra Pradesh",
    "SubRegionCode": "MDNP",
    "VenueAddress": "Rama Gopal Naidu Colony, Near State Bank of India, Madanapalle, Andhra Pradesh 517325, India",
    "VenueCode": "ASRM",
    "VenueName": "ASR A/C 4K Laser Dolby Surround 7.1: Madanapalle"
  },
  "ASTC": {
    "AvailableFormats": "2D",
    "City": "Indore",
    "Latitude": "22.7432",
    "Longitude": "75.8841",
    "RegionCode": "IND",
    "State": "Madhya Pradesh",
    "SubRegionCode": "IND",
    "VenueAddress": "Patni Pura Road, Nanda Nagar, Indore, Madhya Pradesh 452011, India",
    "VenueCode": "ASTC",
    "VenueName": "Aasttha Cinema: Indore"
  },
  "ATAS": {
    "AvailableFormats": "2D",
    "City": "Virudhunagar",
    "Latitude": "9.59006",
    "Longitude": "77.9557",
    "RegionCode": "VIRU",
    "State": "Tamil Nadu",
    "SubRegionCode": "VIRU",
    "VenueAddress": "Railway Feeder Road, Sivagami Puram, Virudhunagar, Tamil Nadu 626001, India",
    "VenueCode": "ATAS",
    "VenueName": "Apsara Theatre A/C 7.1 Surround System"
  },
  "ATJL": {
    "AvailableFormats": "2D",
    "City": "Jagdalpur",
    "Latitude": "19.0867",
    "Longitude": "82.0165",
    "RegionCode": "JAGD",
    "State": "Chhattisgarh",
    "SubRegionCode": "JAGD",
    "VenueAddress": "Anupama Chowk, Chitrakote Road, Jaiswal Colony, Jagdalpur, Chhattisgarh 494001, India",
    "VenueCode": "ATJL",
    "VenueName": "Anupama Theatre: Jagdalpur"
  },
  "ATTK": {
    "AvailableFormats": "",
    "City": "Narsapur",
    "Latitude": "16.4412",
    "Longitude": "81.7032",
    "RegionCode": "NARP",
    "State": "Andhra Pradesh",
    "SubRegionCode": "NARP",
    "VenueAddress": "NH216, Near Narsapur Bus Depot, Narsapur, Andhra Pradesh 534275, India",
    "VenueCode": "ATTK",
    "VenueName": "Annapurna Picture Palace: Narsapur"
  },
  "AUPM": {
    "AvailableFormats": "2D|3D",
    "City": "Nizamabad",
    "Latitude": "18.6642",
    "Longitude": "78.0941",
    "RegionCode": "NIZA",
    "State": "Telangana",
    "SubRegionCode": "NIZA",
    "VenueAddress": "Kotagally, Pedda Bazaar Road, Shivaji Nagar, Near Government High School, Nizamabad, Telangana 503001, India",
    "VenueCode": "AUPM",
    "VenueName": "Asian Usha Prasad Multiplex: Nizamabad"
  },
  "AVSG": {
    "AvailableFormats": "2D",
    "City": "Ghazipur",
    "Latitude": "25.5728",
    "Longitude": "83.5633",
    "RegionCode": "GHAR",
    "State": "Uttar Pradesh",
    "SubRegionCode": "GHAR",
    "VenueAddress": "Above V-Mart Vidhya Complex, Bandhwa Pull, Near - Sichai Vibhag Choraha, Ghazipur, Uttar Pradesh 233001, India",
    "VenueCode": "AVSG",
    "VenueName": "AV Star Cinema: Ghazipur"
  },
  "AYCS": {
    "AvailableFormats": "2D",
    "City": "Shimla",
    "Latitude": "31.0979",
    "Longitude": "77.1513",
    "RegionCode": "SMLA",
    "State": "Himachal Pradesh",
    "SubRegionCode": "SMLA",
    "VenueAddress": "2nd Floor, C.K. Mall New, ISBT Tutikandi, Shimla, Himachal Pradesh 171004, India",
    "VenueCode": "AYCS",
    "VenueName": "Ayaan Cinemas: Shimla"
  },
  "BALJ": {
    "AvailableFormats": "",
    "City": "Bengaluru",
    "Latitude": "12.956864",
    "Longitude": "77.6194",
    "RegionCode": "BANG",
    "State": "Karnataka",
    "SubRegionCode": "BANG",
    "VenueAddress": "21 K.V Temple Street, Vannarpet Main Road, Viveknagar, Bengaluru, Karnataka 560047, India",
    "VenueCode": "BALJ",
    "VenueName": "Sri Balaji 2K Dolby Atmos 7.1: Viveknagar"
  },
  "BBPC": {
    "AvailableFormats": "2D",
    "City": "Pusad",
    "Latitude": "19.9081",
    "Longitude": "77.5721",
    "RegionCode": "PUSD",
    "State": "Maharashtra",
    "SubRegionCode": "PUSD",
    "VenueAddress": "27, Pusad Road, Near Pusad Court, Near State Bank Of India, Pusad, Maharashtra 445204, India",
    "VenueCode": "BBPC",
    "VenueName": "Barkha Cinema: Pusad"
  },
  "BCKR": {
    "AvailableFormats": "2D|3D",
    "City": "Kharagpur",
    "Latitude": "22.3381",
    "Longitude": "87.306",
    "RegionCode": "KGPR",
    "State": "West Bengal",
    "SubRegionCode": "KGPR",
    "VenueAddress": "Railway Plot No- 489, New Settlement, Gate Bazar, Kharagpur, West Bengal 721301, India",
    "VenueCode": "BCKR",
    "VenueName": "Bombay Cineplex: Kharagpur"
  },
  "BGRJ": {
    "AvailableFormats": "",
    "City": "Narsipatnam",
    "Latitude": "17.66393",
    "Longitude": "82.61234",
    "RegionCode": "NARS",
    "State": "Andhra Pradesh",
    "SubRegionCode": "NARS",
    "VenueAddress": "Bangarraju Complex, Near Indian Bank, Narsipatnam, Andhra Pradesh 531116, India",
    "VenueCode": "BGRJ",
    "VenueName": "Bangaraju Picture Palace A/C DTS: Narsipatnam"
  },
  "BHUC": {
    "AvailableFormats": "2D",
    "City": "Solapur",
    "Latitude": "17.6771",
    "Longitude": "75.8986",
    "RegionCode": "SOLA",
    "State": "Maharashtra",
    "SubRegionCode": "SOLA",
    "VenueAddress": "8, Old Police Line, Murarji Peth, Solapur, Solapur, Maharashtra 413001, India",
    "VenueCode": "BHUC",
    "VenueName": "Bhagwat Uma Mandir: Solapur"
  },
  "BJML": {
    "AvailableFormats": "2D",
    "City": "Punganur",
    "Latitude": "13.3602",
    "Longitude": "78.5785",
    "RegionCode": "PGNR",
    "State": "Andhra Pradesh",
    "SubRegionCode": "PGNR",
    "VenueAddress": "MBT Road, Near Om Shakthi Temple, Punganur, Andhra Pradesh 517247, India",
    "VenueCode": "BJML",
    "VenueName": "Sree Balaji Movie Land A/C 4K: Punganur"
  },
  "BLCK": {
    "AvailableFormats": "2D",
    "City": "Kalladikode",
    "Latitude": "10.8926",
    "Longitude": "76.5402",
    "RegionCode": "KALD",
    "State": "Kerala",
    "SubRegionCode": "KALD",
    "VenueAddress": "Palakkad Highway, Kalladikode, Near Kalladikode Police Station, Kalladikode, Kerala 678596, India",
    "VenueCode": "BLCK",
    "VenueName": "Bala Cinemas Dolby Atmos Laser Tripple Beam 3D"
  },
  "BMCJ": {
    "AvailableFormats": "3D|2D",
    "City": "Jodhpur",
    "Latitude": "26.2723",
    "Longitude": "73.0033",
    "RegionCode": "JODH",
    "State": "Rajasthan",
    "SubRegionCode": "JODH",
    "VenueAddress": "4th Floor, Ashapurna Mall and Multiplex, Gaurav Path Road, Sector-E, Shastri Nagar, Near Shastri Nagar Post Office, Jodhpur, Rajasthan 342003, India",
    "VenueCode": "BMCJ",
    "VenueName": "Miraj Bioscope Cinemas: Jodhpur"
  },
  "BODA": {
    "AvailableFormats": "2D",
    "City": "Damoh",
    "Latitude": "23.8026",
    "Longitude": "79.4537",
    "RegionCode": "DAMO",
    "State": "Madhya Pradesh",
    "SubRegionCode": "DAMO",
    "VenueAddress": "Choupra Khurd, Jabalpur Road, Damoh, Madhya Pradesh 470661, India",
    "VenueCode": "BODA",
    "VenueName": "Bollywood Cinema: Damoh"
  },
  "BSCN": {
    "AvailableFormats": "2D",
    "City": "Nabha",
    "Latitude": "30.3918",
    "Longitude": "76.1195",
    "RegionCode": "NABH",
    "State": "Punjab",
    "SubRegionCode": "NABH",
    "VenueAddress": "Gulldi Gate, Nabha, Nabha-Malerkotla Road, Nabha, Punjab 147201, India",
    "VenueCode": "BSCN",
    "VenueName": "Balraj Cinemas: Nabha"
  },
  "BTCF": {
    "AvailableFormats": "",
    "City": "Firozabad",
    "Latitude": "27.136106",
    "Longitude": "78.4235",
    "RegionCode": "FRZD",
    "State": "Uttar Pradesh",
    "SubRegionCode": "FRZD",
    "VenueAddress": "Bharat talkies, Asfabad, Firozabad, Uttar Pradesh 283203, India",
    "VenueCode": "BTCF",
    "VenueName": "Bharat DD Cinemas: Firozabad"
  },
  "BUUC": {
    "AvailableFormats": "2D",
    "City": "Udupi",
    "Latitude": "13.3457",
    "Longitude": "74.7527",
    "RegionCode": "MANI",
    "State": "Karnataka",
    "SubRegionCode": "MANI",
    "VenueAddress": "Mandavi Times Square Mall, 2nd Floor, Mandavi, Manipal Highway, Klasanka Junction, Kunjibettu, Udupi, Karnataka 576102, India",
    "VenueCode": "BUUC",
    "VenueName": "Times Square Bharath Cinemas: Udupi"
  },
  "CAEP": {
    "AvailableFormats": "2D|3D",
    "City": "Patna",
    "Latitude": "25.5785",
    "Longitude": "85.0798",
    "RegionCode": "PATN",
    "State": "Bihar",
    "SubRegionCode": "PATN",
    "VenueAddress": "2nd Floor, S R Arcade, Near Mahavir Cancer Sansthan Pulwarishariff, Patna, Bihar 801505, India",
    "VenueCode": "CAEP",
    "VenueName": "Connplex Cinemas: Phulwari Sharif, Patna"
  },
  "CBWC": {
    "AvailableFormats": "",
    "City": "Biswanath Chariali",
    "Latitude": "26.7412",
    "Longitude": "93.1505",
    "RegionCode": "BICH",
    "State": "Assam",
    "SubRegionCode": "BICH",
    "VenueAddress": "3rd and 4th Floor, Millennium Market City, Biswanath Civil Sub Division, Biswanath Chariali, Assam 784176, India",
    "VenueCode": "CBWC",
    "VenueName": "Connplex Cinemas: Biswanath Chariali"
  },
  "CCCB": {
    "AvailableFormats": "2D",
    "City": "Coimbatore",
    "Latitude": "11.0137",
    "Longitude": "77.0026",
    "RegionCode": "COIM",
    "State": "Tamil Nadu",
    "SubRegionCode": "COIM",
    "VenueAddress": "14, Renganayaki Nagar, Thirumagal Nagar, Udayampalayam, Coimbatore, Tamil Nadu 641028, India",
    "VenueCode": "CCCB",
    "VenueName": "Cosmo Cinemas PEELAMEDU AC 4K RGB Lase:Coimbatore"
  },
  "CCJR": {
    "AvailableFormats": "2D",
    "City": "Janjgir",
    "Latitude": "22.0117",
    "Longitude": "82.5759",
    "RegionCode": "JANR",
    "State": "Chhattisgarh",
    "SubRegionCode": "JANR",
    "VenueAddress": "Near A One Bakery, Link Road, Janjgir, Chhattisgarh 495668, India",
    "VenueCode": "CCJR",
    "VenueName": "City Cinema: Janjgir Naila"
  },
  "CCML": {
    "AvailableFormats": "",
    "City": "Korba",
    "Latitude": "22.354334",
    "Longitude": "82.7046",
    "RegionCode": "KRBA",
    "State": "Chhattisgarh",
    "SubRegionCode": "KRBA",
    "VenueAddress": "Palm Mall, 2nd floor, T.P. Nagar Road, Lalu Ram colony, Korba, Chhattisgarh 495677, India",
    "VenueCode": "CCML",
    "VenueName": "Cineflix Cinema: The Palm Mall, Korba"
  },
  "CCPF": {
    "AvailableFormats": "",
    "City": "Agra",
    "Latitude": "27.2062",
    "Longitude": "77.9727",
    "RegionCode": "AGRA",
    "State": "Uttar Pradesh",
    "SubRegionCode": "AGRA",
    "VenueAddress": "Avas Vikas Colony, Sector 12A, Plot No. MP 01, Agra, Uttar Pradesh 282007, India",
    "VenueCode": "CCPF",
    "VenueName": "Cineworld Multiplex: Paras Pearls Mall, Agra"
  },
  "CCSI": {
    "AvailableFormats": "2D|3D",
    "City": "Siliguri",
    "Latitude": "26.7394",
    "Longitude": "88.4027",
    "RegionCode": "SILI",
    "State": "West Bengal",
    "SubRegionCode": "SILI",
    "VenueAddress": "Savin Plaza, Savin Kingdom,Hill Kart Road, Dagapur, Behind Baba Loknath Mandir, Siliguri, West Bengal 734003, India",
    "VenueCode": "CCSI",
    "VenueName": "Savin Cinemas: Siliguri"
  },
  "CDCM": {
    "AvailableFormats": "2D",
    "City": "Marayur",
    "Latitude": "10.278",
    "Longitude": "77.1658",
    "RegionCode": "MAYR",
    "State": "Kerala",
    "SubRegionCode": "MAYR",
    "VenueAddress": "Munnar - Udumalpet Road, Nearby Rahul Hotel, Marayur, Kerala 685620, India",
    "VenueCode": "CDCM",
    "VenueName": "Chandana Cinema: Marayur"
  },
  "CEHR": {
    "AvailableFormats": "2D|3D",
    "City": "Bengaluru",
    "Latitude": "12.8963",
    "Longitude": "77.6579",
    "RegionCode": "BANG",
    "State": "Karnataka",
    "SubRegionCode": "BANG",
    "VenueAddress": "No.102, 2B, Haralur Main Road, Bengaluru, Karnataka 560102, India",
    "VenueCode": "CEHR",
    "VenueName": "Cinephile HSR Layout: PNR Felicity Mall Haralur Rd"
  },
  "CGBO": {
    "AvailableFormats": "2D",
    "City": "Ahmedabad",
    "Latitude": "23.0288",
    "Longitude": "72.4785",
    "RegionCode": "AHD",
    "State": "Gujarat",
    "SubRegionCode": "AHD",
    "VenueAddress": "Behind Amrapali Shopping Complex, Bopal Junction,Sardar Patel Ring Road, Near Bharat Petroleum Petrol Pump, Ahmedabad, Gujarat 380058, India",
    "VenueCode": "CGBO",
    "VenueName": "City Gold: Bopal"
  },
  "CGMM": {
    "AvailableFormats": "2D|3D",
    "City": "Muzaffarpur",
    "Latitude": "26.1101",
    "Longitude": "85.3957",
    "RegionCode": "MUZA",
    "State": "Bihar",
    "SubRegionCode": "MUZA",
    "VenueAddress": "The Grand Mall, 5th Floor, Club Road, Near MDDM College, Muzaffarpur, Bihar 842002, India",
    "VenueCode": "CGMM",
    "VenueName": "Cinepolis: Grand Mall, Muzaffarpur"
  },
  "CHGV": {
    "AvailableFormats": "2D",
    "City": "Belagavi (Belgaum)",
    "Latitude": "15.8594",
    "Longitude": "74.5122",
    "RegionCode": "BELG",
    "State": "Karnataka",
    "SubRegionCode": "BELG",
    "VenueAddress": "1724/A, Huns Talkies Road, Burud Galli, Nana Shankar Sheth Marg, Ravivar Peth, Near Karur Vysya Bank, Belagavi (Belgaum), Karnataka 590001, India",
    "VenueCode": "CHGV",
    "VenueName": "Chitra Talkies: Belagavi"
  },
  "CHTM": {
    "AvailableFormats": "2D",
    "City": "Chhibramau",
    "Latitude": "27.1475",
    "Longitude": "79.5114",
    "RegionCode": "CHHI",
    "State": "Uttar Pradesh",
    "SubRegionCode": "CHHI",
    "VenueAddress": "100 Bed Hospital Road, Kannauj, Behind Janta Cold, Chhibramau, Uttar Pradesh 209721, India",
    "VenueCode": "CHTM",
    "VenueName": "Chhotu Maharaj: Chhibramau, UP"
  },
  "CIKO": {
    "AvailableFormats": "2D",
    "City": "Kodakara",
    "Latitude": "10.3734",
    "Longitude": "76.3065",
    "RegionCode": "THSR",
    "State": "Kerala",
    "SubRegionCode": "THSR",
    "VenueAddress": "98F4+9H8, Vellikulangara Road, Kodakara, Kerala 680684, India",
    "VenueCode": "CIKO",
    "VenueName": "City Shivadam RGB 4K Laser 3D: Kodakara"
  },
  "CJJB": {
    "AvailableFormats": "",
    "City": "Jabalpur",
    "Latitude": "23.2455",
    "Longitude": "79.881",
    "RegionCode": "JABL",
    "State": "Madhya Pradesh",
    "SubRegionCode": "JABL",
    "VenueAddress": "Servay no 14 Gram Magela Road, Post Gram Surtalai Tehsil Panagar, Jabalpur, Madhya Pradesh 482002, India",
    "VenueCode": "CJJB",
    "VenueName": "Chhotu Maharaj Cine Cafe: Jabalpur, MP"
  },
  "CLCU": {
    "AvailableFormats": "2D",
    "City": "Umred",
    "Latitude": "20.8595",
    "Longitude": "79.3164",
    "RegionCode": "UMRD",
    "State": "Maharashtra",
    "SubRegionCode": "UMRD",
    "VenueAddress": "Kawarapeth, Gangapur, Umred, Maharashtra 441203, India",
    "VenueCode": "CLCU",
    "VenueName": "Balaji Multiplex: Umred"
  },
  "CLMK": {
    "AvailableFormats": "2D|3D",
    "City": "Kolkata",
    "Latitude": "22.5167",
    "Longitude": "88.3489",
    "RegionCode": "KOLK",
    "State": "West Bengal",
    "SubRegionCode": "KOLK",
    "VenueAddress": "5th Floor Lake mall, Rash behari Avenue Road, 104- Rashbehari Avenue, Kolkata, West Bengal 700026, India",
    "VenueCode": "CLMK",
    "VenueName": "Cinepolis: Lake Mall, Kolkata"
  },
  "CMBW": {
    "AvailableFormats": "",
    "City": "Bankura",
    "Latitude": "23.2527",
    "Longitude": "87.0263",
    "RegionCode": "BNKU",
    "State": "West Bengal",
    "SubRegionCode": "BNKU",
    "VenueAddress": "Salboni Village, Bankura-Chhatna Road, Bankura, West Bengal 722102, India",
    "VenueCode": "CMBW",
    "VenueName": "Chhotu Maharaj: Bankura, WB"
  },
  "CMLO": {
    "AvailableFormats": "2D",
    "City": "Cherpulassery",
    "Latitude": "10.8796",
    "Longitude": "76.3103",
    "RegionCode": "CHER",
    "State": "Kerala",
    "SubRegionCode": "CHER",
    "VenueAddress": "Pattambi - Cherpulassery Road, Behind BSNL Exchange, Cherpulassery, Kerala 679503, India",
    "VenueCode": "CMLO",
    "VenueName": "Magic Frames Devi Cinemas: Cherpulassery"
  },
  "CMMX": {
    "AvailableFormats": "2D",
    "City": "Lakhimpur Kheri",
    "Latitude": "27.946",
    "Longitude": "80.2186",
    "RegionCode": "LKPK",
    "State": "Uttar Pradesh",
    "SubRegionCode": "LKPK",
    "VenueAddress": "Shiv Sagar Cineplex and Cafe. 2.Gata no.536, Ishlamabad, (Gureaila Chauraha Se Ramlila Maidan Road), Mohammadi, Lakhimpur Kheri, Uttar Pradesh 262804, India",
    "VenueCode": "CMMX",
    "VenueName": "Chhotu Maharaj Cine Cafe: Mohammadi, Kheri"
  },
  "CMUA": {
    "AvailableFormats": "",
    "City": "Howrah",
    "Latitude": "22.4874",
    "Longitude": "88.1111",
    "RegionCode": "HWRH",
    "State": "West Bengal",
    "SubRegionCode": "HWRH",
    "VenueAddress": "National Highway 16, Avarland, Uluberia, Near Coffee House Classic, Howrah, West Bengal 711316, India",
    "VenueCode": "CMUA",
    "VenueName": "Chhotu Maharaj: Uluberia, Howrah"
  },
  "CMXS": {
    "AvailableFormats": "2D",
    "City": "Dabhara",
    "Latitude": "21.7876",
    "Longitude": "82.9951",
    "RegionCode": "DABH",
    "State": "Chhattisgarh",
    "SubRegionCode": "DABH",
    "VenueAddress": "Bhagat Shopping Mall, Chhapora to Dabhara Main Road, Malkharoda, Dabhara, Chhattisgarh 495691, India",
    "VenueCode": "CMXS",
    "VenueName": "Chandra Multiplex Cinema: Dabhara"
  },
  "CNED": {
    "AvailableFormats": "2D|3D",
    "City": "Bhubaneswar",
    "Latitude": "20.2912",
    "Longitude": "85.8558",
    "RegionCode": "JATN",
    "State": "Odisha",
    "SubRegionCode": "JATN",
    "VenueAddress": "Esplanade One, Rasulgarh Industrial Estate, Industrial Area Estate, Rasulgarh, Bhubaneswar, Odisha 751007, India",
    "VenueCode": "CNED",
    "VenueName": "Cinepolis: Nexus Esplanade, Bhubaneswar"
  },
  "CNPE": {
    "AvailableFormats": "2D",
    "City": "Vadodara",
    "Latitude": "22.3105",
    "Longitude": "73.1589",
    "RegionCode": "VAD",
    "State": "Gujarat",
    "SubRegionCode": "VAD",
    "VenueAddress": "Cine Mall, 50, Race Course Road, Alkapuri, Near Natubhai Circle, Race Course, Vadodara, Gujarat 390007, India",
    "VenueCode": "CNPE",
    "VenueName": "Cineprime Cinema: Cinemall, Vadodara"
  },
  "CNTD": {
    "AvailableFormats": "2D",
    "City": "Tadepalligudem",
    "Latitude": "16.8194",
    "Longitude": "81.524",
    "RegionCode": "TADP",
    "State": "Andhra Pradesh",
    "SubRegionCode": "TADP",
    "VenueAddress": "Housing Board Colony, Sasi College Road, Tadepalligudem, Andhra Pradesh 534101, India",
    "VenueCode": "CNTD",
    "VenueName": "Connplex Cinemas (Signature): Sri Sri"
  },
  "CONN": {
    "AvailableFormats": "2D",
    "City": "Balotra",
    "Latitude": "25.7975",
    "Longitude": "72.1624",
    "RegionCode": "BALO",
    "State": "Rajasthan",
    "SubRegionCode": "BALO",
    "VenueAddress": "2nd Floor, Naresha Palace, Raj Resort, Nakoda Road, Near Rajendra Dham, Balotra, Rajasthan 344024, India",
    "VenueCode": "CONN",
    "VenueName": "Connplex Cinemas: Balotra"
  },
  "CPAR": {
    "AvailableFormats": "2D|3D",
    "City": "Pune",
    "Latitude": "18.4631",
    "Longitude": "73.8168",
    "RegionCode": "PUNE",
    "State": "Maharashtra",
    "SubRegionCode": "PUNE",
    "VenueAddress": "Near Flyover, Sinhagad Road, Vadgaon Budruk, Pune, Maharashtra 411041, India",
    "VenueCode": "CPAR",
    "VenueName": "Abhiruchi City Pride: Sinhagad Road"
  },
  "CPEM": {
    "AvailableFormats": "2D",
    "City": "Ahmedabad",
    "Latitude": "23.0233",
    "Longitude": "72.5682",
    "RegionCode": "AHD",
    "State": "Gujarat",
    "SubRegionCode": "AHD",
    "VenueAddress": "The Orient Club, Near - Gujarat College, Ahmedabad, Gujarat 380006, India",
    "VenueCode": "CPEM",
    "VenueName": "City Pulse: Orient Miniplex, Ellisbridge"
  },
  "CPKJ": {
    "AvailableFormats": "",
    "City": "Keonjhar",
    "Latitude": "21.63116",
    "Longitude": "85.60185",
    "RegionCode": "KNJH",
    "State": "Odisha",
    "SubRegionCode": "KNJH",
    "VenueAddress": "Cineplexx, Old Tarini Chhabighar, Hospital Road, Keonjhar, Odisha 758001, India",
    "VenueCode": "CPKJ",
    "VenueName": "Cineplexx: Keonjhar"
  },
  "CPMJ": {
    "AvailableFormats": "2D",
    "City": "Jagdalpur",
    "Latitude": "19.0887",
    "Longitude": "82.0118",
    "RegionCode": "JAGD",
    "State": "Chhattisgarh",
    "SubRegionCode": "JAGD",
    "VenueAddress": "Binaka Mall, Chitrakote Road, Jagdalpur, Chhattisgarh 493773, India",
    "VenueCode": "CPMJ",
    "VenueName": "Cine Plus Multiplex: Jagdalpur"
  },
  "CPPD": {
    "AvailableFormats": "2D",
    "City": "Proddatur",
    "Latitude": "14.7472",
    "Longitude": "78.5579",
    "RegionCode": "PROD",
    "State": "Andhra Pradesh",
    "SubRegionCode": "PROD",
    "VenueAddress": "Srinivasa Nagar, Opposite Arabian Hotel, Near S.K.C.V.S High School, Proddatur, Andhra Pradesh 516360, India",
    "VenueCode": "CPPD",
    "VenueName": "Chand Picture Palace A/C DTS: Proddatur"
  },
  "CPUM": {
    "AvailableFormats": "2D|3D",
    "City": "Delhi",
    "Latitude": "28.7149",
    "Longitude": "77.1164",
    "RegionCode": "NCR",
    "State": "NCR",
    "SubRegionCode": "DELHI",
    "VenueAddress": "Unity One Rohini, Bhagawan Mahavir Marg, Rohini West Metro Station, Sector 10, Rohini, Delhi, NCR 110085, India",
    "VenueCode": "CPUM",
    "VenueName": "Cinepolis: Unity One Mall Rohini, Delhi"
  },
  "CRHP": {
    "AvailableFormats": "",
    "City": "Shopian",
    "Latitude": "33.72005",
    "Longitude": "74.833595",
    "RegionCode": "SPHN",
    "State": "Jammu and Kashmir",
    "SubRegionCode": "SPHN",
    "VenueAddress": "Townhall Municipal Council Office, Near Town Hall Park, Shopian, Jammu and Kashmir 192303, India",
    "VenueCode": "CRHP",
    "VenueName": "Citara Cinemas: Shopian"
  },
  "CSCT": {
    "AvailableFormats": "2D",
    "City": "Tirupati",
    "Latitude": "13.6385",
    "Longitude": "79.4235",
    "RegionCode": "TIRU",
    "State": "Andhra Pradesh",
    "SubRegionCode": "TIRU",
    "VenueAddress": "RS Gardens, Leela Mahal Road, Tirupati, Andhra Pradesh 517501, India",
    "VenueCode": "CSCT",
    "VenueName": "CS Cinemas (Devendra Theater) A/C 4K Dolby Atmos"
  },
  "CSNC": {
    "AvailableFormats": "",
    "City": "Pileru",
    "Latitude": "13.657028",
    "Longitude": "78.9408",
    "RegionCode": "PLRU",
    "State": "Andhra Pradesh",
    "SubRegionCode": "PLRU",
    "VenueAddress": "National Highway 205, Near Vinayaka Temple, Pileru, Andhra Pradesh 517214, India",
    "VenueCode": "CSNC",
    "VenueName": "CSN Cinema (Shukur Picture Palace): Pileru"
  },
  "CSTM": {
    "AvailableFormats": "2D",
    "City": "Satana",
    "Latitude": "20.5959",
    "Longitude": "74.1976",
    "RegionCode": "STNA",
    "State": "Maharashtra",
    "SubRegionCode": "STNA",
    "VenueAddress": "Sonar Lane, Ambedkar Nagar, Satana, Maharashtra 423301, India",
    "VenueCode": "CSTM",
    "VenueName": "Chitra Cinema: Satana"
  },
  "CTEE": {
    "AvailableFormats": "3D|2D",
    "City": "Gurugram (Gurgaon)",
    "Latitude": "28.454",
    "Longitude": "76.9927",
    "RegionCode": "NCR",
    "State": "NCR",
    "SubRegionCode": "GURG",
    "VenueAddress": "The Esplanade Mall, Sector 37 C Road, Sector 37, Gurugram (Gurgaon), NCR 122001, India",
    "VenueCode": "CTEE",
    "VenueName": "Cinepolis: The Esplanade, Gurugram"
  },
  "CTMR": {
    "AvailableFormats": "2D",
    "City": "Muzaffarnagar",
    "Latitude": "29.4762",
    "Longitude": "77.6966",
    "RegionCode": "MUZ",
    "State": "Uttar Pradesh",
    "SubRegionCode": "MUZ",
    "VenueAddress": "NH 58, Civil Lines North, Muzaffarnagar, Uttar Pradesh 251001, India",
    "VenueCode": "CTMR",
    "VenueName": "Chandra Talkies: Muzaffarnagar"
  },
  "CTYB": {
    "AvailableFormats": "",
    "City": "Basna",
    "Latitude": "21.27868",
    "Longitude": "82.8222",
    "RegionCode": "BASN",
    "State": "Chhattisgarh",
    "SubRegionCode": "BASN",
    "VenueAddress": "Near Lady Hospital, National Highway 6, Basna, Chhattisgarh 493554, India",
    "VenueCode": "CTYB",
    "VenueName": "City Cinema: Basna"
  },
  "CVLG": {
    "AvailableFormats": "2D",
    "City": "Bengaluru",
    "Latitude": "12.9817",
    "Longitude": "77.5638",
    "RegionCode": "BANG",
    "State": "Karnataka",
    "SubRegionCode": "BANG",
    "VenueAddress": "3rd Floor, Lulu Mall, Rajajinagar, Bengaluru, Karnataka 560023, India",
    "VenueCode": "CVLG",
    "VenueName": "Cinepolis VIP: Lulu Mall, Bengaluru"
  },
  "CWTK": {
    "AvailableFormats": "2D",
    "City": "Kozhinjampara",
    "Latitude": "10.7368",
    "Longitude": "76.8327",
    "RegionCode": "PLKK",
    "State": "Kerala",
    "SubRegionCode": "PLKK",
    "VenueAddress": "Chittur Road, Near Bus Stand, Kozhinjampara, Kerala 678555, India",
    "VenueCode": "CWTK",
    "VenueName": "Cowmalya Theatre: Kozhinjampara"
  },
  "CXTE": {
    "AvailableFormats": "2D",
    "City": "Umerkote",
    "Latitude": "19.6555",
    "Longitude": "82.2213",
    "RegionCode": "UMEK",
    "State": "Odisha",
    "SubRegionCode": "UMEK",
    "VenueAddress": "JK Plaza, Infront of Reliance Trends, Dongriguda Road, Shanti Nagar, Umerkote, Odisha 764073, India",
    "VenueCode": "CXTE",
    "VenueName": "Connplex Cinemas: Umerkote"
  },
  "DBJR": {
    "AvailableFormats": "2D",
    "City": "Kalady",
    "Latitude": "10.1687",
    "Longitude": "76.443",
    "RegionCode": "KLDY",
    "State": "Kerala",
    "SubRegionCode": "KLDY",
    "VenueAddress": "Kalady Malayattoor Road, Thalayattumpilli, Kalady, Kerala 683574, India",
    "VenueCode": "DBJR",
    "VenueName": "Dreambig Jawahar CInemas: Kalady"
  },
  "DCCU": {
    "AvailableFormats": "2D",
    "City": "Thodupuzha",
    "Latitude": "9.90082",
    "Longitude": "76.7134",
    "RegionCode": "THOD",
    "State": "Kerala",
    "SubRegionCode": "THOD",
    "VenueAddress": "4th Floor, Dream Mall, Mt Sinai Road, Near Reliance Trends, Thodupuzha, Kerala 685584, India",
    "VenueCode": "DCCU",
    "VenueName": "DREAM MALL NAXA CINEMAS DOLBY 7.1"
  },
  "DCMV": {
    "AvailableFormats": "3D|2D",
    "City": "Noida",
    "Latitude": "28.5673",
    "Longitude": "77.3213",
    "RegionCode": "NCR",
    "State": "NCR",
    "SubRegionCode": "NOIDA",
    "VenueAddress": "5th Floor, DLF Mall of India, Plot No M03, A602/A701B, Sector 18, Noida, NCR 201301, India",
    "VenueCode": "DCMV",
    "VenueName": "PVR Directors Cut, DLF Mall Of India: Noida"
  },
  "DDJP": {
    "AvailableFormats": "2D",
    "City": "Jaipur",
    "Latitude": "26.8024",
    "Longitude": "75.857",
    "RegionCode": "JAIP",
    "State": "Rajasthan",
    "SubRegionCode": "JAIP",
    "VenueAddress": "DD Cinemas, 5th Floor, Viva City Mall, C-3, Mahal Road, Near Akshay Patra Temple, Mahal Yojana, Jagatpura, Shri Kishanpura, Jaipur, Rajasthan 302022, India",
    "VenueCode": "DDJP",
    "VenueName": "DD Cinemas: Vivacity Mall, Jaipur"
  },
  "DESB": {
    "AvailableFormats": "2D",
    "City": "Dhanbad",
    "Latitude": "23.7401",
    "Longitude": "86.4183",
    "RegionCode": "DHAN",
    "State": "Jharkhand",
    "SubRegionCode": "DHAN",
    "VenueAddress": "Nai Duniya Mohlla, Main Road, Jharia, Dhanbad, Jharkhand 828111, India",
    "VenueCode": "DESB",
    "VenueName": "Deshbandhu Cinema: Jharia, Dhanbad"
  },
  "DHCL": {
    "AvailableFormats": "2D",
    "City": "Badaun",
    "Latitude": "28.0319",
    "Longitude": "79.125",
    "RegionCode": "BADN",
    "State": "Uttar Pradesh",
    "SubRegionCode": "BADN",
    "VenueAddress": "Dhishoom Cinemas, 3rd floor City Mall, Labela Road, Badaun, Uttar Pradesh 243601, India",
    "VenueCode": "DHCL",
    "VenueName": "Dhishoom Cinemas, City Mall: Budaun"
  },
  "DLCN": {
    "AvailableFormats": "2D",
    "City": "Nenmara",
    "Latitude": "10.5908",
    "Longitude": "76.5954",
    "RegionCode": "NENM",
    "State": "Kerala",
    "SubRegionCode": "NENM",
    "VenueAddress": "State Highway 58, MG Road, Nenmara, Kerala 678508, India",
    "VenueCode": "DLCN",
    "VenueName": "Dhanalakshmi Cinemas: Nenmara"
  },
  "DMKT": {
    "AvailableFormats": "2D",
    "City": "Nagapattinam",
    "Latitude": "10.7691",
    "Longitude": "79.8414",
    "RegionCode": "NGPT",
    "State": "Tamil Nadu",
    "SubRegionCode": "NGPT",
    "VenueAddress": "Public Office Road, ASN Colony, Elancheran Nagar, Nagapattinam, Tamil Nadu 611001, India",
    "VenueCode": "DMKT",
    "VenueName": "Devi Cinemas (Karthik Cinemas) A/C Dolby Atmos"
  },
  "DOMY": {
    "AvailableFormats": "3D|2D",
    "City": "Ayodhya",
    "Latitude": "26.784",
    "Longitude": "82.1443",
    "RegionCode": "FAZA",
    "State": "Uttar Pradesh",
    "SubRegionCode": "FAZA",
    "VenueAddress": "3rd Floor, Mall of Avadh, Ram Path, Ayodhya, Uttar Pradesh 224001, India",
    "VenueCode": "DOMY",
    "VenueName": "Dhishoom Cinemas: Ayodhya"
  },
  "DRMY": {
    "AvailableFormats": "2D|3D",
    "City": "Mysuru (Mysore)",
    "Latitude": "12.3221",
    "Longitude": "76.6208",
    "RegionCode": "MYS",
    "State": "Karnataka",
    "SubRegionCode": "MYS",
    "VenueAddress": "Gokulam Road, Jayalakshmipuram, Behind BM Hospital, Mysuru (Mysore), Karnataka 570012, India",
    "VenueCode": "DRMY",
    "VenueName": "DRC Cinemas: BM Habitat Mall"
  },
  "DTPD": {
    "AvailableFormats": "2D",
    "City": "Pendra",
    "Latitude": "22.7551",
    "Longitude": "81.9028",
    "RegionCode": "PEND",
    "State": "Chhattisgarh",
    "SubRegionCode": "PEND",
    "VenueAddress": "Gaurella, Pendra Road, Opposite Shivam Mithai, Pendra, Chhattisgarh 495117, India",
    "VenueCode": "DTPD",
    "VenueName": "Durgesh Talkies: Pendra"
  },
  "DVCF": {
    "AvailableFormats": "2D",
    "City": "Ramjibanpur",
    "Latitude": "22.8259",
    "Longitude": "87.6007",
    "RegionCode": "PUUR",
    "State": "West Bengal",
    "SubRegionCode": "PUUR",
    "VenueAddress": "Devleen Cinema, Near Sandipa Jewellers, Pashchim Medinipur, Ramjibanpur, West Bengal 721242, India",
    "VenueCode": "DVCF",
    "VenueName": "Devleen Cinema: Ramjibanpur"
  },
  "EBCA": {
    "AvailableFormats": "",
    "City": "Kundli",
    "Latitude": "28.9099",
    "Longitude": "77.1097",
    "RegionCode": "NCR",
    "State": "NCR",
    "SubRegionCode": "KUND",
    "VenueAddress": "Parker Mall Sector 62, National Highway 1, Kundli, NCR 131028, India",
    "VenueCode": "EBCA",
    "VenueName": "eBox Cinema: Parker Mall, Kundli"
  },
  "EDMP": {
    "AvailableFormats": "2D|3D",
    "City": "Ghaziabad",
    "Latitude": "28.6412",
    "Longitude": "77.317",
    "RegionCode": "MRDG",
    "State": "NCR",
    "SubRegionCode": "MRDG",
    "VenueAddress": "East Delhi Mall, Opp Anand Vihar, Kaushambi, Near Big Bazaar, Ghaziabad, NCR 201010, India",
    "VenueCode": "EDMP",
    "VenueName": "PVR: EDM, Ghaziabad"
  },
  "ELYE": {
    "AvailableFormats": "2D|3D",
    "City": "Jorhat",
    "Latitude": "26.7568",
    "Longitude": "94.2151",
    "RegionCode": "JORT",
    "State": "Assam",
    "SubRegionCode": "JORT",
    "VenueAddress": "Gar Ali Road, Babupatty, Jorhat, Assam 785001, India",
    "VenueCode": "ELYE",
    "VenueName": "Eleye Multiplex: Jorhat"
  },
  "EOSE": {
    "AvailableFormats": "2D|3D",
    "City": "Shahdol",
    "Latitude": "23.2961",
    "Longitude": "81.3732",
    "RegionCode": "SHAH",
    "State": "Madhya Pradesh",
    "SubRegionCode": "SHAH",
    "VenueAddress": "K Square Mall, MP SH 9A, Bhatnagar, Budhar Main Road, Shahdol, Madhya Pradesh 484001, India",
    "VenueCode": "EOSE",
    "VenueName": "K-Square Cinemas: Shahdol"
  },
  "ESEM": {
    "AvailableFormats": "2D|3D",
    "City": "Pune",
    "Latitude": "18.5927",
    "Longitude": "73.7453",
    "RegionCode": "PUNE",
    "State": "Maharashtra",
    "SubRegionCode": "PUNE",
    "VenueAddress": "1st Floor, XION Mall, Hinjawadi Road, Wakad, Pune, Maharashtra 411057, India",
    "VenueCode": "ESEM",
    "VenueName": "E-SQUARE: Xion Mall, Hinjawadi"
  },
  "ETPB": {
    "AvailableFormats": "2D",
    "City": "Bhavnagar",
    "Latitude": "21.7716",
    "Longitude": "72.1462",
    "RegionCode": "BHNG",
    "State": "Gujarat",
    "SubRegionCode": "BHNG",
    "VenueAddress": "Shiva Blessing 2, Shilpi Nagar, Opposite Bhavnagar Municipal Corporation, Bhavnagar, Gujarat 364001, India",
    "VenueCode": "ETPB",
    "VenueName": "The Entertainment Park: Bhavnagar"
  },
  "EYHZ": {
    "AvailableFormats": "2D",
    "City": "Hazaribagh",
    "Latitude": "23.9914",
    "Longitude": "85.3541",
    "RegionCode": "HAZA",
    "State": "Jharkhand",
    "SubRegionCode": "HAZA",
    "VenueAddress": "Indralok Tower, 4th floor, Main Road Gwal Toli Chowk, Azad Mahalla, Hazaribagh, Jharkhand 825301, India",
    "VenueCode": "EYHZ",
    "VenueName": "Eylex Cinema: Hazaribagh"
  },
  "FCMG": {
    "AvailableFormats": "2D",
    "City": "Nipani",
    "Latitude": "16.4083",
    "Longitude": "74.4892",
    "RegionCode": "NIPN",
    "State": "Karnataka",
    "SubRegionCode": "NIPN",
    "VenueAddress": "Mall Road, Next to Nipani Bus Stand, Chikodi Road, Nipani, Karnataka 591237, India",
    "VenueCode": "FCMG",
    "VenueName": "Magnum Fun Cinemas: Nipani"
  },
  "FLMB": {
    "AvailableFormats": "2D|3D",
    "City": "Ranchi",
    "Latitude": "23.3331",
    "Longitude": "85.3171",
    "RegionCode": "RANC",
    "State": "Jharkhand",
    "SubRegionCode": "RANC",
    "VenueAddress": "Spring City Mall, Hinoo Main Road, Beside Hinoo Bridge, Ranchi, Jharkhand 834002, India",
    "VenueCode": "FLMB",
    "VenueName": "Fun Cinemas: Springcity, Ranchi"
  },
  "FMLB": {
    "AvailableFormats": "2D",
    "City": "Bengaluru",
    "Latitude": "12.9732",
    "Longitude": "77.6213",
    "RegionCode": "HOKT",
    "State": "Karnataka",
    "SubRegionCode": "HOKT",
    "VenueAddress": "2nd Floor - Lido Mall, Swamy Vivekananda Road, Halasuru, Next to Hyatt Hotel, Bengaluru, Karnataka 560008, India",
    "VenueCode": "FMLB",
    "VenueName": "INOX Lido: Off MG Road, Ulsoor"
  },
  "FNAS": {
    "AvailableFormats": "2D|3D",
    "City": "Amritsar",
    "Latitude": "31.62",
    "Longitude": "74.9068",
    "RegionCode": "AMRI",
    "State": "Punjab",
    "SubRegionCode": "AMRI",
    "VenueAddress": "Alpha One, Level-2, G.T. Road, Maqbool Pura, Amritsar, Punjab 143006, India",
    "VenueCode": "FNAS",
    "VenueName": "Cinepolis: Nexus Amritsar"
  },
  "FNJJ": {
    "AvailableFormats": "2D|3D",
    "City": "Jaipur",
    "Latitude": "26.9422",
    "Longitude": "75.771",
    "RegionCode": "JAIP",
    "State": "Rajasthan",
    "SubRegionCode": "JAIP",
    "VenueAddress": "Jhotwara Road, Plot No: 1/1, Triton Mega Mall, Jaipur, Rajasthan 302012, India",
    "VenueCode": "FNJJ",
    "VenueName": "Cinepolis: Triton Mega Mall, Jaipur"
  },
  "FQSA": {
    "AvailableFormats": "2D",
    "City": "Navi Mumbai",
    "Latitude": "19.066",
    "Longitude": "73.0083",
    "RegionCode": "MUMBAI",
    "State": "Maharashtra",
    "SubRegionCode": "THAN",
    "VenueAddress": "Sector 3, Sanpada, Navi Mumbai, Maharashtra 400705, India",
    "VenueCode": "FQSA",
    "VenueName": "Fun Square Cinema: Sanpada"
  },
  "FSTD": {
    "AvailableFormats": "2D",
    "City": "Jaipur",
    "Latitude": "26.9606",
    "Longitude": "75.7786",
    "RegionCode": "JAIP",
    "State": "Rajasthan",
    "SubRegionCode": "JAIP",
    "VenueAddress": "Vidyadhar Nagar, Times square Mall, Jaipur, Rajasthan 302039, India",
    "VenueCode": "FSTD",
    "VenueName": "Funstar Cinemas: Vidhyadhar Nagar, Jaipur"
  },
  "GAGC": {
    "AvailableFormats": "2D",
    "City": "Delhi",
    "Latitude": "28.6964",
    "Longitude": "77.3149",
    "RegionCode": "NCR",
    "State": "NCR",
    "SubRegionCode": "DELHI",
    "VenueAddress": "Main Road Nand Nagari, Kanchipuram, Community Centre, Village Mandoli, Delhi, NCR 110093, India",
    "VenueCode": "GAGC",
    "VenueName": "Gagan Theatre: Nand Nagri, Delhi"
  },
  "GATP": {
    "AvailableFormats": "2D",
    "City": "Palakollu",
    "Latitude": "16.5176",
    "Longitude": "81.7184",
    "RegionCode": "PLKL",
    "State": "Andhra Pradesh",
    "SubRegionCode": "PLKL",
    "VenueAddress": "PP Road, Near Krishna Bhavani Hospital, Palakollu, Andhra Pradesh 534260, India",
    "VenueCode": "GATP",
    "VenueName": "Geetha Annapurna Theatre: Palakollu"
  },
  "GCBA": {
    "AvailableFormats": "2D",
    "City": "Barnala",
    "Latitude": "30.2621",
    "Longitude": "75.2356",
    "RegionCode": "BAR",
    "State": "Punjab",
    "SubRegionCode": "BAR",
    "VenueAddress": "Bathinda Road, Near T-Point, Barnala, Punjab 148101, India",
    "VenueCode": "GCBA",
    "VenueName": "GE Cinemas: Barnala"
  },
  "GCDT": {
    "AvailableFormats": "2D",
    "City": "Thrissur",
    "Latitude": "10.5091",
    "Longitude": "76.2374",
    "RegionCode": "MANR",
    "State": "Kerala",
    "SubRegionCode": "MANR",
    "VenueAddress": "Valarkavu, Nehru Nagar, Kuriachira P.O, Thrissur, Kerala 680006, India",
    "VenueCode": "GCDT",
    "VenueName": "Ganam Cinemas 4K RGB Laser Dolby Atmos: Thrissur"
  },
  "GCKG": {
    "AvailableFormats": "2D",
    "City": "Kokrajhar",
    "Latitude": "26.4275",
    "Longitude": "90.2815",
    "RegionCode": "KKJR",
    "State": "Assam",
    "SubRegionCode": "KKJR",
    "VenueAddress": "Dimalgaon, Near Jwngma Hotel, Kokrajhar, Assam 783370, India",
    "VenueCode": "GCKG",
    "VenueName": "Gold Cinema: Kokrajhar"
  },
  "GCMM": {
    "AvailableFormats": "2D",
    "City": "Madurai",
    "Latitude": "9.93746",
    "Longitude": "78.1219",
    "RegionCode": "MADU",
    "State": "Tamil Nadu",
    "SubRegionCode": "MADU",
    "VenueAddress": "50 Feet Road, Sellur, Madurai, Tamil Nadu 625002, India",
    "VenueCode": "GCMM",
    "VenueName": "Gopuram Cinemas ATMOS and Laser Projector: Madurai"
  },
  "GCTA": {
    "AvailableFormats": "2D",
    "City": "Alwar",
    "Latitude": "27.5611",
    "Longitude": "76.6048",
    "RegionCode": "ALWR",
    "State": "Rajasthan",
    "SubRegionCode": "ALWR",
    "VenueAddress": "3rd Floor, Capital Galleria Plot No 4, Manumarg Kabir Colony, Alwar, Rajasthan 301001, India",
    "VenueCode": "GCTA",
    "VenueName": "Gold Cinema: Alwar CG, Manu Marg"
  },
  "GDBW": {
    "AvailableFormats": "2D",
    "City": "Bhiwadi",
    "Latitude": "28.2131",
    "Longitude": "76.8545",
    "RegionCode": "BHWD",
    "State": "Rajasthan",
    "SubRegionCode": "BHWD",
    "VenueAddress": "Capital Mall, H.C. Buildcon Pvt. Ltd. 812 C.P. 4 Riico Industrial Area, Bhiwadi, Rajasthan 301019, India",
    "VenueCode": "GDBW",
    "VenueName": "Gold Cinema: Bhiwadi"
  },
  "GDKA": {
    "AvailableFormats": "2D",
    "City": "Kota",
    "Latitude": "25.1683",
    "Longitude": "75.8532",
    "RegionCode": "KOTA",
    "State": "Rajasthan",
    "SubRegionCode": "KOTA",
    "VenueAddress": "Aakash Multiplex, Aerodrome Circle, New Grain Mandi,Kota, Rajasthan 324007, India",
    "VenueCode": "GDKA",
    "VenueName": "Gold Cinema: Kota"
  },
  "GEKR": {
    "AvailableFormats": "2D",
    "City": "Tumakuru (Tumkur)",
    "Latitude": "13.3375",
    "Longitude": "77.1039",
    "RegionCode": "TUMK",
    "State": "Karnataka",
    "SubRegionCode": "TUMK",
    "VenueAddress": "B.H. Road, CSI Layout, Near Shiva Agencies, Tumakuru (Tumkur), Karnataka 572101, India",
    "VenueCode": "GEKR",
    "VenueName": "Gayatri Theater 2K Digital A/C Dolby: Tumakuru"
  },
  "GGGZ": {
    "AvailableFormats": "2D",
    "City": "Jalore",
    "Latitude": "25.339",
    "Longitude": "72.6284",
    "RegionCode": "LALO",
    "State": "Rajasthan",
    "SubRegionCode": "LALO",
    "VenueAddress": "RSS Entertainments, Graveet Tower, Bhinmal by Pass Road, Jalore, Rajasthan 343001, India",
    "VenueCode": "GGGZ",
    "VenueName": "Glitz Cinemas: Jalore"
  },
  "GKCC": {
    "AvailableFormats": "2D",
    "City": "Coimbatore",
    "Latitude": "10.9543",
    "Longitude": "76.7892",
    "RegionCode": "COIM",
    "State": "Tamil Nadu",
    "SubRegionCode": "COIM",
    "VenueAddress": "Siruvani Road, Alandurai, Near Canara Bank, Coimbatore, Tamil Nadu 641010, India",
    "VenueCode": "GKCC",
    "VenueName": "Gokulam Cinemas A/C 2K: Coimbatore"
  },
  "GLDC": {
    "AvailableFormats": "2D",
    "City": "Chaygaon",
    "Latitude": "26.0476",
    "Longitude": "91.3844",
    "RegionCode": "CHOG",
    "State": "Assam",
    "SubRegionCode": "CHOG",
    "VenueAddress": "Goalpara - Guwahati Road, Near Bank Of Baroda, Chaygaon, Assam 781124, India",
    "VenueCode": "GLDC",
    "VenueName": "Gold Cinema: Chaygaon"
  },
  "GNDS": {
    "AvailableFormats": "2D",
    "City": "Shikrapur",
    "Latitude": "18.703",
    "Longitude": "74.1389",
    "RegionCode": "SKHR",
    "State": "Maharashtra",
    "SubRegionCode": "SKHR",
    "VenueAddress": "Besides Nandini Villa, Hiware Road, Shikrapur, Maharashtra 412208, India",
    "VenueCode": "GNDS",
    "VenueName": "Gunjan Dijeplex: Shikrapur"
  },
  "GPAM": {
    "AvailableFormats": "2D",
    "City": "Bengaluru",
    "Latitude": "12.9359",
    "Longitude": "77.5176",
    "RegionCode": "HOKT",
    "State": "Karnataka",
    "SubRegionCode": "HOKT",
    "VenueAddress": "Arcade Mall, Rajarajeshwari Nagar, Opposite The Club Mysore Road, Bengaluru, Karnataka 560098, India",
    "VenueCode": "GPAM",
    "VenueName": "Gopalan Cinemas: Arcade Mall, Mysore Road"
  },
  "GPRH": {
    "AvailableFormats": "2D|3D",
    "City": "Hyderabad",
    "Latitude": "17.4993",
    "Longitude": "78.3907",
    "RegionCode": "HYD",
    "State": "Telangana",
    "SubRegionCode": "HYD",
    "VenueAddress": "Nizampet X Roads, Kukatpally, Hyderabad, Telangana 500072, India",
    "VenueCode": "GPRH",
    "VenueName": "GPR Multiplex: Nizampet, Hyderabad"
  },
  "GRNT": {
    "AvailableFormats": "",
    "City": "Ongole",
    "Latitude": "15.51021",
    "Longitude": "80.05091",
    "RegionCode": "ADKI",
    "State": "Andhra Pradesh",
    "SubRegionCode": "ADKI",
    "VenueAddress": "Cumbu, Gopal Nagar, Near Andhra Bank, Ongole, Andhra Pradesh 523001, India",
    "VenueCode": "GRNT",
    "VenueName": "Gorantla Cinemas: Ongole"
  },
  "GTCK": {
    "AvailableFormats": "2D",
    "City": "Trivandrum",
    "Latitude": "8.60425",
    "Longitude": "76.8156",
    "RegionCode": "VKAL",
    "State": "Kerala",
    "SubRegionCode": "VKAL",
    "VenueAddress": "Puthukurichy (P.O), Kaniyapuram, Near V Tracks Cinemas, Trivandrum, Kerala 695303, India",
    "VenueCode": "GTCK",
    "VenueName": "GTracks Screen 2 Sony 4K: Kadinamkulam"
  },
  "GTNA": {
    "AvailableFormats": "2D",
    "City": "Nidadavolu",
    "Latitude": "16.9054",
    "Longitude": "81.6714",
    "RegionCode": "NDVD",
    "State": "Andhra Pradesh",
    "SubRegionCode": "NDVD",
    "VenueAddress": "Nidadavole Road, West Godavari, Opposite Ratna Nursing Home, Nidadavolu, Andhra Pradesh 534301, India",
    "VenueCode": "GTNA",
    "VenueName": "Ganapathi Theatre A/C Dts: Nidadavolu"
  },
  "GTYT": {
    "AvailableFormats": "2D",
    "City": "Bengaluru",
    "Latitude": "13.1006",
    "Longitude": "77.5871",
    "RegionCode": "HOKT",
    "State": "Karnataka",
    "SubRegionCode": "HOKT",
    "VenueAddress": "A Centre, Yelahanka New Town, Behind Sheshadripuram First Grade College, Bengaluru, Karnataka 560064, India",
    "VenueCode": "GTYT",
    "VenueName": "Ganesh Digital 2K Cinema: Yelahanka New Town"
  },
  "HAMD": {
    "AvailableFormats": "2D",
    "City": "Ahmedabad",
    "Latitude": "23.0464",
    "Longitude": "72.5311",
    "RegionCode": "AHD",
    "State": "Gujarat",
    "SubRegionCode": "AHD",
    "VenueAddress": "1A, Himalaya Mall Drive In Road,Gurukul Road, Memnagar, Ahmedabad, Gujarat 380052, India",
    "VenueCode": "HAMD",
    "VenueName": "INOX: Himalaya Mall, Drive In Road, Ahmedabad"
  },
  "HDCN": {
    "AvailableFormats": "",
    "City": "Dimapur",
    "Latitude": "25.910013",
    "Longitude": "93.726585",
    "RegionCode": "DMPR",
    "State": "Nagaland",
    "SubRegionCode": "DMPR",
    "VenueAddress": "Deluxe Point, Anwar Hussain Road, Opposite of Muslim Burial Ground, Dimapur, Nagaland 797112, India",
    "VenueCode": "HDCN",
    "VenueName": "Hillstar Digital Cinema: Dimapur"
  },
  "HHJM": {
    "AvailableFormats": "",
    "City": "Jammikunta",
    "Latitude": "18.285854",
    "Longitude": "79.47386",
    "RegionCode": "JMKN",
    "State": "Telangana",
    "SubRegionCode": "JMKN",
    "VenueAddress": "Huzurabad - Jammikunta Road, Near Jammikunta Railway Flyover Bridge, Jammikunta, Telangana 505122, India",
    "VenueCode": "HHJM",
    "VenueName": "Hari Hara Talkies: Jammikunta"
  },
  "HPVR": {
    "AvailableFormats": "2D|3D",
    "City": "Thane",
    "Latitude": "19.3",
    "Longitude": "73.0649",
    "RegionCode": "MUMBAI",
    "State": "Maharashtra",
    "SubRegionCode": "THNE",
    "VenueAddress": "Kaap Islanpura, Agra Road, Gokul Nagar, Near Bhiwandi Court, Bhiwandi, Thane, Maharashtra 421302, India",
    "VenueCode": "HPVR",
    "VenueName": "PVR: Haseen, Bhiwandi"
  },
  "IAJS": {
    "AvailableFormats": "2D|3D",
    "City": "Gurugram (Gurgaon)",
    "Latitude": "28.392",
    "Longitude": "77.059",
    "RegionCode": "NCR",
    "State": "NCR",
    "SubRegionCode": "GURG",
    "VenueAddress": "INOX Leisure Limited, 3rd Floor, AIPL Joystreet Mall, Sector-66, Gurugram (Gurgaon), NCR 122018, India",
    "VenueCode": "IAJS",
    "VenueName": "INOX: AIPL Joy Street, Gurgaon"
  },
  "IESA": {
    "AvailableFormats": "2D",
    "City": "Satna",
    "Latitude": "24.5749",
    "Longitude": "80.8303",
    "RegionCode": "SATN",
    "State": "Madhya Pradesh",
    "SubRegionCode": "SATN",
    "VenueAddress": "Venus Treasure, 3rd Floor, Near Civil Line over bridge, Behind Circuit House, Satna, Madhya Pradesh 485001, India",
    "VenueCode": "IESA",
    "VenueName": "Imusica Entertainments: Satna"
  },
  "IMCB": {
    "AvailableFormats": "2D",
    "City": "Bengaluru",
    "Latitude": "12.8415",
    "Longitude": "77.6767",
    "RegionCode": "BANG",
    "State": "Karnataka",
    "SubRegionCode": "BANG",
    "VenueAddress": "M5 Ecity Mall, 3rd Floor, Plot No. 1, Veerasandra Industrial Area, Hosur Road, Next to Audi Showroom. Opposite - Electronic City Flyover, Phase II, Electronic City, Bengaluru, Karnataka 560100, India",
    "VenueCode": "IMCB",
    "VenueName": "INOX: M5 Ecity, Bengaluru"
  },
  "IMOB": {
    "AvailableFormats": "2D|IMAX 2D|4DX|3D",
    "City": "Mumbai",
    "Latitude": "19.2218",
    "Longitude": "72.8629",
    "RegionCode": "MUMBAI",
    "State": "Maharashtra",
    "SubRegionCode": "MWEST",
    "VenueAddress": "Oberoi Sky City Mall, Datta Pada Road, Borivali East, Devi Pada Metro Station, Mumbai, Maharashtra 400066, India",
    "VenueCode": "IMOB",
    "VenueName": "INOX Megaplex: Sky City Mall, Borivali"
  },
  "INAP": {
    "AvailableFormats": "2D|3D",
    "City": "Udaipur",
    "Latitude": "24.5863",
    "Longitude": "73.7104",
    "RegionCode": "UDAI",
    "State": "Rajasthan",
    "SubRegionCode": "UDAI",
    "VenueAddress": "5th Floor,Lake City Mall, University Road, Ashok Nagar, Near Porwal Ji Ki Badi, Udaipur, Rajasthan 313001, India",
    "VenueCode": "INAP",
    "VenueName": "INOX: Lake City Mall"
  },
  "INBS": {
    "AvailableFormats": "2D",
    "City": "Jorhat",
    "Latitude": "26.7543",
    "Longitude": "94.2181",
    "RegionCode": "JORT",
    "State": "Assam",
    "SubRegionCode": "JORT",
    "VenueAddress": "4th Floor, ABS Mall, AT Rd, Gar-Ali, Opposite Prince Of Wales, Jorhat, Assam 785001, India",
    "VenueCode": "INBS",
    "VenueName": "INOX: ABS Mall, Jorhat"
  },
  "INER": {
    "AvailableFormats": "2D|3D",
    "City": "Kolkata",
    "Latitude": "22.5386",
    "Longitude": "88.3515",
    "RegionCode": "KOLK",
    "State": "West Bengal",
    "SubRegionCode": "KOLK",
    "VenueAddress": "Lala Lajpat, Rai Sarani, Bhawanipur, Kolkata, West Bengal 700020, India",
    "VenueCode": "INER",
    "VenueName": "INOX: Forum Mall, Elgin Road"
  },
  "INIC": {
    "AvailableFormats": "2D|3D",
    "City": "Indore",
    "Latitude": "22.7181",
    "Longitude": "75.8713",
    "RegionCode": "IND",
    "State": "Madhya Pradesh",
    "SubRegionCode": "IND",
    "VenueAddress": "170,R.N.T. Marg, Regal Square, Flim Colony, South Tukoganj, 4th Floor, Indore Central, Indore, Madhya Pradesh 452001, India",
    "VenueCode": "INIC",
    "VenueName": "INOX: Nexus Indore Central Mall, Regal Square"
  },
  "INMH": {
    "AvailableFormats": "2D|3D",
    "City": "Hyderabad",
    "Latitude": "17.3907",
    "Longitude": "78.4884",
    "RegionCode": "HYD",
    "State": "Telangana",
    "SubRegionCode": "HYD",
    "VenueAddress": "5th Floor, Maheshwari Parmeshwari Mall, Kachiguda Cross Roads, Hyderabad, Telangana 500027, India",
    "VenueCode": "INMH",
    "VenueName": "INOX: Maheshwari Parmeshwari Mall, Kachiguda"
  },
  "INPC": {
    "AvailableFormats": "2D|3D",
    "City": "Chandigarh",
    "Latitude": "30.7527",
    "Longitude": "76.9086",
    "RegionCode": "CHD",
    "State": "Chandigarh",
    "SubRegionCode": "CHD",
    "VenueAddress": "Amravati, Enclave, Chandigarh, Chandigarh 110065, India",
    "VenueCode": "INPC",
    "VenueName": "INOX: NH22 Mall, Amravati Enclave, Panchkula"
  },
  "INRC": {
    "AvailableFormats": "2D|3D|IMAX 2D",
    "City": "Mumbai",
    "Latitude": "19.0994",
    "Longitude": "72.9161",
    "RegionCode": "MUMBAI",
    "State": "Maharashtra",
    "SubRegionCode": "MCENT",
    "VenueAddress": "3rd Floor, R City Mall, Lal Bahadur Shastri Marg, Ghatkopar West, Mumbai, Maharashtra 400086, India",
    "VenueCode": "INRC",
    "VenueName": "INOX: R-City, Ghatkopar"
  },
  "INSE": {
    "AvailableFormats": "2D",
    "City": "Vadodara",
    "Latitude": "22.3229",
    "Longitude": "73.1866",
    "RegionCode": "VAD",
    "State": "Gujarat",
    "SubRegionCode": "VAD",
    "VenueAddress": "4th Floor, Seven Seas Mall, IPCL Circle, Fatehgunj, Jayesh Colony, Vadodara, Gujarat 390002, India",
    "VenueCode": "INSE",
    "VenueName": "Infinity 7 Seas Cinema: Fatehganj"
  },
  "INTO": {
    "AvailableFormats": "2D",
    "City": "Chennai",
    "Latitude": "12.8362",
    "Longitude": "80.2296",
    "RegionCode": "CHEN",
    "State": "Tamil Nadu",
    "SubRegionCode": "CHEN",
    "VenueAddress": "3rd Floor, The Marina Mall, Old Mahabalipuram Road, Egatoor, Navalur, Chennai, Tamil Nadu 603103, India",
    "VenueCode": "INTO",
    "VenueName": "INOX: The Marina Mall, OMR"
  },
  "INVR": {
    "AvailableFormats": "2D|3D",
    "City": "Surat",
    "Latitude": "21.1455",
    "Longitude": "72.7571",
    "RegionCode": "SURT",
    "State": "Gujarat",
    "SubRegionCode": "SURT",
    "VenueAddress": "3rd Floor, VR Mall, Dumas Road, Magdalla, Near Sunglass Hut, Surat, Gujarat 395007, India",
    "VenueCode": "INVR",
    "VenueName": "INOX: VR Mall, Surat"
  },
  "IOMG": {
    "AvailableFormats": "2D|3D",
    "City": "Greater Noida",
    "Latitude": "28.4888",
    "Longitude": "77.5145",
    "RegionCode": "NCR",
    "State": "NCR",
    "SubRegionCode": "GRET",
    "VenueAddress": "INOX Leisure Ltd, 2nd Floor, Omaxe Connaught Place Mall, H Block, Sector Beta- 2, Greater Noida, NCR 201308, India",
    "VenueCode": "IOMG",
    "VenueName": "INOX: Omaxe Connaught Place Mall, Greater Noida"
  },
  "IPMJ": {
    "AvailableFormats": "2D|3D",
    "City": "Delhi",
    "Latitude": "28.5371",
    "Longitude": "77.2831",
    "RegionCode": "NCR",
    "State": "NCR",
    "SubRegionCode": "DELHI",
    "VenueAddress": "3rd Floor, Pacific Mall, Mathura Road, Delhi, NCR 110076, India",
    "VenueCode": "IPMJ",
    "VenueName": "INOX: Pacific Mall, Jasola"
  },
  "ISMG": {
    "AvailableFormats": "3D|2D",
    "City": "Ghaziabad",
    "Latitude": "28.6342",
    "Longitude": "77.3695",
    "RegionCode": "MRDG",
    "State": "NCR",
    "SubRegionCode": "MRDG",
    "VenueAddress": "Shipra Mall, 3rd Floor, Plot No.9, Vaibhav Khand, Indira Puram, Ghaziabad, NCR 201014, India",
    "VenueCode": "ISMG",
    "VenueName": "INOX: Shipra Mall, Ghaziabad"
  },
  "IVNM": {
    "AvailableFormats": "",
    "City": "Hyderabad",
    "Latitude": "17.4946",
    "Longitude": "78.3549",
    "RegionCode": "HYD",
    "State": "Telangana",
    "SubRegionCode": "HYD",
    "VenueAddress": "6th floor, SMR Vinay Metro Mall, Miyapur, Hyderabad, Telangana 500049, India",
    "VenueCode": "IVNM",
    "VenueName": "INOX: SMR Vinay Metro Mall, Dolby ATMOS: Miyapur"
  },
  "JATV": {
    "AvailableFormats": "2D",
    "City": "Vijayawada",
    "Latitude": "16.517",
    "Longitude": "80.6305",
    "RegionCode": "KADU",
    "State": "Andhra Pradesh",
    "SubRegionCode": "KADU",
    "VenueAddress": "Gandhi Nagar, Samba Murty Road, Andhra Pradesh, Vijayawada, Andhra Pradesh 520003, India",
    "VenueCode": "JATV",
    "VenueName": "Jayram Theatre: Vijayawada"
  },
  "JCFF": {
    "AvailableFormats": "2D",
    "City": "Sivaganga",
    "Latitude": "9.84731",
    "Longitude": "78.4901",
    "RegionCode": "SHVG",
    "State": "Tamil Nadu",
    "SubRegionCode": "SHVG",
    "VenueAddress": "No.8, First Floor, Aranmanai Vaasal, Near Bus stand, Sivaganga, Tamil Nadu 630561, India",
    "VenueCode": "JCFF",
    "VenueName": "JB Cinemas Future Films Dolby Atmos: Sivagangai"
  },
  "JCXP": {
    "AvailableFormats": "2D",
    "City": "Jhargram",
    "Latitude": "22.4356",
    "Longitude": "87.0015",
    "RegionCode": "JARG",
    "State": "West Bengal",
    "SubRegionCode": "JARG",
    "VenueAddress": "Munsi Sai Mouza, Old Jhargram, Near Samsan Kali Temple, Jhargram, West Bengal 721507, India",
    "VenueCode": "JCXP",
    "VenueName": "Jhargram Cineplex: Jhargram"
  },
  "JHOL": {
    "AvailableFormats": "2D",
    "City": "Bongaigaon",
    "Latitude": "26.4884",
    "Longitude": "90.5517",
    "RegionCode": "BONG",
    "State": "Assam",
    "SubRegionCode": "BONG",
    "VenueAddress": "3rd Floor Enajori Complex, Bir Chilarai Road, Near Bazar INDIA, Bongaigaon, Assam 783380, India",
    "VenueCode": "JHOL",
    "VenueName": "Jolly Max Cinema: Bongaigaon"
  },
  "JKKC": {
    "AvailableFormats": "2D",
    "City": "Viralimalai",
    "Latitude": "10.5971",
    "Longitude": "78.544",
    "RegionCode": "PUDH",
    "State": "Tamil Nadu",
    "SubRegionCode": "PUDH",
    "VenueAddress": "Maduraimain Road, Viralimalai , Pudukottai, Viralimalai, Tamil Nadu 621316, India",
    "VenueCode": "JKKC",
    "VenueName": "Jothi Theatre A/C 4K 7.1 (Viralimalai): Trichy"
  },
  "JMMA": {
    "AvailableFormats": "2D",
    "City": "Angamaly",
    "Latitude": "10.2254",
    "Longitude": "76.4137",
    "RegionCode": "KLDY",
    "State": "Kerala",
    "SubRegionCode": "KLDY",
    "VenueAddress": "Mookkannoor, Ezhattumugham Road, Josh Mall, Angamaly, Kerala 683577, India",
    "VenueCode": "JMMA",
    "VenueName": "JM Movies Josh Mall: Mookkannoor Angamaly"
  },
  "JRRM": {
    "AvailableFormats": "2D",
    "City": "Rupnagar",
    "Latitude": "30.9548",
    "Longitude": "76.5313",
    "RegionCode": "RUPN",
    "State": "Punjab",
    "SubRegionCode": "RUPN",
    "VenueAddress": "Chandigarh Road, Magror, Rupnagar, Punjab 140001, India",
    "VenueCode": "JRRM",
    "VenueName": "JR Ohri Cinemas: Ropar"
  },
  "JTCK": {
    "AvailableFormats": "2D",
    "City": "Kozhikode",
    "Latitude": "11.2898",
    "Longitude": "75.7751",
    "RegionCode": "KOZH",
    "State": "Kerala",
    "SubRegionCode": "KOZH",
    "VenueAddress": "East Hill, Near Center School, Opposite State Bank of India, Kozhikode, Kerala 673005, India",
    "VenueCode": "JTCK",
    "VenueName": "Regal Cinemas: Kozhikode"
  },
  "JTLT": {
    "AvailableFormats": "2D",
    "City": "Narasannapeta",
    "Latitude": "18.4161",
    "Longitude": "84.0412",
    "RegionCode": "NRPT",
    "State": "Andhra Pradesh",
    "SubRegionCode": "NRPT",
    "VenueAddress": "Maruthi Nagar, Near LIC Office, Narasannapeta, Andhra Pradesh 532421, India",
    "VenueCode": "JTLT",
    "VenueName": "Sri Lakshmi Talkies AC DTS: Narasannapeta"
  },
  "JTNR": {
    "AvailableFormats": "2D",
    "City": "Nagpur",
    "Latitude": "21.1446",
    "Longitude": "79.0903",
    "RegionCode": "NAGP",
    "State": "Maharashtra",
    "SubRegionCode": "NAGP",
    "VenueAddress": "Subhash Road, Cotton Market, Ganeshpeth Colony, Nagpur, Maharashtra 440018, India",
    "VenueCode": "JTNR",
    "VenueName": "Jayshree Cineplex: Nagpur"
  },
  "JTSC": {
    "AvailableFormats": "2D",
    "City": "Vijayawada",
    "Latitude": "16.5132",
    "Longitude": "80.6263",
    "RegionCode": "VIJA",
    "State": "Andhra Pradesh",
    "SubRegionCode": "VIJA",
    "VenueAddress": "Swarnalok Complex, Eluru Rd, Governorpet, Vijayawada, Andhra Pradesh 520002, India",
    "VenueCode": "JTSC",
    "VenueName": "Swarna Multiplex: Vijayawada"
  },
  "JTVK": {
    "AvailableFormats": "2D|3D",
    "City": "Tanuku",
    "Latitude": "16.7597",
    "Longitude": "81.691",
    "RegionCode": "TADP",
    "State": "Andhra Pradesh",
    "SubRegionCode": "TADP",
    "VenueAddress": "NH16, Ngo Colony, Palangi, Near Sri Vijayadurga temple, Tanuku, Andhra Pradesh 534211, India",
    "VenueCode": "JTVK",
    "VenueName": "Sri Venkateswara Complex: Tanuku"
  },
  "JYCM": {
    "AvailableFormats": "2D",
    "City": "Maslandapur",
    "Latitude": "22.8559",
    "Longitude": "88.7447",
    "RegionCode": "MASL",
    "State": "West Bengal",
    "SubRegionCode": "MASL",
    "VenueAddress": "Maslandapur-Tentulia Road, Opposite State Bank of India, Maslandapur, West Bengal 743289, India",
    "VenueCode": "JYCM",
    "VenueName": "Jyoti Cinema: Maslandapur"
  },
  "KACR": {
    "AvailableFormats": "2D",
    "City": "Arambagh",
    "Latitude": "22.8852",
    "Longitude": "87.7866",
    "RegionCode": "AMBH",
    "State": "West Bengal",
    "SubRegionCode": "AMBH",
    "VenueAddress": "SH2, Near Karuna Market, Arambagh, West Bengal 712601, India",
    "VenueCode": "KACR",
    "VenueName": "Karuna Cinema: Arambagh"
  },
  "KATK": {
    "AvailableFormats": "2D",
    "City": "Karunagapally",
    "Latitude": "9.05599",
    "Longitude": "76.5378",
    "RegionCode": "KARG",
    "State": "Kerala",
    "SubRegionCode": "KARG",
    "VenueAddress": "Kottarakkara Road, Karunagappalli, Near Padanayaar Mahadeva Temple, Karunagapally, Kerala 690518, India",
    "VenueCode": "KATK",
    "VenueName": "Krishna A/C 2K Dolby 7.1Karunagappally"
  },
  "KCBI": {
    "AvailableFormats": "3D|2D",
    "City": "Bengaluru",
    "Latitude": "12.9233",
    "Longitude": "77.5533",
    "RegionCode": "HOKT",
    "State": "Karnataka",
    "SubRegionCode": "HOKT",
    "VenueAddress": "No.43/2, 1st Cross, 5th Block, 100 feet Road, Katriguppe, Banashankari 3rd Stage, Near Union Bank Of India ATM, Bengaluru, Karnataka 560085, India",
    "VenueCode": "KCBI",
    "VenueName": "Kamakya 4K Dolby Atmos 3D A/C Cinema: Banashankari"
  },
  "KCMD": {
    "AvailableFormats": "",
    "City": "Vizag",
    "Latitude": "17.7353",
    "Longitude": "83.3175",
    "RegionCode": "VIZA",
    "State": "Andhra Pradesh",
    "SubRegionCode": "VIZA",
    "VenueAddress": "D.No. 53-23-23, Beside Maddilapalem Bus Depot, Visakhapatnam, Vizag, Andhra Pradesh 530013, India",
    "VenueCode": "KCMD",
    "VenueName": "Kameswari & Kinnera AC Laser 4K Maddilapalem:Vizag"
  },
  "KCSV": {
    "AvailableFormats": "2D",
    "City": "Villupuram",
    "Latitude": "12.038",
    "Longitude": "79.544",
    "RegionCode": "VILL",
    "State": "Tamil Nadu",
    "SubRegionCode": "VILL",
    "VenueAddress": "Mailkal street vikiravandi, Opposite to bus stand, Villupuram, Tamil Nadu 605652, India",
    "VenueCode": "KCSV",
    "VenueName": "KA Cinemas A/C: Vikravandi"
  },
  "KDIN": {
    "AvailableFormats": "2D",
    "City": "Indore",
    "Latitude": "22.7127",
    "Longitude": "75.8382",
    "RegionCode": "IND",
    "State": "Madhya Pradesh",
    "SubRegionCode": "IND",
    "VenueAddress": "258, Labriya Bheru, Dhar Road, Near Gangawal Bus Stand, Indore, Madhya Pradesh 452002, India",
    "VenueCode": "KDIN",
    "VenueName": "Kastur Deluxe Theatre: Indore"
  },
  "KICS": {
    "AvailableFormats": "2D",
    "City": "Mulleria",
    "Latitude": "12.5319",
    "Longitude": "75.1562",
    "RegionCode": "KASA",
    "State": "Kerala",
    "SubRegionCode": "KASA",
    "VenueAddress": "Near Kaveri Auditorium, Kadakam, Near Kadakam Business Centre, Mulleria, Kerala 671542, India",
    "VenueCode": "KICS",
    "VenueName": "Kaveri Cinemas A/C DTS Dolby: Karmamthody"
  },
  "KKPE": {
    "AvailableFormats": "2D",
    "City": "Erode",
    "Latitude": "11.1297",
    "Longitude": "77.8609",
    "RegionCode": "KARU",
    "State": "Tamil Nadu",
    "SubRegionCode": "KARU",
    "VenueAddress": "State Highway 172A, Koluthupalayam, Erode, Near Kombanaipudur Bus Stop, Erode, Tamil Nadu 638152, India",
    "VenueCode": "KKPE",
    "VenueName": "Krishna Theatre Dolby 7.1: Koluthupalayam"
  },
  "KLSK": {
    "AvailableFormats": "2D",
    "City": "Kozhikode",
    "Latitude": "11.2586",
    "Longitude": "75.7825",
    "RegionCode": "KOZH",
    "State": "Kerala",
    "SubRegionCode": "KOZH",
    "VenueAddress": "Indira Gandhi Road, Opposite KSRTC Bus Terminal, Tazhekkod, Polpaya Mana, Near Hotel Royal Plaza, Kozhikode, Kerala 673004, India",
    "VenueCode": "KLSK",
    "VenueName": "Kairali Sree Theatre: Kozhikode"
  },
  "KMSV": {
    "AvailableFormats": "",
    "City": "Vadakkencherry",
    "Latitude": "10.589751",
    "Longitude": "76.48151",
    "RegionCode": "VDCY",
    "State": "Kerala",
    "SubRegionCode": "VDCY",
    "VenueAddress": "2nd Floor, KAM Plaza, Main Road, Vadakkencherry, Kerala 678683, India",
    "VenueCode": "KMSV",
    "VenueName": "KAM Movies: Vadakkenchery"
  },
  "KPPP": {
    "AvailableFormats": "2D",
    "City": "Gonda",
    "Latitude": "27.1487",
    "Longitude": "81.9585",
    "RegionCode": "GOND",
    "State": "Uttar Pradesh",
    "SubRegionCode": "GOND",
    "VenueAddress": "27 Circular Road, Veer Pur, Near Arkaan Petroleum, Gonda, Uttar Pradesh 271003, India",
    "VenueCode": "KPPP",
    "VenueName": "Kunwar Nova Cinemaz: Gonda"
  },
  "KRJG": {
    "AvailableFormats": "2D",
    "City": "Jaggampeta",
    "Latitude": "17.1752",
    "Longitude": "82.0621",
    "RegionCode": "JAGG",
    "State": "Andhra Pradesh",
    "SubRegionCode": "JAGG",
    "VenueAddress": "Jaggampeta-Ramavaram Road, Near Bank of Baroda, Jaggampeta, Andhra Pradesh 533435, India",
    "VenueCode": "KRJG",
    "VenueName": "Krishnaveni Theatre: Jaggampeta"
  },
  "KRVN": {
    "AvailableFormats": "",
    "City": "Vrindavan",
    "Latitude": "18.0799",
    "Longitude": "80.8238",
    "RegionCode": "MATH",
    "State": "Uttar Pradesh",
    "SubRegionCode": "MATH",
    "VenueAddress": "Near Srinivas Mobiles, SH 12, Vrindavan, Uttar Pradesh 507133, India",
    "VenueCode": "KRVN",
    "VenueName": "Krishna Funland Cinema: Vrindavan"
  },
  "KSNY": {
    "AvailableFormats": "2D",
    "City": "Cuddalore",
    "Latitude": "11.7467",
    "Longitude": "79.7575",
    "RegionCode": "CUDD",
    "State": "Tamil Nadu",
    "SubRegionCode": "CUDD",
    "VenueAddress": "Imperial Road, Thirupapuliyur, Cuddalore, Tamil Nadu 600001, India",
    "VenueCode": "KSNY",
    "VenueName": "AGS KRISHNALAYA 4K DOLBY ATMOS: CUDDALORE"
  },
  "KTBR": {
    "AvailableFormats": "2D",
    "City": "Boisar",
    "Latitude": "19.7963",
    "Longitude": "72.7523",
    "RegionCode": "DHAU",
    "State": "Maharashtra",
    "SubRegionCode": "DHAU",
    "VenueAddress": "At Saravali S. No. 108, Nawapur Road, Boisar, Maharashtra 401501, India",
    "VenueCode": "KTBR",
    "VenueName": "KT Multivision Cinema: Boisar"
  },
  "KTPC": {
    "AvailableFormats": "3D|2D",
    "City": "Patna",
    "Latitude": "25.5998",
    "Longitude": "85.2214",
    "RegionCode": "PATN",
    "State": "Bihar",
    "SubRegionCode": "PATN",
    "VenueAddress": "Sadar Gali, Khaje Kalan, Khamji Begum Colony, Sadikpur, Patna, Bihar 800008, India",
    "VenueCode": "KTPC",
    "VenueName": "Krishna Talkies: Patna"
  },
  "KYID": {
    "AvailableFormats": "2D",
    "City": "Indore",
    "Latitude": "22.667",
    "Longitude": "75.8225",
    "RegionCode": "IND",
    "State": "Madhya Pradesh",
    "SubRegionCode": "IND",
    "VenueAddress": "Kalyan Cinemas, Kalyan Mall, 340, Sukhnivas Road, Dutt Nagar, Rajendra Nagar, Next to D Mart, Indore, Madhya Pradesh 452012, India",
    "VenueCode": "KYID",
    "VenueName": "Kalyan Cinemas: Rajendra Nagar, Indore"
  },
  "LALK": {
    "AvailableFormats": "2D",
    "City": "Kanpur",
    "Latitude": "26.4401",
    "Longitude": "80.3238",
    "RegionCode": "KANP",
    "State": "Uttar Pradesh",
    "SubRegionCode": "KANP",
    "VenueAddress": "127/401 A, Block S, Kanpur Nagar, Kanpur, Uttar Pradesh 208014, India",
    "VenueCode": "LALK",
    "VenueName": "Lal Palace: Kanpur"
  },
  "LCDA": {
    "AvailableFormats": "2D",
    "City": "Theni",
    "Latitude": "10.1265",
    "Longitude": "77.5375",
    "RegionCode": "THEN",
    "State": "Tamil Nadu",
    "SubRegionCode": "THEN",
    "VenueAddress": "1/348 State Bank Colony, Keelavadakarai, Periyakulam, Theni, Tamil Nadu 625601, India",
    "VenueCode": "LCDA",
    "VenueName": "Lucky Cinemas Dolby Atmos: Periyakulam"
  },
  "LCTM": {
    "AvailableFormats": "2D",
    "City": "Trivandrum",
    "Latitude": "8.48838",
    "Longitude": "76.9519",
    "RegionCode": "VKAL",
    "State": "Kerala",
    "SubRegionCode": "VKAL",
    "VenueAddress": "KSRTC Bus Terminal Complex, Thampanoor, Thiruvananthapuram, Near Ponnara Sreedhar Park, Trivandrum, Kerala 695014, India",
    "VenueCode": "LCTM",
    "VenueName": "Lenin Cinemas 4K 3D Dolby Atmos KSFDC: Trivandrum"
  },
  "LIPP": {
    "AvailableFormats": "",
    "City": "Ottapalam",
    "Latitude": "10.772966",
    "Longitude": "76.37364",
    "RegionCode": "OTTP",
    "State": "Kerala",
    "SubRegionCode": "OTTP",
    "VenueAddress": "Lakshmi Picture Palace, Main Road, Ottapalam, Ottapalam, Kerala 679101, India",
    "VenueCode": "LIPP",
    "VenueName": "Lakshmi Picture Palace"
  },
  "LKRT": {
    "AvailableFormats": "2D",
    "City": "Korutla",
    "Latitude": "18.8266",
    "Longitude": "78.7124",
    "RegionCode": "KCKA",
    "State": "Telangana",
    "SubRegionCode": "KCKA",
    "VenueAddress": "Indira Road, Raheempura, Korutla, Telangana 505326, India",
    "VenueCode": "LKRT",
    "VenueName": "Laxmi AC Deluxe Theatre: Korutla"
  },
  "LMCK": {
    "AvailableFormats": "2D",
    "City": "Kodungallur",
    "Latitude": "10.221",
    "Longitude": "76.2011",
    "RegionCode": "KODU",
    "State": "Kerala",
    "SubRegionCode": "KODU",
    "VenueAddress": "National Highway 66, Padakulam, Sringapuram, Kodungallur, Kerala 680664, India",
    "VenueCode": "LMCK",
    "VenueName": "LAKSHMI CINEMAS 4K LASER DOLBY ATMOS: KODUNGALLUR"
  },
  "LRCM": {
    "AvailableFormats": "2D",
    "City": "Manjeri",
    "Latitude": "11.1204",
    "Longitude": "76.1159",
    "RegionCode": "MAJR",
    "State": "Kerala",
    "SubRegionCode": "MAJR",
    "VenueAddress": "Indian Mall Road, Karuvambram, Manjeri, Kerala 676121, India",
    "VenueCode": "LRCM",
    "VenueName": "Ladder Cinemas: Manjeri"
  },
  "LTVB": {
    "AvailableFormats": "2D",
    "City": "Vijayapura (Bijapur)",
    "Latitude": "16.8284",
    "Longitude": "75.7165",
    "RegionCode": "VJPR",
    "State": "Karnataka",
    "SubRegionCode": "VJPR",
    "VenueAddress": "Godbole Mala, M. G. Road, Near Gandhi Chowk Police Station, Opposite Axis Bank, Vijayapura (Bijapur), Karnataka 586101, India",
    "VenueCode": "LTVB",
    "VenueName": "Sri Lakshmi Theatre: Vijayapura (Bijapur)"
  },
  "M2PP": {
    "AvailableFormats": "2D",
    "City": "Delhi",
    "Latitude": "28.6895",
    "Longitude": "77.1334",
    "RegionCode": "NCR",
    "State": "NCR",
    "SubRegionCode": "DELHI",
    "VenueAddress": "4 Community Centre, Road No. 44, Opposite Punjab National Bank, Delhi, NCR 110088, India",
    "VenueCode": "M2PP",
    "VenueName": "M2K: Pitampura"
  },
  "MACE": {
    "AvailableFormats": "3D|2D",
    "City": "Mumbai",
    "Latitude": "19.1655",
    "Longitude": "72.8512",
    "RegionCode": "MUMBAI",
    "State": "Maharashtra",
    "SubRegionCode": "MWEST",
    "VenueAddress": "Station Road, Goregaon East, Near Railway Station, Peru Baug, Jay Prakash Nagar, Mumbai, Maharashtra 400063, India",
    "VenueCode": "MACE",
    "VenueName": "Miraj Anupam Cinemas: Goregaon (E)"
  },
  "MAGX": {
    "AvailableFormats": "7D",
    "City": "Ghaziabad",
    "Latitude": "28.634",
    "Longitude": "77.3703",
    "RegionCode": "NCR",
    "State": "NCR",
    "SubRegionCode": "GHAZ",
    "VenueAddress": "2nd Floor, Shipra Mall, Plot No. 9, Vaibhav Land, Inirapuram, Ghaziabad, NCR 201014, India",
    "VenueCode": "MAGX",
    "VenueName": "7D Masti: Shipra Mall, Ghaziabad"
  },
  "MALO": {
    "AvailableFormats": "",
    "City": "Ludhiana",
    "Latitude": "30.885687",
    "Longitude": "75.788345",
    "RegionCode": "LUDH",
    "State": "Punjab",
    "SubRegionCode": "LUDH",
    "VenueAddress": "Second Floor,34 to 57, Wave Mall, Plot No. 2 and 3, Firozpur Road, Ludhiana, Punjab 141012, India",
    "VenueCode": "MALO",
    "VenueName": "7D Masti: Wave Mall, Ludhiana"
  },
  "MATK": {
    "AvailableFormats": "2D|3D",
    "City": "Pune",
    "Latitude": "18.5189",
    "Longitude": "73.9357",
    "RegionCode": "PUNE",
    "State": "Maharashtra",
    "SubRegionCode": "PUNE",
    "VenueAddress": "MovieMax, Amanora Town Centre, Amanora Park Town, Hadapsar, Pune, Maharashtra 411028, India",
    "VenueCode": "MATK",
    "VenueName": "MovieMax: Amanora Town Centre, Pune(Now Renovated)"
  },
  "MAZZ": {
    "AvailableFormats": "",
    "City": "Puthenvelikkara",
    "Latitude": "10.1898",
    "Longitude": "76.2499",
    "RegionCode": "KOCH",
    "State": "Kerala",
    "SubRegionCode": "KOCH",
    "VenueAddress": "Manacherry-Panjipalla Road, Laksham Veed Colony, Puthenvelikkara, Kerala 683594, India",
    "VenueCode": "MAZZ",
    "VenueName": "FilmyFellas Manu Movies 2K 7.1 Puthenvelikara"
  },
  "MBTK": {
    "AvailableFormats": "2D",
    "City": "Kawardha",
    "Latitude": "22.0025",
    "Longitude": "81.234",
    "RegionCode": "KAWA",
    "State": "Chhattisgarh",
    "SubRegionCode": "KAWA",
    "VenueAddress": "Naveen Bazar Chowk, Kawardha Raipur Road, Opposite Gurudwara, Kawardha, Chhattisgarh 491995, India",
    "VenueCode": "MBTK",
    "VenueName": "Maa Bhuvaneshwari Talkies: Kawardha"
  },
  "MCCD": {
    "AvailableFormats": "2D|3D",
    "City": "Jamshedpur",
    "Latitude": "22.7953",
    "Longitude": "86.2244",
    "RegionCode": "JMDP",
    "State": "Jharkhand",
    "SubRegionCode": "JMDP",
    "VenueAddress": "Chandra Pacific Mall, 5th Floor, Katha No. 28, Plot no. 2911, Besides Akashdeep Plaza, Golmuri, East Singhbhum, Jamshedpur, Jharkhand 831003, India",
    "VenueCode": "MCCD",
    "VenueName": "Miraj Cinemas: Golmuri, Chandra Pacific Mall"
  },
  "MCEF": {
    "AvailableFormats": "",
    "City": "Faridabad",
    "Latitude": "28.3868",
    "Longitude": "77.3141",
    "RegionCode": "NCR",
    "State": "NCR",
    "SubRegionCode": "FARI",
    "VenueAddress": "Eldeco Station 1 Mall, 18/6, Sector 12, Haryana, Faridabad, NCR 121007, India",
    "VenueCode": "MCEF",
    "VenueName": "Miraj Cinemas: Eldeco mall, Faridabad"
  },
  "MCGS": {
    "AvailableFormats": "2D",
    "City": "Gadhinglaj",
    "Latitude": "16.2176",
    "Longitude": "74.351",
    "RegionCode": "KOLH",
    "State": "Maharashtra",
    "SubRegionCode": "KOLH",
    "VenueAddress": "Doctor`s Colony, Gadinglaj Chandgad Road, Gadhinglaj, Maharashtra 416502, India",
    "VenueCode": "MCGS",
    "VenueName": "Maratha Chitra Mandir: Gadhinglaj"
  },
  "MCJH": {
    "AvailableFormats": "",
    "City": "Junagarh",
    "Latitude": "19.862988",
    "Longitude": "82.943504",
    "RegionCode": "JUNA",
    "State": "Odisha",
    "SubRegionCode": "JUNA",
    "VenueAddress": "Next to Monarch Lodge, Bhatrajore Right Canal, Junagarh, Odisha 766014, India",
    "VenueCode": "MCJH",
    "VenueName": "Monarch Cinema: Junagarh, Odisha"
  },
  "MCMH": {
    "AvailableFormats": "2D",
    "City": "Hardoi",
    "Latitude": "27.4032",
    "Longitude": "80.1376",
    "RegionCode": "HRDI",
    "State": "Uttar Pradesh",
    "SubRegionCode": "HRDI",
    "VenueAddress": "1, Canal Road, Pragati Nagar, Asha Nagar, Hardoi, Uttar Pradesh 241001, India",
    "VenueCode": "MCMH",
    "VenueName": "Meera Chitra Mandir: Hardoi"
  },
  "MCPR": {
    "AvailableFormats": "2D",
    "City": "Poovar",
    "Latitude": "8.3212",
    "Longitude": "77.0635",
    "RegionCode": "TRIV",
    "State": "Kerala",
    "SubRegionCode": "TRIV",
    "VenueAddress": "Poovar Vizhinjam Road, Near Sruthi Royal Auditorium, Poovar, Kerala 695525, India",
    "VenueCode": "MCPR",
    "VenueName": "Mridhanga Cineplex 4K Dolby Atmos: Poovar"
  },
  "MCSL": {
    "AvailableFormats": "2D|3D",
    "City": "Kolkata",
    "Latitude": "22.5734",
    "Longitude": "88.4138",
    "RegionCode": "KOLK",
    "State": "West Bengal",
    "SubRegionCode": "KOLK",
    "VenueAddress": "No 177 and 178, Downtown Mall, IB Block, Sector 3, Kolkata, West Bengal 700106, India",
    "VenueCode": "MCSL",
    "VenueName": "Miraj Cinemas: Salt Lake, DownTown Mall, Kolkata"
  },
  "MCTI": {
    "AvailableFormats": "2D|3D",
    "City": "Noida",
    "Latitude": "28.5683",
    "Longitude": "77.3267",
    "RegionCode": "NCR",
    "State": "NCR",
    "SubRegionCode": "NOIDA",
    "VenueAddress": "The Great India Place Mall, A2, 3rd Floor, Near Noida Sector 18 Metro Station, Noida, NCR 201301, India",
    "VenueCode": "MCTI",
    "VenueName": "Miraj Cinemas: TGIP, Noida"
  },
  "MDCD": {
    "AvailableFormats": "",
    "City": "Ghaziabad",
    "Latitude": "28.6835",
    "Longitude": "77.5174",
    "RegionCode": "NCR",
    "State": "NCR",
    "SubRegionCode": "GHAZ",
    "VenueAddress": "N.H.9, Mussoorie Gulawathi Road Industrial Area, Near - State Bank of India, Ghaziabad, NCR 201015, India",
    "VenueCode": "MDCD",
    "VenueName": "Madhuban Cinema: Dasna"
  },
  "MECB": {
    "AvailableFormats": "",
    "City": "Bellary",
    "Latitude": "15.142982",
    "Longitude": "76.93244",
    "RegionCode": "BLRY",
    "State": "Karnataka",
    "SubRegionCode": "BLRY",
    "VenueAddress": "SLN Mall, 4th Floor, Sanganakal Road, Bellary, Karnataka 583101, India",
    "VenueCode": "MECB",
    "VenueName": "Movietime Cinemas: SLN Mall, Bellary"
  },
  "MENL": {
    "AvailableFormats": "2D",
    "City": "Ghaziabad",
    "Latitude": "28.7081",
    "Longitude": "77.2916",
    "RegionCode": "NCR",
    "State": "NCR",
    "SubRegionCode": "GHAZ",
    "VenueAddress": "Loni Road, Harijan Basti, Raj Nagar, Gokalpur, Ghaziabad, NCR 110094, India",
    "VenueCode": "MENL",
    "VenueName": "Meenakshi Multiplex Cinema: Loni"
  },
  "MGMF": {
    "AvailableFormats": "",
    "City": "Dhuri",
    "Latitude": "30.3649",
    "Longitude": "75.8591",
    "RegionCode": "DHRI",
    "State": "Punjab",
    "SubRegionCode": "DHRI",
    "VenueAddress": "MGM Mall, Sangrur-Dhuri Road, Near Civil Hospital, Dhuri, Punjab 148024, India",
    "VenueCode": "MGMF",
    "VenueName": "MGM Filmiplex Cinema: Dhuri"
  },
  "MIDL": {
    "AvailableFormats": "2D",
    "City": "Madurai",
    "Latitude": "9.93085",
    "Longitude": "78.0907",
    "RegionCode": "MADU",
    "State": "Tamil Nadu",
    "SubRegionCode": "MADU",
    "VenueAddress": "116/2, Sammattipuram Main Road, Opposite to Big Bazaar, Madurai, Tamil Nadu 625016, India",
    "VenueCode": "MIDL",
    "VenueName": "Midlaand Cinemas A/C 4K Dolby Digital 7.1: Madurai"
  },
  "MJCS": {
    "AvailableFormats": "3D|2D",
    "City": "Akola",
    "Latitude": "20.6983",
    "Longitude": "77.0168",
    "RegionCode": "AKOL",
    "State": "Maharashtra",
    "SubRegionCode": "AKOL",
    "VenueAddress": "Murtizapur Road, Kirti Nagar, Near TVS Showroom, Akola, Maharashtra 444005, India",
    "VenueCode": "MJCS",
    "VenueName": "Miraj Cinemas: Radha Krishna, Akola"
  },
  "MKCK": {
    "AvailableFormats": "2D",
    "City": "Aravakurichi",
    "Latitude": "10.7803",
    "Longitude": "77.9122",
    "RegionCode": "ARAV",
    "State": "Tamil Nadu",
    "SubRegionCode": "ARAV",
    "VenueAddress": "Aravakurichi Main Road, Aravakurichi, Tamil Nadu, Aravakurichi, Tamil Nadu 639201, India",
    "VenueCode": "MKCK",
    "VenueName": "Makkal Cinemas A/C: Aravakurichi"
  },
  "MLAM": {
    "AvailableFormats": "2D",
    "City": "Siliguri",
    "Latitude": "26.7299",
    "Longitude": "88.4321",
    "RegionCode": "SILI",
    "State": "West Bengal",
    "SubRegionCode": "SILI",
    "VenueAddress": "6th Floor, Himalayan Builders, ML Acropolis Mall, Sevoke Road, 2nd Mile, Opposite - Anandalok Hospital, Siliguri, West Bengal 734001, India",
    "VenueCode": "MLAM",
    "VenueName": "INOX: ML Acropolis Mall, Siliguri"
  },
  "MMAH": {
    "AvailableFormats": "2D|3D",
    "City": "Hyderabad",
    "Latitude": "17.4631",
    "Longitude": "78.5607",
    "RegionCode": "HYD",
    "State": "Telangana",
    "SubRegionCode": "HYD",
    "VenueAddress": "AMR Planet Mall,1,Rd,373/1 and 373.3, Trimulgherry, ECIL Road, Extn -  Moula Ali, Secunderabad, Extn - Moula Ali, Secunderabad, Hyderabad, Telangana 500040, India",
    "VenueCode": "MMAH",
    "VenueName": "MovieMax: AMR, ECIL Secunderabad"
  },
  "MMEN": {
    "AvailableFormats": "3D|2D",
    "City": "Nagpur",
    "Latitude": "21.143",
    "Longitude": "79.0803",
    "RegionCode": "NAGP",
    "State": "Maharashtra",
    "SubRegionCode": "NAGP",
    "VenueAddress": "MovieMax, 4th Floor, Variety Square, Sitabuldi, Nagpur, Maharashtra 440012, India",
    "VenueCode": "MMEN",
    "VenueName": "MovieMax: Eternity, Nagpur"
  },
  "MMMR": {
    "AvailableFormats": "2D",
    "City": "Mumbai",
    "Latitude": "19.2928",
    "Longitude": "72.8717",
    "RegionCode": "MUMBAI",
    "State": "Maharashtra",
    "SubRegionCode": "MWEST",
    "VenueAddress": "MovieMax, Prime Mall, Beverly Park, Mira-Bhayander Road, Mira Road (East), Near Shivar Garden, Mumbai, Maharashtra 401107, India",
    "VenueCode": "MMMR",
    "VenueName": "MovieMax: Mira Road"
  },
  "MMSR": {
    "AvailableFormats": "",
    "City": "Pochampally",
    "Latitude": "17.34488",
    "Longitude": "78.81876",
    "RegionCode": "POCH",
    "State": "Telangana",
    "SubRegionCode": "POCH",
    "VenueAddress": "M.G Road, Near Apollo Pharmacy, Pochampally, Telangana 508284, India",
    "VenueCode": "MMSR",
    "VenueName": "MRR Sri Sai Ram Theatre: Pochampally"
  },
  "MMXI": {
    "AvailableFormats": "2D",
    "City": "Indore",
    "Latitude": "22.7481",
    "Longitude": "75.8905",
    "RegionCode": "IND",
    "State": "Madhya Pradesh",
    "SubRegionCode": "IND",
    "VenueAddress": "Gravity Mall Ware House Road Bhamor, Vijay Nagar, Indore, Madhya Pradesh 452010, India",
    "VenueCode": "MMXI",
    "VenueName": "Manmandir Miniplex: Indore"
  },
  "MNKC": {
    "AvailableFormats": "2D",
    "City": "Akola",
    "Latitude": "20.7143",
    "Longitude": "76.9974",
    "RegionCode": "AKOL",
    "State": "Maharashtra",
    "SubRegionCode": "AKOL",
    "VenueAddress": "Manek Talkies, Tilak Road, Near Akot Bus Stand, Akola, Maharashtra 444001, India",
    "VenueCode": "MNKC",
    "VenueName": "Manek Cinema: Akola"
  },
  "MPDB": {
    "AvailableFormats": "3D|2D",
    "City": "Bhubaneswar",
    "Latitude": "20.2962",
    "Longitude": "85.835",
    "RegionCode": "JATN",
    "State": "Odisha",
    "SubRegionCode": "JATN",
    "VenueAddress": "Bhoi Nagar, Service Road, Vani Vihar, Near Sky Automobile, Bhubaneswar, Odisha 751022, India",
    "VenueCode": "MPDB",
    "VenueName": "Maharaja (Christie 4K, DOLBY ATMOS 64 CHANNEL)"
  },
  "MRCL": {
    "AvailableFormats": "2D",
    "City": "Sangli",
    "Latitude": "16.8198",
    "Longitude": "74.6424",
    "RegionCode": "ASMA",
    "State": "Maharashtra",
    "SubRegionCode": "ASMA",
    "VenueAddress": "Pandharpur Wal, Shivaji Road, Near City Bus Stand, Miraj, Sangli, Maharashtra 416410, India",
    "VenueCode": "MRCL",
    "VenueName": "Amar Cinema: Miraj"
  },
  "MRRG": {
    "AvailableFormats": "",
    "City": "Hyderabad",
    "Latitude": "17.4513",
    "Longitude": "78.5359",
    "RegionCode": "HYD",
    "State": "Telangana",
    "SubRegionCode": "HYD",
    "VenueAddress": "Bus Stand, Raghavendra Theatre Road, Malkajgiri, Hyderabad, Telangana 500047, India",
    "VenueCode": "MRRG",
    "VenueName": "Miraj Cinemas: Raghavendra, Malkajgiri"
  },
  "MSCM": {
    "AvailableFormats": "2D|3D",
    "City": "Pune",
    "Latitude": "18.6504",
    "Longitude": "73.8393",
    "RegionCode": "PUNE",
    "State": "Maharashtra",
    "SubRegionCode": "PUNE",
    "VenueAddress": "Sector No. 9, Sant Nagar, Spine Road, Pune, Maharashtra 412105, India",
    "VenueCode": "MSCM",
    "VenueName": "Miraj Cinemas: Spine City Mall, Pune"
  },
  "MSRM": {
    "AvailableFormats": "",
    "City": "Punganur",
    "Latitude": "13.363947",
    "Longitude": "78.56852",
    "RegionCode": "PGNR",
    "State": "Andhra Pradesh",
    "SubRegionCode": "PGNR",
    "VenueAddress": "Vidya Nagar, Vet Hospital Road, Nagapyam, Punganur, Andhra Pradesh 517247, India",
    "VenueCode": "MSRM",
    "VenueName": "MSR Movie Land: Punganur"
  },
  "MTCM": {
    "AvailableFormats": "2D",
    "City": "Chidambaram",
    "Latitude": "11.3949",
    "Longitude": "79.7012",
    "RegionCode": "CHID",
    "State": "Tamil Nadu",
    "SubRegionCode": "CHID",
    "VenueAddress": "SP Kovil Street, OP Main Road, Near Gm Vandayar Thirumana Mahal, Chidambaram, Tamil Nadu 608001, India",
    "VenueCode": "MTCM",
    "VenueName": "Mariyappa Theatre: Chidambaram"
  },
  "MTJA": {
    "AvailableFormats": "2D",
    "City": "Jammu",
    "Latitude": "32.7274",
    "Longitude": "74.8458",
    "RegionCode": "JAMM",
    "State": "Jammu and Kashmir",
    "SubRegionCode": "JAMM",
    "VenueAddress": "K C Central, Indira Theater, Canal Road, Jammu Tawi, Near The Raymond Shop, Jammu, Jammu and Kashmir 180002, India",
    "VenueCode": "MTJA",
    "VenueName": "Movietime Cinemas: Jammu"
  },
  "MTND": {
    "AvailableFormats": "2D|3D",
    "City": "Noida",
    "Latitude": "28.5717",
    "Longitude": "77.3225",
    "RegionCode": "NCR",
    "State": "NCR",
    "SubRegionCode": "NOIDA",
    "VenueAddress": "Tulsi Marg, K Block, Pocket E, Dharam Palace Mall, Sector 18, Noida, NCR 201301, India",
    "VenueCode": "MTND",
    "VenueName": "Movietime Cinemas: Sector 18, Noida"
  },
  "MTYA": {
    "AvailableFormats": "",
    "City": "Nandigama",
    "Latitude": "16.7752",
    "Longitude": "80.2837",
    "RegionCode": "NDGM",
    "State": "Andhra Pradesh",
    "SubRegionCode": "NDGM",
    "VenueAddress": "Mayuri Theatre Road, Ramannapet Road, Nandigama, Andhra Pradesh 521185, India",
    "VenueCode": "MTYA",
    "VenueName": "Mayuri Theater A/c Dolby 7.1 Surround: Nandigama"
  },
  "MUTB": {
    "AvailableFormats": "2D",
    "City": "Bengaluru",
    "Latitude": "13.0385",
    "Longitude": "77.5529",
    "RegionCode": "BANG",
    "State": "Karnataka",
    "SubRegionCode": "BANG",
    "VenueAddress": "Muthyala Nagar, 19th Cross, 2nd Stage, Mathikere, Near Railway Gate and J.P.Park, Near Mega Mart, Bengaluru, Karnataka 560054, India",
    "VenueCode": "MUTB",
    "VenueName": "Murali Cinemas(Gokula)4K Dolby7.1 A/C 3D:Mathikere"
  },
  "MXBO": {
    "AvailableFormats": "2D",
    "City": "Mumbai",
    "Latitude": "19.232",
    "Longitude": "72.8287",
    "RegionCode": "MUMBAI",
    "State": "Maharashtra",
    "SubRegionCode": "MWEST",
    "VenueAddress": "Zoom Plaza Mall, 4th Floor,L.T. Road, Borivali (W), Opposite Gorai Depot, Mumbai, Maharashtra 400092, India",
    "VenueCode": "MXBO",
    "VenueName": "Maxus Cinemas: Borivali (W)"
  },
  "MYBG": {
    "AvailableFormats": "2D",
    "City": "Balaghat",
    "Latitude": "21.8109",
    "Longitude": "80.1954",
    "RegionCode": "BLGT",
    "State": "Madhya Pradesh",
    "SubRegionCode": "BLGT",
    "VenueAddress": "Chitragupt Nagar, Gondia Road, Near HDFC Bank, Balaghat, Madhya Pradesh 481001, India",
    "VenueCode": "MYBG",
    "VenueName": "Mayur Talkies: Balaghat"
  },
  "MYRP": {
    "AvailableFormats": "2D",
    "City": "Kollam",
    "Latitude": "8.88953",
    "Longitude": "76.5858",
    "RegionCode": "KOLM",
    "State": "Kerala",
    "SubRegionCode": "KOLM",
    "VenueAddress": "RP Mall, Level 5, Salem-Kochi Highway, Near Reliance Trends, Kollam, Kerala 691001, India",
    "VenueCode": "MYRP",
    "VenueName": "MY Cinemas, RP Mall: Kollam"
  },
  "NAGO": {
    "AvailableFormats": "2D",
    "City": "Nagaur",
    "Latitude": "27.1957",
    "Longitude": "73.7501",
    "RegionCode": "NAGR",
    "State": "Rajasthan",
    "SubRegionCode": "NAGR",
    "VenueAddress": "NH 65, Hanuman Bagh Colony,Bassi Mohalla, Nagaur, Rajasthan 341001, India",
    "VenueCode": "NAGO",
    "VenueName": "Laxmi Tara Cinema: Nagaur"
  },
  "NCCW": {
    "AvailableFormats": "2D",
    "City": "Wai",
    "Latitude": "17.9525",
    "Longitude": "73.8873",
    "RegionCode": "WAIP",
    "State": "Maharashtra",
    "SubRegionCode": "WAIP",
    "VenueAddress": "Chota Pul, Gangapuri Road, Danebazar, Ganpati Ali, Wai, Maharashtra 412803, India",
    "VenueCode": "NCCW",
    "VenueName": "New Chitra Cinema: Wai"
  },
  "NCMD": {
    "AvailableFormats": "2D",
    "City": "Doraha",
    "Latitude": "30.7867",
    "Longitude": "76.0467",
    "RegionCode": "DORH",
    "State": "Punjab",
    "SubRegionCode": "DORH",
    "VenueAddress": "West View Plaza, GT Road, Doraha, Near Mcdonalds, Doraha, Punjab 141421, India",
    "VenueCode": "NCMD",
    "VenueName": "Nova Cinemaz: Doraha"
  },
  "NECB": {
    "AvailableFormats": "2D",
    "City": "Billawar",
    "Latitude": "32.6136",
    "Longitude": "75.6041",
    "RegionCode": "BILL",
    "State": "Jammu and Kashmir",
    "SubRegionCode": "BILL",
    "VenueAddress": "Tilla Billawar, Near Bharat Stone Crusher, Billawar, Jammu and Kashmir 184203, India",
    "VenueCode": "NECB",
    "VenueName": "Neelam Cinema: Billawar"
  },
  "NHCG": {
    "AvailableFormats": "2D",
    "City": "Mumbai",
    "Latitude": "18.962",
    "Longitude": "72.824",
    "RegionCode": "MUMBAI",
    "State": "Maharashtra",
    "SubRegionCode": "MWEST",
    "VenueAddress": "Plot no: 266, Nishat Talkies, Maulana shaukatali Road, Mumbai, Maharashtra 400008, India",
    "VenueCode": "NHCG",
    "VenueName": "Nishat Cinema: Grant Road"
  },
  "NLPS": {
    "AvailableFormats": "",
    "City": "Perundurai",
    "Latitude": "11.286024",
    "Longitude": "77.58599",
    "RegionCode": "PEDR",
    "State": "Tamil Nadu",
    "SubRegionCode": "PEDR",
    "VenueAddress": "Thiruvenkadampalayam, Nallapa Theatre Road, Opposite Sri Vishnu Car Wash, Perundurai, Tamil Nadu 638052, India",
    "VenueCode": "NLPS",
    "VenueName": "Nallappas Cinemas: Perundurai"
  },
  "NNCZ": {
    "AvailableFormats": "2D",
    "City": "Moga",
    "Latitude": "30.8191",
    "Longitude": "75.2143",
    "RegionCode": "MOGA",
    "State": "Punjab",
    "SubRegionCode": "MOGA",
    "VenueAddress": "Kartar Nagar, G.T Road, Moga - Ludhiana Road, Near Bugipura Chowk, Moga, Punjab 142001, India",
    "VenueCode": "NNCZ",
    "VenueName": "Neelam Nova Cinemaz: Moga"
  },
  "NPSE": {
    "AvailableFormats": "2D|3D",
    "City": "Pune",
    "Latitude": "18.538",
    "Longitude": "73.8356",
    "RegionCode": "PUNE",
    "State": "Maharashtra",
    "SubRegionCode": "PUNE",
    "VenueAddress": "East Square Flyover, Premnagar, Ashok Nagar, Pune, Maharashtra 411016, India",
    "VenueCode": "NPSE",
    "VenueName": "E-SQUARE: University Road, Pune (Newly Renovated)"
  },
  "NSBR": {
    "AvailableFormats": "2D|3D",
    "City": "Bengaluru",
    "Latitude": "13.0183",
    "Longitude": "77.7625",
    "RegionCode": "HOKT",
    "State": "Karnataka",
    "SubRegionCode": "HOKT",
    "VenueAddress": "Inox Leisure Ltd., Leisure Ltd., 2nd Floor, SBR Horizon, Seegehalli, Whitefield-Hoskote Road, Bengaluru, Karnataka 560067, India",
    "VenueCode": "NSBR",
    "VenueName": "INOX:SBR Horizon, Seegehalli Whitefield-Hoskote Rd"
  },
  "NTCD": {
    "AvailableFormats": "2D",
    "City": "Dehradun",
    "Latitude": "30.3266",
    "Longitude": "78.0357",
    "RegionCode": "DEH",
    "State": "Uttarakhand",
    "SubRegionCode": "DEH",
    "VenueAddress": "Chakarata Road, Old Connaught Place, Dehradun, Uttarakhand 248001, India",
    "VenueCode": "NTCD",
    "VenueName": "Natraj Cinema: Dehradun"
  },
  "NTST": {
    "AvailableFormats": "",
    "City": "Sangareddy",
    "Latitude": "17.614477",
    "Longitude": "78.08178",
    "RegionCode": "SARE",
    "State": "Telangana",
    "SubRegionCode": "SARE",
    "VenueAddress": "Veerabhadra Nagar, Medak-Sangareddy Road, Sangareddy, Telangana 502001, India",
    "VenueCode": "NTST",
    "VenueName": "Natraj Theatre: Sangareddy"
  },