{
  "AACM": {
    "AvailableFormats": "2D",
    "City": "Raniganj",
    "Latitude": "23.6272",
    "Longitude": "87.1138",
    "RegionCode": "RNGJ",
    "State": "West Bengal",
    "SubRegionCode": "RNGJ",
    "VenueAddress": "N S B Road, P/O Raniganj, Raniganj, West Bengal 713347, India",
    "VenueCode": "AACM",
    "VenueName": "Anjana Chitra Mandir: Raniganj"
  },
  "AANS": {
    "AvailableFormats": "2D",
    "City": "Sawantwadi",
    "Latitude": "15.9241",
    "Longitude": "73.8362",
    "RegionCode": "ZARA",
    "State": "Maharashtra",
    "SubRegionCode": "ZAEA",
    "VenueAddress": "Survey No.45, 1A-14/15/16, Vengurla-Belgaum Road, Nirukhe, Kolgaon, Taluka Sawantwadi, District Sindudurga, Sawantwadi, Maharashtra 416510, India",
    "VenueCode": "AANS",
    "VenueName": "Arya Nova Cinemaz: Sawantwadi"
  },
  "ABCC": {
    "AvailableFormats": "2D",
    "City": "Chandrapur",
    "Latitude": "19.9469",
    "Longitude": "79.2949",
    "RegionCode": "CHAN",
    "State": "Maharashtra",
    "SubRegionCode": "CHAN",
    "VenueAddress": "Ekori Ward, Near Gandhi Chowk, Chandrapur, Maharashtra 442402, India",
    "VenueCode": "ABCC",
    "VenueName": "Cinejoy Cinema: Chandrapur"
  },
  "ABRN": {
    "AvailableFormats": "2D",
    "City": "Gudivada",
    "Latitude": "16.4319",
    "Longitude": "80.9919",
    "RegionCode": "GUDI",
    "State": "Andhra Pradesh",
    "SubRegionCode": "GUDI",
    "VenueAddress": "Gudivada - Kankipadu Road, Loyaada, Gudivada, Andhra Pradesh 521301, India",
    "VenueCode": "ABRN",
    "VenueName": "ABR Cinemas The Next: Gudivada"
  },
  "ACBX": {
    "AvailableFormats": "2D",
    "City": "Birra",
    "Latitude": "21.7551",
    "Longitude": "82.7759",
    "RegionCode": "BIRR",
    "State": "Chhattisgarh",
    "SubRegionCode": "BIRR",
    "VenueAddress": "Near SBI bank, Gatwa, Birra, Birra, Chhattisgarh 495661, India",
    "VenueCode": "ACBX",
    "VenueName": "AAB Cineplex: Birra"
  },
  "ACHU": {
    "AvailableFormats": "2D",
    "City": "Udaynarayanpur",
    "Latitude": "22.7258",
    "Longitude": "87.9847",
    "RegionCode": "UDAY",
    "State": "West Bengal",
    "SubRegionCode": "UDAY",
    "VenueAddress": "Udaynarayanpur-Pursura Road, Near Tarama Mithanno Vandar, Udaynarayanpur, West Bengal 711226, India",
    "VenueCode": "ACHU",
    "VenueName": "Anandamoyee Cinema Hall: Udaynarayanpur"
  },
  "ACKP": {
    "AvailableFormats": "",
    "City": "Kattappana",
    "FirstTracked": "2026-07-14",
    "Latitude": "9.753518",
    "Longitude": "77.11237",
    "RegionCode": "AWCK",
    "State": "Kerala",
    "SubRegionCode": "AWCK",
    "VenueAddress": "Aiswarya Cinema, Kattappana, Kerala, Near Thras Bazar, Kattappana, Kerala 685508, India",
    "VenueCode": "ACKP",
    "VenueName": "Aiswarya Cinemas: Kattappana"
  },
  "ACNC": {
    "AvailableFormats": "2D",
    "City": "Vadakara",
    "Latitude": "11.5998",
    "Longitude": "75.5859",
    "RegionCode": "VDKR",
    "State": "Kerala",
    "SubRegionCode": "VDKR",
    "VenueAddress": "Main Road Vadakara, Badagara, Vadakara, Near Taluk Office Vadakara, Vadakara, Kerala 673101, India",
    "VenueCode": "ACNC",
    "VenueName": "Ashok CNC 4K Dolby Atmos Tripple Beam 3D: Vadakara"
  },
  "ACSI": {
    "AvailableFormats": "2D",
    "City": "Shamli",
    "Latitude": "29.4176",
    "Longitude": "77.2509",
    "RegionCode": "SHAM",
    "State": "Uttar Pradesh",
    "SubRegionCode": "SHAM",
    "VenueAddress": "Shamli-Kairana Road, Near Shubh Lagan Marriage Hall, Shamli, Uttar Pradesh 247776, India",
    "VenueCode": "ACSI",
    "VenueName": "Adhiraj Cinemas: Shamli"
  },
  "ACWH": {
    "AvailableFormats": "2D",
    "City": "Warangal",
    "Latitude": "18.0062",
    "Longitude": "79.5731",
    "RegionCode": "WAR",
    "State": "Telangana",
    "SubRegionCode": "WAR",
    "VenueAddress": "Warangal - Hyderabad Road, Enugula Gadda, Hanmakonda, Near Amrutha Gardens Marriage Hall, Warangal, Telangana 506001, India",
    "VenueCode": "ACWH",
    "VenueName": "Amrutha Cinema: Hanumakonda"
  },
  "ADGC": {
    "AvailableFormats": "2D",
    "City": "Narayanpur (CH)",
    "Latitude": "19.7218",
    "Longitude": "81.2415",
    "RegionCode": "NRYA",
    "State": "Chhattisgarh",
    "SubRegionCode": "NRYA",
    "VenueAddress": "Collectorate Road, Near Sports Ground, Narayanpur (CH), Chhattisgarh 494661, India",
    "VenueCode": "ADGC",
    "VenueName": "Adeshwar Global Cinemas: Narayanpur"
  },
  "AFST": {
    "AvailableFormats": "2D",
    "City": "Siddhpur",
    "Latitude": "23.9425",
    "Longitude": "72.3653",
    "RegionCode": "SIDD",
    "State": "Gujarat",
    "SubRegionCode": "SIDD",
    "VenueAddress": "Gokul Highway Food Mall, Highway Road, Near Sujanpur Patia, Siddhpur, Gujarat 384151, India",
    "VenueCode": "AFST",
    "VenueName": "Ajayshree Films (Gokul Theater): Siddhpur"
  },
  "AICP": {
    "AvailableFormats": "2D",
    "City": "Pallickathodu",
    "Latitude": "9.60499",
    "Longitude": "76.681",
    "RegionCode": "PKTU",
    "State": "Kerala",
    "SubRegionCode": "PKTU",
    "VenueAddress": "Kodungoor Road, Mutholy Pallickathodu, Near Federal Bank Pallikathodu, Pallickathodu, Kerala 686503, India",
    "VenueCode": "AICP",
    "VenueName": "Anchani Cinemas 4K Dolby Atmos: Pallickathodu"
  },
  "AKRF": {
    "AvailableFormats": "2D",
    "City": "Faridabad",
    "Latitude": "28.4553",
    "Longitude": "77.316",
    "RegionCode": "NCR",
    "State": "NCR",
    "SubRegionCode": "FARI",
    "VenueAddress": "SLF Mall St, Indraprastha Colony, Sector 32, Faridabad, NCR 121003, India",
    "VenueCode": "AKRF",
    "VenueName": "AKR Cinemas: SLF Mall, Faridabad"
  },
  "ALCI": {
    "AvailableFormats": "2D",
    "City": "Vadodara",
    "Latitude": "22.2859",
    "Longitude": "73.2092",
    "RegionCode": "VAD",
    "State": "Gujarat",
    "SubRegionCode": "VAD",
    "VenueAddress": "Navapura, Bhatia Chawl, Pratap Nagar Road, Moghul Wada, Vadodara, Gujarat 390001, India",
    "VenueCode": "ALCI",
    "VenueName": "Alpana Cinema: Vadodara"
  },
  "AMBC": {
    "AvailableFormats": "",
    "City": "Eluru",
    "FirstTracked": "2026-07-14",
    "Latitude": "16.707937",
    "Longitude": "81.10276",
    "RegionCode": "ELRU",
    "State": "Andhra Pradesh",
    "SubRegionCode": "ELRU",
    "VenueAddress": "Dongala Mandapam Road, Southen Street, Agraharam, Eluru, Andhra Pradesh 534001, India",
    "VenueCode": "AMBC",
    "VenueName": "Ambica Delux (Screen 1): Eluru"
  },
  "AMDE": {
    "AvailableFormats": "2D",
    "City": "Thiruthuraipoondi",
    "Latitude": "10.5366",
    "Longitude": "79.6368",
    "RegionCode": "THND",
    "State": "Tamil Nadu",
    "SubRegionCode": "THND",
    "VenueAddress": "SH 63,Railway Station Rd, Thiruthuraipoondi, Near Seematti Readymade Silks, Thiruthuraipoondi, Tamil Nadu 614713, India",
    "VenueCode": "AMDE",
    "VenueName": "AM Deluxe Theatre A/C: Thiruthuraipoondi"
  },
  "AMMT": {
    "AvailableFormats": "2D",
    "City": "Srikakulam",
    "Latitude": "18.2907",
    "Longitude": "83.897",
    "RegionCode": "SRKL",
    "State": "Andhra Pradesh",
    "SubRegionCode": "SRKL",
    "VenueAddress": "12-09-13/1, Mandala Street, Zilla Parishad Road, SBI Colony, L.B.S Colony, Srikakulam, Andhra Pradesh 532001, India",
    "VenueCode": "AMMT",
    "VenueName": "Maruthi Movie Max A/C Dts: Srikakulam"
  },
  "AMTT": {
    "AvailableFormats": "2D",
    "City": "Chennai",
    "Latitude": "12.7314",
    "Longitude": "80.1875",
    "RegionCode": "CHEN",
    "State": "Tamil Nadu",
    "SubRegionCode": "CHEN",
    "VenueAddress": "Kannagapattu, Thiruporur, Chennai, Tamil Nadu 603105, India",
    "VenueCode": "AMTT",
    "VenueName": "Arul Muruga Theatre 4K: Thiruporur"
  },
  "ANCN": {
    "AvailableFormats": "2D",
    "City": "Khategaon",
    "Latitude": "22.5896",
    "Longitude": "76.9259",
    "RegionCode": "KTEG",
    "State": "Madhya Pradesh",
    "SubRegionCode": "KTEG",
    "VenueAddress": "Hotel Shri Sundaram and Marriage Garden, Anjana Cinema Parisar, Nemawar Road, In Front of Petrol Pump, Khategaon, Madhya Pradesh 455336, India",
    "VenueCode": "ANCN",
    "VenueName": "Anjana Cinema: Khategaon"
  },
  "ANPT": {
    "AvailableFormats": "2D",
    "City": "Pithapuram",
    "Latitude": "17.1142",
    "Longitude": "82.2588",
    "RegionCode": "PITA",
    "State": "Andhra Pradesh",
    "SubRegionCode": "PITA",
    "VenueAddress": "Uppada - Pithapuram Road, Madhava Nagar, Pithapuram, Andhra Pradesh 533450, India",
    "VenueCode": "ANPT",
    "VenueName": "Sri Annapoorna Theatre 2K A/C DTS: Pithapuram"
  },
  "ANTT": {
    "AvailableFormats": "",
    "City": "Hyderabad",
    "FirstTracked": "2026-07-14",
    "Latitude": "17.437613",
    "Longitude": "78.49311",
    "RegionCode": "AUSH",
    "State": "Telangana",
    "SubRegionCode": "AUSH",
    "VenueAddress": "Somasundaram Street, Kalasiguda, General Bazaar, Secunderabad, Hyderabad, Telangana 500003, India",
    "VenueCode": "ANTT",
    "VenueName": "Anjali Movie Max: Secunderabad"
  },
  "APCY": {
    "AvailableFormats": "2D|3D",
    "City": "Karimnagar",
    "Latitude": "18.4409",
    "Longitude": "79.1323",
    "RegionCode": "KARIM",
    "State": "Telangana",
    "SubRegionCode": "KARIM",
    "VenueAddress": "C4RJ+9WW, Sharma Nagar, Karimnagar, Telangana 505001, India",
    "VenueCode": "APCY",
    "VenueName": "Asian Paradise Cinemas: Karimnagar"
  },
  "APRK": {
    "AvailableFormats": "2D",
    "City": "Kamareddy",
    "Latitude": "18.3256",
    "Longitude": "78.3327",
    "RegionCode": "KMRD",
    "State": "Telangana",
    "SubRegionCode": "KMRD",
    "VenueAddress": "Vivekananda Colony, Ashok Nagar, Kamareddy, Telangana 503111, India",
    "VenueCode": "APRK",
    "VenueName": "Asian Priya Cineplex: Kamareddy"
  },
  "ARAN": {
    "AvailableFormats": "2D",
    "City": "Mundra",
    "Latitude": "22.839",
    "Longitude": "69.7051",
    "RegionCode": "MUDA",
    "State": "Gujarat",
    "SubRegionCode": "MUDA",
    "VenueAddress": "1St Floor, P.No.4/2562, Om Orbit Shopping Mall, Vill.Nana Kapaya, Tal.Mundra, Kutch, Mundra, Gujarat 370421, India",
    "VenueCode": "ARAN",
    "VenueName": "Aradhaya Nova Cinemaz: Mundra"
  },
  "ARJU": {
    "AvailableFormats": "2D",
    "City": "Hyderabad",
    "Latitude": "17.4968",
    "Longitude": "78.397",
    "RegionCode": "HYD",
    "State": "Telangana",
    "SubRegionCode": "HYD",
    "VenueAddress": "Plot No 2, Sr 178, National Highway 9, Kukatpally, Near KPHB Road, KPHB Phase III, Hyderabad, Telangana 500072, India",
    "VenueCode": "ARJU",
    "VenueName": "Arjun 70MM: Kukatpally"
  },
  "ARVB": {
    "AvailableFormats": "2D",
    "City": "Bhadrachalam",
    "Latitude": "17.6734",
    "Longitude": "80.8894",
    "RegionCode": "BHDR",
    "State": "Telangana",
    "SubRegionCode": "BHDR",
    "VenueAddress": "Bhadrachalam Road, Ashok Nagar Colony, Bhadrachalam, Telangana 507111, India",
    "VenueCode": "ARVB",
    "VenueName": "AMR Vijay Bhaskar: Bhadrachalam"
  },
  "ASGM": {
    "AvailableFormats": "2D",
    "City": "Warangal",
    "Latitude": "17.9879",
    "Longitude": "79.5927",
    "RegionCode": "WAR",
    "State": "Telangana",
    "SubRegionCode": "WAR",
    "VenueAddress": "SVN Road, Mattewada, Phatak Mohalla, Warangal, Telangana 506002, India",
    "VenueCode": "ASGM",
    "VenueName": "Asian Gemini Theatre: Warangal"
  },
  "ASMA": {
    "AvailableFormats": "",
    "City": "Ahilyanagar (Ahmednagar)",
    "FirstTracked": "2026-07-14",
    "Latitude": "19.0927",
    "Longitude": "74.7362",
    "RegionCode": "AHMED",
    "State": "Maharashtra",
    "SubRegionCode": "AHMED",
    "VenueAddress": "Asha Chowk, Ahmednagar, Near Kotwali Police Headquarter, Ahilyanagar (Ahmednagar), Maharashtra 414001, India",
    "VenueCode": "ASMA",
    "VenueName": "Asha Square Multiplex: Ahilyanagar"
  },
  "ASRM": {
    "AvailableFormats": "2D",
    "City": "Madanapalle",
    "Latitude": "13.5553",
    "Longitude": "78.5081",
    "RegionCode": "MDNP",
    "State": "Andhra Pradesh",
    "SubRegionCode": "MDNP",
    "VenueAddress": "Rama Gopal Naidu Colony, Near State Bank of India, Madanapalle, Andhra Pradesh 517325, India",
    "VenueCode": "ASRM",
    "VenueName": "ASR A/C 4K Laser Dolby Surround 7.1: Madanapalle"
  },
  "ASTC": {
    "AvailableFormats": "2D",
    "City": "Indore",
    "Latitude": "22.7432",
    "Longitude": "75.8841",
    "RegionCode": "IND",
    "State": "Madhya Pradesh",
    "SubRegionCode": "IND",
    "VenueAddress": "Patni Pura Road, Nanda Nagar, Indore, Madhya Pradesh 452011, India",
    "VenueCode": "ASTC",
    "VenueName": "Aasttha Cinema: Indore"
  },
  "ATAS": {
    "AvailableFormats": "2D",
    "City": "Virudhunagar",
    "Latitude": "9.59006",
    "Longitude": "77.9557",
    "RegionCode": "VIRU",
    "State": "Tamil Nadu",
    "SubRegionCode": "VIRU",
    "VenueAddress": "Railway Feeder Road, Sivagami Puram, Virudhunagar, Tamil Nadu 626001, India",
    "VenueCode": "ATAS",
    "VenueName": "Apsara Theatre A/C 7.1 Surround System"
  },
  "ATJL": {
    "AvailableFormats": "2D",
    "City": "Jagdalpur",
    "Latitude": "19.0867",
    "Longitude": "82.0165",
    "RegionCode": "JAGD",
    "State": "Chhattisgarh",
    "SubRegionCode": "JAGD",
    "VenueAddress": "Anupama Chowk, Chitrakote Road, Jaiswal Colony, Jagdalpur, Chhattisgarh 494001, India",
    "VenueCode": "ATJL",
    "VenueName": "Anupama Theatre: Jagdalpur"
  },
  "ATTK": {
    "AvailableFormats": "",
    "City": "Narsapur",
    "FirstTracked": "2026-07-14",
    "Latitude": "16.4412",
    "Longitude": "81.7032",
    "RegionCode": "NARP",
    "State": "Andhra Pradesh",
    "SubRegionCode": "NARP",
    "VenueAddress": "NH216, Near Narsapur Bus Depot, Narsapur, Andhra Pradesh 534275, India",
    "VenueCode": "ATTK",
    "VenueName": "Annapurna Picture Palace: Narsapur"
  },
  "AUPM": {
    "AvailableFormats": "2D|3D",
    "City": "Nizamabad",
    "Latitude": "18.6642",
    "Longitude": "78.0941",
    "RegionCode": "NIZA",
    "State": "Telangana",
    "SubRegionCode": "NIZA",
    "VenueAddress": "Kotagally, Pedda Bazaar Road, Shivaji Nagar, Near Government High School, Nizamabad, Telangana 503001, India",
    "VenueCode": "AUPM",
    "VenueName": "Asian Usha Prasad Multiplex: Nizamabad"
  },
  "AVSG": {
    "AvailableFormats": "2D",
    "City": "Ghazipur",
    "Latitude": "25.5728",
    "Longitude": "83.5633",
    "RegionCode": "GHAR",
    "State": "Uttar Pradesh",
    "SubRegionCode": "GHAR",
    "VenueAddress": "Above V-Mart Vidhya Complex, Bandhwa Pull, Near - Sichai Vibhag Choraha, Ghazipur, Uttar Pradesh 233001, India",
    "VenueCode": "AVSG",
    "VenueName": "AV Star Cinema: Ghazipur"
  },
  "AYCS": {
    "AvailableFormats": "2D",
    "City": "Shimla",
    "Latitude": "31.0979",
    "Longitude": "77.1513",
    "RegionCode": "SMLA",
    "State": "Himachal Pradesh",
    "SubRegionCode": "SMLA",
    "VenueAddress": "2nd Floor, C.K. Mall New, ISBT Tutikandi, Shimla, Himachal Pradesh 171004, India",
    "VenueCode": "AYCS",
    "VenueName": "Ayaan Cinemas: Shimla"
  },
  "BALJ": {
    "AvailableFormats": "",
    "City": "Bengaluru",
    "FirstTracked": "2026-07-14",
    "Latitude": "12.956864",
    "Longitude": "77.6194",
    "RegionCode": "BANG",
    "State": "Karnataka",
    "SubRegionCode": "BANG",
    "VenueAddress": "21 K.V Temple Street, Vannarpet Main Road, Viveknagar, Bengaluru, Karnataka 560047, India",
    "VenueCode": "BALJ",
    "VenueName": "Sri Balaji 2K Dolby Atmos 7.1: Viveknagar"
  },
  "BBPC": {
    "AvailableFormats": "2D",
    "City": "Pusad",
    "Latitude": "19.9081",
    "Longitude": "77.5721",
    "RegionCode": "PUSD",
    "State": "Maharashtra",
    "SubRegionCode": "PUSD",
    "VenueAddress": "27, Pusad Road, Near Pusad Court, Near State Bank Of India, Pusad, Maharashtra 445204, India",
    "VenueCode": "BBPC",
    "VenueName": "Barkha Cinema: Pusad"
  },
  "BCKR": {
    "AvailableFormats": "2D|3D",
    "City": "Kharagpur",
    "Latitude": "22.3381",
    "Longitude": "87.306",
    "RegionCode": "KGPR",
    "State": "West Bengal",
    "SubRegionCode": "KGPR",
    "VenueAddress": "Railway Plot No- 489, New Settlement, Gate Bazar, Kharagpur, West Bengal 721301, India",
    "VenueCode": "BCKR",
    "VenueName": "Bombay Cineplex: Kharagpur"
  },
  "BGRJ": {
    "AvailableFormats": "",
    "City": "Narsipatnam",
    "FirstTracked": "2026-07-14",
    "Latitude": "17.66393",
    "Longitude": "82.61234",
    "RegionCode": "NARS",
    "State": "Andhra Pradesh",
    "SubRegionCode": "NARS",
    "VenueAddress": "Bangarraju Complex, Near Indian Bank, Narsipatnam, Andhra Pradesh 531116, India",
    "VenueCode": "BGRJ",
    "VenueName": "Bangaraju Picture Palace A/C DTS: Narsipatnam"
  },
  "BHUC": {
    "AvailableFormats": "2D",
    "City": "Solapur",
    "Latitude": "17.6771",
    "Longitude": "75.8986",
    "RegionCode": "SOLA",
    "State": "Maharashtra",
    "SubRegionCode": "SOLA",
    "VenueAddress": "8, Old Police Line, Murarji Peth, Solapur, Solapur, Maharashtra 413001, India",
    "VenueCode": "BHUC",
    "VenueName": "Bhagwat Uma Mandir: Solapur"
  },
  "BJML": {
    "AvailableFormats": "2D",
    "City": "Punganur",
    "Latitude": "13.3602",
    "Longitude": "78.5785",
    "RegionCode": "PGNR",
    "State": "Andhra Pradesh",
    "SubRegionCode": "PGNR",
    "VenueAddress": "MBT Road, Near Om Shakthi Temple, Punganur, Andhra Pradesh 517247, India",
    "VenueCode": "BJML",
    "VenueName": "Sree Balaji Movie Land A/C 4K: Punganur"
  },
  "BLCK": {
    "AvailableFormats": "2D",
    "City": "Kalladikode",
    "Latitude": "10.8926",
    "Longitude": "76.5402",
    "RegionCode": "KALD",
    "State": "Kerala",
    "SubRegionCode": "KALD",
    "VenueAddress": "Palakkad Highway, Kalladikode, Near Kalladikode Police Station, Kalladikode, Kerala 678596, India",
    "VenueCode": "BLCK",
    "VenueName": "Bala Cinemas Dolby Atmos Laser Tripple Beam 3D"
  },
  "BMCJ": {
    "AvailableFormats": "3D|2D",
    "City": "Jodhpur",
    "Latitude": "26.2723",
    "Longitude": "73.0033",
    "RegionCode": "JODH",
    "State": "Rajasthan",
    "SubRegionCode": "JODH",
    "VenueAddress": "4th Floor, Ashapurna Mall and Multiplex, Gaurav Path Road, Sector-E, Shastri Nagar, Near Shastri Nagar Post Office, Jodhpur, Rajasthan 342003, India",
    "VenueCode": "BMCJ",
    "VenueName": "Miraj Bioscope Cinemas: Jodhpur"
  },
  "BODA": {
    "AvailableFormats": "2D",
    "City": "Damoh",
    "Latitude": "23.8026",
    "Longitude": "79.4537",
    "RegionCode": "DAMO",
    "State": "Madhya Pradesh",
    "SubRegionCode": "DAMO",
    "VenueAddress": "Choupra Khurd, Jabalpur Road, Damoh, Madhya Pradesh 470661, India",
    "VenueCode": "BODA",
    "VenueName": "Bollywood Cinema: Damoh"
  },
  "BSCN": {
    "AvailableFormats": "2D",
    "City": "Nabha",
    "Latitude": "30.3918",
    "Longitude": "76.1195",
    "RegionCode": "NABH",
    "State": "Punjab",
    "SubRegionCode": "NABH",
    "VenueAddress": "Gulldi Gate, Nabha, Nabha-Malerkotla Road, Nabha, Punjab 147201, India",
    "VenueCode": "BSCN",
    "VenueName": "Balraj Cinemas: Nabha"
  },
  "BTCF": {
    "AvailableFormats": "",
    "City": "Firozabad",
    "FirstTracked": "2026-07-14",
    "Latitude": "27.136106",
    "Longitude": "78.4235",
    "RegionCode": "FRZD",
    "State": "Uttar Pradesh",
    "SubRegionCode": "FRZD",
    "VenueAddress": "Bharat talkies, Asfabad, Firozabad, Uttar Pradesh 283203, India",
    "VenueCode": "BTCF",
    "VenueName": "Bharat DD Cinemas: Firozabad"
  },
  "BUUC": {
    "AvailableFormats": "2D",
    "City": "Udupi",
    "Latitude": "13.3457",
    "Longitude": "74.7527",
    "RegionCode": "MANI",
    "State": "Karnataka",
    "SubRegionCode": "MANI",
    "VenueAddress": "Mandavi Times Square Mall, 2nd Floor, Mandavi, Manipal Highway, Klasanka Junction, Kunjibettu, Udupi, Karnataka 576102, India",
    "VenueCode": "BUUC",
    "VenueName": "Times Square Bharath Cinemas: Udupi"
  },
  "CAEP": {
    "AvailableFormats": "2D|3D",
    "City": "Patna",
    "Latitude": "25.5785",
    "Longitude": "85.0798",
    "RegionCode": "PATN",
    "State": "Bihar",
    "SubRegionCode": "PATN",
    "VenueAddress": "2nd Floor, S R Arcade, Near Mahavir Cancer Sansthan Pulwarishariff, Patna, Bihar 801505, India",
    "VenueCode": "CAEP",
    "VenueName": "Connplex Cinemas: Phulwari Sharif, Patna"
  },
  "CBWC": {
    "AvailableFormats": "",
    "City": "Biswanath Chariali",
    "FirstTracked": "2026-07-14",
    "Latitude": "26.7412",
    "Longitude": "93.1505",
    "RegionCode": "BICH",
    "State": "Assam",
    "SubRegionCode": "BICH",
    "VenueAddress": "3rd and 4th Floor, Millennium Market City, Biswanath Civil Sub Division, Biswanath Chariali, Assam 784176, India",
    "VenueCode": "CBWC",
    "VenueName": "Connplex Cinemas: Biswanath Chariali"
  },
  "CCCB": {
    "AvailableFormats": "2D",
    "City": "Coimbatore",
    "Latitude": "11.0137",
    "Longitude": "77.0026",
    "RegionCode": "COIM",
    "State": "Tamil Nadu",
    "SubRegionCode": "COIM",
    "VenueAddress": "14, Renganayaki Nagar, Thirumagal Nagar, Udayampalayam, Coimbatore, Tamil Nadu 641028, India",
    "VenueCode": "CCCB",
    "VenueName": "Cosmo Cinemas PEELAMEDU AC 4K RGB Lase:Coimbatore"
  },
  "CCJR": {
    "AvailableFormats": "2D",
    "City": "Janjgir",
    "Latitude": "22.0117",
    "Longitude": "82.5759",
    "RegionCode": "JANR",
    "State": "Chhattisgarh",
    "SubRegionCode": "JANR",
    "VenueAddress": "Near A One Bakery, Link Road, Janjgir, Chhattisgarh 495668, India",
    "VenueCode": "CCJR",
    "VenueName": "City Cinema: Janjgir Naila"
  },
  "CCML": {
    "AvailableFormats": "",
    "City": "Korba",
    "FirstTracked": "2026-07-14",
    "Latitude": "22.354334",
    "Longitude": "82.7046",
    "RegionCode": "KRBA",
    "State": "Chhattisgarh",
    "SubRegionCode": "KRBA",
    "VenueAddress": "Palm Mall, 2nd floor, T.P. Nagar Road, Lalu Ram colony, Korba, Chhattisgarh 495677, India",
    "VenueCode": "CCML",
    "VenueName": "Cineflix Cinema: The Palm Mall, Korba"
  },
  "CCPF": {
    "AvailableFormats": "",
    "City": "Agra",
    "FirstTracked": "2026-07-14",
    "Latitude": "27.2062",
    "Longitude": "77.9727",
    "RegionCode": "AGRA",
    "State": "Uttar Pradesh",
    "SubRegionCode": "AGRA",
    "VenueAddress": "Avas Vikas Colony, Sector 12A, Plot No. MP 01, Agra, Uttar Pradesh 282007, India",
    "VenueCode": "CCPF",
    "VenueName": "Cineworld Multiplex: Paras Pearls Mall, Agra"
  },
  "CCSI": {
    "AvailableFormats": "2D|3D",
    "City": "Siliguri",
    "Latitude": "26.7394",
    "Longitude": "88.4027",
    "RegionCode": "SILI",
    "State": "West Bengal",
    "SubRegionCode": "SILI",
    "VenueAddress": "Savin Plaza, Savin Kingdom,Hill Kart Road, Dagapur, Behind Baba Loknath Mandir, Siliguri, West Bengal 734003, India",
    "VenueCode": "CCSI",
    "VenueName": "Savin Cinemas: Siliguri"
  },
  "CDCM": {
    "AvailableFormats": "2D",
    "City": "Marayur",
    "Latitude": "10.278",
    "Longitude": "77.1658",
    "RegionCode": "MAYR",
    "State": "Kerala",
    "SubRegionCode": "MAYR",
    "VenueAddress": "Munnar - Udumalpet Road, Nearby Rahul Hotel, Marayur, Kerala 685620, India",
    "VenueCode": "CDCM",
    "VenueName": "Chandana Cinema: Marayur"
  },
  "CEHR": {
    "AvailableFormats": "2D|3D",
    "City": "Bengaluru",
    "Latitude": "12.8963",
    "Longitude": "77.6579",
    "RegionCode": "BANG",
    "State": "Karnataka",
    "SubRegionCode": "BANG",
    "VenueAddress": "No.102, 2B, Haralur Main Road, Bengaluru, Karnataka 560102, India",
    "VenueCode": "CEHR",
    "VenueName": "Cinephile HSR Layout: PNR Felicity Mall Haralur Rd"
  },
  "CGBO": {
    "AvailableFormats": "2D",
    "City": "Ahmedabad",
    "Latitude": "23.0288",
    "Longitude": "72.4785",
    "RegionCode": "AHD",
    "State": "Gujarat",
    "SubRegionCode": "AHD",
    "VenueAddress": "Behind Amrapali Shopping Complex, Bopal Junction,Sardar Patel Ring Road, Near Bharat Petroleum Petrol Pump, Ahmedabad, Gujarat 380058, India",
    "VenueCode": "CGBO",
    "VenueName": "City Gold: Bopal"
  },
  "CGMM": {
    "AvailableFormats": "2D|3D",
    "City": "Muzaffarpur",
    "Latitude": "26.1101",
    "Longitude": "85.3957",
    "RegionCode": "MUZA",
    "State": "Bihar",
    "SubRegionCode": "MUZA",
    "VenueAddress": "The Grand Mall, 5th Floor, Club Road, Near MDDM College, Muzaffarpur, Bihar 842002, India",
    "VenueCode": "CGMM",
    "VenueName": "Cinepolis: Grand Mall, Muzaffarpur"
  },
  "CHGV": {
    "AvailableFormats": "2D",
    "City": "Belagavi (Belgaum)",
    "Latitude": "15.8594",
    "Longitude": "74.5122",
    "RegionCode": "BELG",
    "State": "Karnataka",
    "SubRegionCode": "BELG",
    "VenueAddress": "1724/A, Huns Talkies Road, Burud Galli, Nana Shankar Sheth Marg, Ravivar Peth, Near Karur Vysya Bank, Belagavi (Belgaum), Karnataka 590001, India",
    "VenueCode": "CHGV",
    "VenueName": "Chitra Talkies: Belagavi"
  },
  "CHTM": {
    "AvailableFormats": "2D",
    "City": "Chhibramau",
    "Latitude": "27.1475",
    "Longitude": "79.5114",
    "RegionCode": "CHHI",
    "State": "Uttar Pradesh",
    "SubRegionCode": "CHHI",
    "VenueAddress": "100 Bed Hospital Road, Kannauj, Behind Janta Cold, Chhibramau, Uttar Pradesh 209721, India",
    "VenueCode": "CHTM",
    "VenueName": "Chhotu Maharaj: Chhibramau, UP"
  },
  "CIKO": {
    "AvailableFormats": "2D",
    "City": "Kodakara",
    "Latitude": "10.3734",
    "Longitude": "76.3065",
    "RegionCode": "THSR",
    "State": "Kerala",
    "SubRegionCode": "THSR",
    "VenueAddress": "98F4+9H8, Vellikulangara Road, Kodakara, Kerala 680684, India",
    "VenueCode": "CIKO",
    "VenueName": "City Shivadam RGB 4K Laser 3D: Kodakara"
  },
  "CJJB": {
    "AvailableFormats": "",
    "City": "Jabalpur",
    "FirstTracked": "2026-07-14",
    "Latitude": "23.2455",
    "Longitude": "79.881",
    "RegionCode": "JABL",
    "State": "Madhya Pradesh",
    "SubRegionCode": "JABL",
    "VenueAddress": "Servay no 14 Gram Magela Road, Post Gram Surtalai Tehsil Panagar, Jabalpur, Madhya Pradesh 482002, India",
    "VenueCode": "CJJB",
    "VenueName": "Chhotu Maharaj Cine Cafe: Jabalpur, MP"
  },
  "CLCU": {
    "AvailableFormats": "2D",
    "City": "Umred",
    "Latitude": "20.8595",
    "Longitude": "79.3164",
    "RegionCode": "UMRD",
    "State": "Maharashtra",
    "SubRegionCode": "UMRD",
    "VenueAddress": "Kawarapeth, Gangapur, Umred, Maharashtra 441203, India",
    "VenueCode": "CLCU",
    "VenueName": "Balaji Multiplex: Umred"
  },
  "CLMK": {
    "AvailableFormats": "2D|3D",
    "City": "Kolkata",
    "Latitude": "22.5167",
    "Longitude": "88.3489",
    "RegionCode": "KOLK",
    "State": "West Bengal",
    "SubRegionCode": "KOLK",
    "VenueAddress": "5th Floor Lake mall, Rash behari Avenue Road, 104- Rashbehari Avenue, Kolkata, West Bengal 700026, India",
    "VenueCode": "CLMK",
    "VenueName": "Cinepolis: Lake Mall, Kolkata"
  },
  "CMBW": {
    "AvailableFormats": "",
    "City": "Bankura",
    "FirstTracked": "2026-07-14",
    "Latitude": "23.2527",
    "Longitude": "87.0263",
    "RegionCode": "BNKU",
    "State": "West Bengal",
    "SubRegionCode": "BNKU",
    "VenueAddress": "Salboni Village, Bankura-Chhatna Road, Bankura, West Bengal 722102, India",
    "VenueCode": "CMBW",
    "VenueName": "Chhotu Maharaj: Bankura, WB"
  },
  "CMLO": {
    "AvailableFormats": "2D",
    "City": "Cherpulassery",
    "Latitude": "10.8796",
    "Longitude": "76.3103",
    "RegionCode": "CHER",
    "State": "Kerala",
    "SubRegionCode": "CHER",
    "VenueAddress": "Pattambi - Cherpulassery Road, Behind BSNL Exchange, Cherpulassery, Kerala 679503, India",
    "VenueCode": "CMLO",
    "VenueName": "Magic Frames Devi Cinemas: Cherpulassery"
  },
  "CMMX": {
    "AvailableFormats": "2D",
    "City": "Lakhimpur Kheri",
    "Latitude": "27.946",
    "Longitude": "80.2186",
    "RegionCode": "LKPK",
    "State": "Uttar Pradesh",
    "SubRegionCode": "LKPK",
    "VenueAddress": "Shiv Sagar Cineplex and Cafe. 2.Gata no.536, Ishlamabad, (Gureaila Chauraha Se Ramlila Maidan Road), Mohammadi, Lakhimpur Kheri, Uttar Pradesh 262804, India",
    "VenueCode": "CMMX",
    "VenueName": "Chhotu Maharaj Cine Cafe: Mohammadi, Kheri"
  },
  "CMUA": {
    "AvailableFormats": "",
    "City": "Howrah",
    "FirstTracked": "2026-07-14",
    "Latitude": "22.4874",
    "Longitude": "88.1111",
    "RegionCode": "HWRH",
    "State": "West Bengal",
    "SubRegionCode": "HWRH",
    "VenueAddress": "National Highway 16, Avarland, Uluberia, Near Coffee House Classic, Howrah, West Bengal 711316, India",
    "VenueCode": "CMUA",
    "VenueName": "Chhotu Maharaj: Uluberia, Howrah"
  },
  "CMXS": {
    "AvailableFormats": "2D",
    "City": "Dabhara",
    "Latitude": "21.7876",
    "Longitude": "82.9951",
    "RegionCode": "DABH",
    "State": "Chhattisgarh",
    "SubRegionCode": "DABH",
    "VenueAddress": "Bhagat Shopping Mall, Chhapora to Dabhara Main Road, Malkharoda, Dabhara, Chhattisgarh 495691, India",
    "VenueCode": "CMXS",
    "VenueName": "Chandra Multiplex Cinema: Dabhara"
  },
  "CNED": {
    "AvailableFormats": "2D|3D",
    "City": "Bhubaneswar",
    "Latitude": "20.2912",
    "Longitude": "85.8558",
    "RegionCode": "JATN",
    "State": "Odisha",
    "SubRegionCode": "JATN",
    "VenueAddress": "Esplanade One, Rasulgarh Industrial Estate, Industrial Area Estate, Rasulgarh, Bhubaneswar, Odisha 751007, India",
    "VenueCode": "CNED",
    "VenueName": "Cinepolis: Nexus Esplanade, Bhubaneswar"
  },
  "CNPE": {
    "AvailableFormats": "2D",
    "City": "Vadodara",
    "Latitude": "22.3105",
    "Longitude": "73.1589",
    "RegionCode": "VAD",
    "State": "Gujarat",
    "SubRegionCode": "VAD",
    "VenueAddress": "Cine Mall, 50, Race Course Road, Alkapuri, Near Natubhai Circle, Race Course, Vadodara, Gujarat 390007, India",
    "VenueCode": "CNPE",
    "VenueName": "Cineprime Cinema: Cinemall, Vadodara"
  },
  "CNTD": {
    "AvailableFormats": "2D",
    "City": "Tadepalligudem",
    "Latitude": "16.8194",
    "Longitude": "81.524",
    "RegionCode": "TADP",
    "State": "Andhra Pradesh",
    "SubRegionCode": "TADP",
    "VenueAddress": "Housing Board Colony, Sasi College Road, Tadepalligudem, Andhra Pradesh 534101, India",
    "VenueCode": "CNTD",
    "VenueName": "Connplex Cinemas (Signature): Sri Sri"
  },
  "CONN": {
    "AvailableFormats": "2D",
    "City": "Balotra",
    "Latitude": "25.7975",
    "Longitude": "72.1624",
    "RegionCode": "BALO",
    "State": "Rajasthan",
    "SubRegionCode": "BALO",
    "VenueAddress": "2nd Floor, Naresha Palace, Raj Resort, Nakoda Road, Near Rajendra Dham, Balotra, Rajasthan 344024, India",
    "VenueCode": "CONN",
    "VenueName": "Connplex Cinemas: Balotra"
  },
  "CPAR": {
    "AvailableFormats": "2D|3D",
    "City": "Pune",
    "Latitude": "18.4631",
    "Longitude": "73.8168",
    "RegionCode": "PUNE",
    "State": "Maharashtra",
    "SubRegionCode": "PUNE",
    "VenueAddress": "Near Flyover, Sinhagad Road, Vadgaon Budruk, Pune, Maharashtra 411041, India",
    "VenueCode": "CPAR",
    "VenueName": "Abhiruchi City Pride: Sinhagad Road"
  },
  "CPEM": {
    "AvailableFormats": "2D",
    "City": "Ahmedabad",
    "Latitude": "23.0233",
    "Longitude": "72.5682",
    "RegionCode": "AHD",
    "State": "Gujarat",
    "SubRegionCode": "AHD",
    "VenueAddress": "The Orient Club, Near - Gujarat College, Ahmedabad, Gujarat 380006, India",
    "VenueCode": "CPEM",
    "VenueName": "City Pulse: Orient Miniplex, Ellisbridge"
  },
  "CPKJ": {
    "AvailableFormats": "",
    "City": "Keonjhar",
    "FirstTracked": "2026-07-14",
    "Latitude": "21.63116",
    "Longitude": "85.60185",
    "RegionCode": "KNJH",
    "State": "Odisha",
    "SubRegionCode": "KNJH",
    "VenueAddress": "Cineplexx, Old Tarini Chhabighar, Hospital Road, Keonjhar, Odisha 758001, India",
    "VenueCode": "CPKJ",
    "VenueName": "Cineplexx: Keonjhar"
  },
  "CPMJ": {
    "AvailableFormats": "2D",
    "City": "Jagdalpur",
    "Latitude": "19.0887",
    "Longitude": "82.0118",
    "RegionCode": "JAGD",
    "State": "Chhattisgarh",
    "SubRegionCode": "JAGD",
    "VenueAddress": "Binaka Mall, Chitrakote Road, Jagdalpur, Chhattisgarh 493773, India",
    "VenueCode": "CPMJ",
    "VenueName": "Cine Plus Multiplex: Jagdalpur"
  },
  "CPPD": {
    "AvailableFormats": "2D",
    "City": "Proddatur",
    "Latitude": "14.7472",
    "Longitude": "78.5579",
    "RegionCode": "PROD",
    "State": "Andhra Pradesh",
    "SubRegionCode": "PROD",
    "VenueAddress": "Srinivasa Nagar, Opposite Arabian Hotel, Near S.K.C.V.S High School, Proddatur, Andhra Pradesh 516360, India",
    "VenueCode": "CPPD",
    "VenueName": "Chand Picture Palace A/C DTS: Proddatur"
  },
  "CPUM": {
    "AvailableFormats": "2D|3D",
    "City": "Delhi",
    "Latitude": "28.7149",
    "Longitude": "77.1164",
    "RegionCode": "NCR",
    "State": "NCR",
    "SubRegionCode": "DELHI",
    "VenueAddress": "Unity One Rohini, Bhagawan Mahavir Marg, Rohini West Metro Station, Sector 10, Rohini, Delhi, NCR 110085, India",
    "VenueCode": "CPUM",
    "VenueName": "Cinepolis: Unity One Mall Rohini, Delhi"
  },
  "CRHP": {
    "AvailableFormats": "",
    "City": "Shopian",
    "FirstTracked": "2026-07-14",
    "Latitude": "33.72005",
    "Longitude": "74.833595",
    "RegionCode": "SPHN",
    "State": "Jammu and Kashmir",
    "SubRegionCode": "SPHN",
    "VenueAddress": "Townhall Municipal Council Office, Near Town Hall Park, Shopian, Jammu and Kashmir 192303, India",
    "VenueCode": "CRHP",
    "VenueName": "Citara Cinemas: Shopian"
  },
  "CSCT": {
    "AvailableFormats": "2D",
    "City": "Tirupati",
    "Latitude": "13.6385",
    "Longitude": "79.4235",
    "RegionCode": "TIRU",
    "State": "Andhra Pradesh",
    "SubRegionCode": "TIRU",
    "VenueAddress": "RS Gardens, Leela Mahal Road, Tirupati, Andhra Pradesh 517501, India",
    "VenueCode": "CSCT",
    "VenueName": "CS Cinemas (Devendra Theater) A/C 4K Dolby Atmos"
  },
  "CSNC": {
    "AvailableFormats": "",
    "City": "Pileru",
    "FirstTracked": "2026-07-14",
    "Latitude": "13.657028",
    "Longitude": "78.9408",
    "RegionCode": "PLRU",
    "State": "Andhra Pradesh",
    "SubRegionCode": "PLRU",
    "VenueAddress": "National Highway 205, Near Vinayaka Temple, Pileru, Andhra Pradesh 517214, India",
    "VenueCode": "CSNC",
    "VenueName": "CSN Cinema (Shukur Picture Palace): Pileru"
  },
  "CSTM": {
    "AvailableFormats": "2D",
    "City": "Satana",
    "Latitude": "20.5959",
    "Longitude": "74.1976",
    "RegionCode": "STNA",
    "State": "Maharashtra",
    "SubRegionCode": "STNA",
    "VenueAddress": "Sonar Lane, Ambedkar Nagar, Satana, Maharashtra 423301, India",
    "VenueCode": "CSTM",
    "VenueName": "Chitra Cinema: Satana"
  },
  "CTEE": {
    "AvailableFormats": "3D|2D",
    "City": "Gurugram (Gurgaon)",
    "Latitude": "28.454",
    "Longitude": "76.9927",
    "RegionCode": "NCR",
    "State": "NCR",
    "SubRegionCode": "GURG",
    "VenueAddress": "The Esplanade Mall, Sector 37 C Road, Sector 37, Gurugram (Gurgaon), NCR 122001, India",
    "VenueCode": "CTEE",
    "VenueName": "Cinepolis: The Esplanade, Gurugram"
  },
  "CTMR": {
    "AvailableFormats": "2D",
    "City": "Muzaffarnagar",
    "Latitude": "29.4762",
    "Longitude": "77.6966",
    "RegionCode": "MUZ",
    "State": "Uttar Pradesh",
    "SubRegionCode": "MUZ",
    "VenueAddress": "NH 58, Civil Lines North, Muzaffarnagar, Uttar Pradesh 251001, India",
    "VenueCode": "CTMR",
    "VenueName": "Chandra Talkies: Muzaffarnagar"
  },
  "CTYB": {
    "AvailableFormats": "",
    "City": "Basna",
    "FirstTracked": "2026-07-14",
    "Latitude": "21.27868",
    "Longitude": "82.8222",
    "RegionCode": "BASN",
    "State": "Chhattisgarh",
    "SubRegionCode": "BASN",
    "VenueAddress": "Near Lady Hospital, National Highway 6, Basna, Chhattisgarh 493554, India",
    "VenueCode": "CTYB",
    "VenueName": "City Cinema: Basna"
  },
  "CVMN": {
    "AvailableFormats": "2D",
    "City": "Nadiad",
    "Latitude": "22.6918",
    "Longitude": "72.8631",
    "RegionCode": "NADI",
    "State": "Gujarat",
    "SubRegionCode": "NADI",
    "VenueAddress": "B/h D.P Desai Road, Dumral Bazar, Junaraopura, Near Krishna Hospital, Nadiad, Gujarat 387001, India",
    "VenueCode": "CVMN",
    "VenueName": "Coconut Virat Multiplex: Nadiad"
  },
  "CXBS": {
    "AvailableFormats": "2D",
    "City": "Bharuch",
    "Latitude": "21.719",
    "Longitude": "72.9784",
    "RegionCode": "BHAR",
    "State": "Gujarat",
    "SubRegionCode": "BHAR",
    "VenueAddress": "1st FloorShilpiMultiplex Building, ShilpiSquare, Dahej Bypass Road, Bharuch, Gujarat 392015, India",
    "VenueCode": "CXBS",
    "VenueName": "Connplex Cinemas: Bharuch Shilpi Square"
  },
  "CYCM": {
    "AvailableFormats": "2D",
    "City": "Ambajogai",
    "Latitude": "18.7127",
    "Longitude": "76.5414",
    "RegionCode": "AMBG",
    "State": "Maharashtra",
    "SubRegionCode": "AMBG",
    "VenueAddress": "Flat no. New Survey No. 16/7, House no 278/279, Karkhana Road, Dist Beed, Jogaiwadi, Ambajogai, Maharashtra 431517, India",
    "VenueCode": "CYCM",
    "VenueName": "Citara Satyam Cinema: Ambajogai"
  },
  "DBSC": {
    "AvailableFormats": "2D",
    "City": "Kanpur",
    "Latitude": "26.4526",
    "Longitude": "80.3501",
    "RegionCode": "KANP",
    "State": "Uttar Pradesh",
    "SubRegionCode": "KANP",
    "VenueAddress": "Delite Cinema, 562, Jaipuria Road, 1 No. Station, Rail Bazar, Mirpur Cantonment, Mirpur, Kanpur, Uttar Pradesh 208004, India",
    "VenueCode": "DBSC",
    "VenueName": "Delite Big Screen Cinema: Kanpur"
  },
  "DCDD": {
    "AvailableFormats": "",
    "City": "Dalmianagar",
    "FirstTracked": "2026-07-14",
    "Latitude": "24.914923",
    "Longitude": "84.18731",
    "RegionCode": "DAAL",
    "State": "Bihar",
    "SubRegionCode": "DAAL",
    "VenueAddress": "Near Suman Tea Centre, Dehri, Dalmianagar, Bihar 821305, India",
    "VenueCode": "DCDD",
    "VenueName": "Delight Cineplex: Dalmianagar"
  },
  "DCPC": {
    "AvailableFormats": "2D",
    "City": "Paonta Sahib",
    "Latitude": "30.4362",
    "Longitude": "77.5773",
    "RegionCode": "POTA",
    "State": "Himachal Pradesh",
    "SubRegionCode": "POTA",
    "VenueAddress": "Purwala - Bharli Road, Badripur, Pataliyon, Paonta Sahib, Himachal Pradesh 172025, India",
    "VenueCode": "DCPC",
    "VenueName": "Dhishoom Cinemas: Paonta Sahib"
  },
  "DDRX": {
    "AvailableFormats": "2D|3D",
    "City": "Bhopal",
    "Latitude": "23.2301",
    "Longitude": "77.4921",
    "RegionCode": "BHOP",
    "State": "Madhya Pradesh",
    "SubRegionCode": "BHOP",
    "VenueAddress": "4th Floor, Regal Civic Centre, Regal Town, Crystal Ideal City, Bhopal, Madhya Pradesh 462022, India",
    "VenueCode": "DDRX",
    "VenueName": "DDX Regal Cinema Awadhpuri: Bhopal"
  },
  "DESC": {
    "AvailableFormats": "2D",
    "City": "Wani",
    "Latitude": "20.0441",
    "Longitude": "78.9582",
    "RegionCode": "WANI",
    "State": "Maharashtra",
    "SubRegionCode": "WANI",
    "VenueAddress": "MIDC Road, Wani, Near Hanuman Temple, Wani, Maharashtra 445304, India",
    "VenueCode": "DESC",
    "VenueName": "Deepti Sky Cinex: Wani"
  },
  "DICD": {
    "AvailableFormats": "2D",
    "City": "Ahmedabad",
    "Latitude": "23.0484",
    "Longitude": "72.5289",
    "RegionCode": "AHD",
    "State": "Gujarat",
    "SubRegionCode": "AHD",
    "VenueAddress": "Drive-In Cinema, Drive In Road, Ahmedabad, Gujarat 380054, India",
    "VenueCode": "DICD",
    "VenueName": "Drive In Cinema: Ahmedabad"
  },
  "DLCS": {
    "AvailableFormats": "",
    "City": "Sujangarh",
    "FirstTracked": "2026-07-14",
    "Latitude": "27.709246",
    "Longitude": "74.46495",
    "RegionCode": "SJNG",
    "State": "Rajasthan",
    "SubRegionCode": "SJNG",
    "VenueAddress": "JB Marg, Opp to Jangir Hospital, Sujangarh, Rajasthan 331507, India",
    "VenueCode": "DLCS",
    "VenueName": "Dream Light Cinema: Sujangarh"
  },
  "DMXM": {
    "AvailableFormats": "2D",
    "City": "Morbi",
    "Latitude": "22.7781",
    "Longitude": "70.9053",
    "RegionCode": "MOBI",
    "State": "Gujarat",
    "SubRegionCode": "MOBI",
    "VenueAddress": "SURVEY NO-66/1 AND 66/2, C/o Dariyalal Business Center, Opposite Rafaleshwar, 8 A National Highway, Jambudiya, Morbi, Gujarat 363642, India",
    "VenueCode": "DMXM",
    "VenueName": "Dariyalal Multiplex: Morbi"
  },
  "DPTD": {
    "AvailableFormats": "2D",
    "City": "Mavelikkara",
    "Latitude": "9.2543",
    "Longitude": "76.545",
    "RegionCode": "MVLR",
    "State": "Kerala",
    "SubRegionCode": "MVLR",
    "VenueAddress": "Kayamkulam-Thiruvalla Road (SH 6), Old Mavelikkara, Mavelikkara, Kerala 690101, India",
    "VenueCode": "DPTD",
    "VenueName": "Dreambig Prathibha Theatre: Mavelikkara"
  },
  "DSCC": {
    "AvailableFormats": "",
    "City": "Kochi",
    "FirstTracked": "2026-07-14",
    "Latitude": "9.873097",
    "Longitude": "76.487305",
    "RegionCode": "ERNK",
    "State": "Kerala",
    "SubRegionCode": "ERNK",
    "VenueAddress": "Kaduthuruthy Road, Darshana, Kerala State, Near Government High School, Kochi, Kerala 686664, India",
    "VenueCode": "DSCC",
    "VenueName": "Dharsana Cinema Complex: Piravom"
  },
  "DTPY": {
    "AvailableFormats": "2D",
    "City": "Pondicherry",
    "Latitude": "11.8642",
    "Longitude": "79.7524",
    "RegionCode": "POND",
    "State": "Tamil Nadu",
    "SubRegionCode": "POND",
    "VenueAddress": "Madukarai Road, Karikalapakkam, Pondicherry, Tamil Nadu 605007, India",
    "VenueCode": "DTPY",
    "VenueName": "Divya Theatre A/C 4K RGB LASER: Pondicherry"
  },
  "DVMY": {
    "AvailableFormats": "",
    "City": "Salem",
    "FirstTracked": "2026-07-16",
    "Latitude": "11.6276",
    "Longitude": "78.1344",
    "RegionCode": "SALM",
    "State": "Tamil Nadu",
    "SubRegionCode": "SALM",
    "VenueAddress": "P M P Nagar, Kondalampatty Bypass, Salem, Tamil Nadu 636010, India",
    "VenueCode": "DVMY",
    "VenueName": "Dhivyam Cinemax 4k RGB LASER Dolby Atmos"
  },
  "ECGH": {
    "AvailableFormats": "2D",
    "City": "Jamshedpur",
    "Latitude": "22.8441",
    "Longitude": "86.2163",
    "RegionCode": "JMDP",
    "State": "Jharkhand",
    "SubRegionCode": "JMDP",
    "VenueAddress": "Zone 1 Mall, 4th Floor Big Bazar Building, NH 33, Pardih, Dimna Road, Jamshedpur, Jharkhand 831012, India",
    "VenueCode": "ECGH",
    "VenueName": "Eylex Cinemas: Jamshedpur"
  },
  "EEBC": {
    "AvailableFormats": "",
    "City": "Greater Noida",
    "FirstTracked": "2026-07-14",
    "Latitude": "28.464",
    "Longitude": "77.5078",
    "RegionCode": "NCR",
    "State": "NCR",
    "SubRegionCode": "GRET",
    "VenueAddress": "ANSAL PLAZA MALL SHOPPING COMPLEX, Pari Chowk, Amit Nagar, Greater Noida, NCR 201310, India",
    "VenueCode": "EEBC",
    "VenueName": "eBox Cinema: Ansal Plaza Mall, Greater Noida"
  },
  "EMCC": {
    "AvailableFormats": "2D",
    "City": "Kozhikode",
    "Latitude": "11.2701",
    "Longitude": "75.8443",
    "RegionCode": "KOZH",
    "State": "Kerala",
    "SubRegionCode": "KOZH",
    "VenueAddress": "Velliparamba, Kozhikode, Near Medical collage Hospital, Kozhikode, Kerala 673008, India",
    "VenueCode": "EMCC",
    "VenueName": "E Max Cinemas Dolby Atmos RGB Laser: Calicut"
  },
  "EPJM": {
    "AvailableFormats": "",
    "City": "Jaipur",
    "Latitude": "26.838",
    "Longitude": "75.7971",
    "RegionCode": "JAIP",
    "State": "Rajasthan",
    "SubRegionCode": "JAIP",
    "VenueAddress": "J L N Marg, Jawahar Circle, Tonk Road, Jaipur, Rajasthan 302017, India",
    "VenueCode": "EPJM",
    "VenueName": "Miraj Cinemas: Entertainment Paradise, Jaipur"
  },
  "ESOS": {
    "AvailableFormats": "2D|3D",
    "City": "Solapur",
    "Latitude": "17.6766",
    "Longitude": "75.8985",
    "RegionCode": "SOLA",
    "State": "Maharashtra",
    "SubRegionCode": "SOLA",
    "VenueAddress": "11/A, NH13, Old Police Line, Murarji Peth, Solapur, Maharashtra 413001, India",
    "VenueCode": "ESOS",
    "VenueName": "E-SQUARE Oasis (A.C): Solapur"
  },
  "EVCK": {
    "AvailableFormats": "2D",
    "City": "Kumily",
    "Latitude": "9.60762",
    "Longitude": "77.1697",
    "RegionCode": "KUMI",
    "State": "Kerala",
    "SubRegionCode": "KUMI",
    "VenueAddress": "Mar Thoma Church Road, Thekkady, Kumily, Kumily, Kerala 685509, India",
    "VenueCode": "EVCK",
    "VenueName": "EVM Cinemas: Kumily"
  },
  "FCAX": {
    "AvailableFormats": "",
    "City": "Rudrapur",
    "FirstTracked": "2026-07-14",
    "Latitude": "28.982658",
    "Longitude": "79.35822",
    "RegionCode": "RUDP",
    "State": "Uttarakhand",
    "SubRegionCode": "RUDP",
    "VenueAddress": "Skylark Petals, Kashipur Road, Near Samiah Lake, Rudrapur, Uttarakhand 263153, India",
    "VenueCode": "FCAX",
    "VenueName": "Fun Cinemas Rave Multiplex: Rudrapur"
  },
  "FCPS": {
    "AvailableFormats": "",
    "City": "Veraval",
    "FirstTracked": "2026-07-14",
    "Latitude": "20.936192",
    "Longitude": "70.367195",
    "RegionCode": "VRAL",
    "State": "Gujarat",
    "SubRegionCode": "VRAL",
    "VenueAddress": "Somnath Jetpur Highway, Near Ahir Samaj, Veraval Bypass Road, Veraval, Gujarat 362266, India",
    "VenueCode": "FCPS",
    "VenueName": "Fun Cinemas Phoenix Cinema: Veraval"
  },
  "FMCN": {
    "AvailableFormats": "2D",
    "City": "Chennai",
    "Latitude": "13.0476",
    "Longitude": "80.1904",
    "RegionCode": "CHEN",
    "State": "Tamil Nadu",
    "SubRegionCode": "CHEN",
    "VenueAddress": "Chandra Metro Mall, Arcot Road, Aranganathan Nagar, Valasaravakkam, Near Mega Mart, Chennai, Tamil Nadu 600092, India",
    "VenueCode": "FMCN",
    "VenueName": "INOX National: Arcot Road"
  },
  "FMOT": {
    "AvailableFormats": "2D",
    "City": "Thrissur",
    "Latitude": "10.4869",
    "Longitude": "76.2386",
    "RegionCode": "MANR",
    "State": "Kerala",
    "SubRegionCode": "MANR",
    "VenueAddress": "Bus Stop, Company Padi, High Road, Christopher, Ollur, Thrissur, Near Ollur Town Cooperative Society Ltd, Thrissur, Kerala 680306, India",
    "VenueCode": "FMOT",
    "VenueName": "Fun Movies: Thrissur"
  },
  "FNBP": {
    "AvailableFormats": "3D|2D",
    "City": "Bhopal",
    "Latitude": "23.2329",
    "Longitude": "77.4298",
    "RegionCode": "BHOP",
    "State": "Madhya Pradesh",
    "SubRegionCode": "BHOP",
    "VenueAddress": "Arera Hills, DB City Mall, Maharana Pratap Nagar, Bhopal, Madhya Pradesh 462011, India",
    "VenueCode": "FNBP",
    "VenueName": "Cinepolis: DB Mall, Bhopal"
  },
  "FNLK": {
    "AvailableFormats": "2D|3D",
    "City": "Lucknow",
    "Latitude": "26.8582",
    "Longitude": "80.9762",
    "RegionCode": "LUCK",
    "State": "Uttar Pradesh",
    "SubRegionCode": "LUCK",
    "VenueAddress": "Near Eldeco Greens, Nehru Enclave, Gomti Nagar, Opposite Lohia Park, Lucknow, Uttar Pradesh 226010, India",
    "VenueCode": "FNLK",
    "VenueName": "Fun Cinemas: Fun Republic Mall, Lucknow"
  },
  "FRGS": {
    "AvailableFormats": "2D|3D",
    "City": "Thanjavur",
    "Latitude": "10.7857",
    "Longitude": "79.1392",
    "RegionCode": "TANJ",
    "State": "Tamil Nadu",
    "SubRegionCode": "TANJ",
    "VenueAddress": "78/3, Abraham Pandither Road, Next to P.K Hospital, Thanjavur, Tamil Nadu 613001, India",
    "VenueCode": "FRGS",
    "VenueName": "Frame Cinemas RGB Laser Atmos: Thanjavur"
  },
  "FUCG": {
    "AvailableFormats": "2D",
    "City": "Guwahati",
    "Latitude": "26.167",
    "Longitude": "91.7669",
    "RegionCode": "GUW",
    "State": "Assam",
    "SubRegionCode": "GUW",
    "VenueAddress": "5th Floor, Hub Mall, Bhangaghar, G. S. Road, Guwahati, Assam 781005, India",
    "VenueCode": "FUCG",
    "VenueName": "Galleria Cinema: HUB Mall, Guwahati"
  },
  "GAHC": {
    "AvailableFormats": "2D",
    "City": "Chennai",
    "Latitude": "13.2499",
    "Longitude": "80.1568",
    "RegionCode": "CHEN",
    "State": "Tamil Nadu",
    "SubRegionCode": "CHEN",
    "VenueAddress": "Sholavaram, Karanodai, Chennai, Tamil Nadu 600067, India",
    "VenueCode": "GAHC",
    "VenueName": "Gopalakrishna A/C 2K DOLBY 7.1-Karanodai(Redhills)"
  },
  "GATY": {
    "AvailableFormats": "2D",
    "City": "Mumbai",
    "Latitude": "19.0615",
    "Longitude": "72.8387",
    "RegionCode": "MUMBAI",
    "State": "Maharashtra",
    "SubRegionCode": "MWEST",
    "VenueAddress": "Swami Vivekanand Marg, Tata Blocks, 30th Cross Road, Near Tata Blocks, Bandra West, Mumbai, Maharashtra 400050, India",
    "VenueCode": "GATY",
    "VenueName": "G7 Multiplex: Bandra (W)"
  },
  "GCCA": {
    "AvailableFormats": "2D|3D",
    "City": "Gondia",
    "Latitude": "21.4531",
    "Longitude": "80.1912",
    "RegionCode": "GNDA",
    "State": "Maharashtra",
    "SubRegionCode": "GNDA",
    "VenueAddress": "City Mall, Opposite - Circus Ground, Ganesh Nagar, Main Road, Gondia, Maharashtra 441601, India",
    "VenueCode": "GCCA",
    "VenueName": "Gold Cinema: City Mall, Gondia"
  },
  "GCFA": {
    "AvailableFormats": "2D",
    "City": "Fulkusma",
    "Latitude": "22.7119",
    "Longitude": "86.8696",
    "RegionCode": "FULK",
    "State": "West Bengal",
    "SubRegionCode": "FULK",
    "VenueAddress": "Gandheswari Chitralaya, Bankura Road, Fulkusma, West Bengal 722134, India",
    "VenueCode": "GCFA",
    "VenueName": "Gandheswari Chitralaya: Fulkushma"
  },
  "GCKJ": {
    "AvailableFormats": "2D",
    "City": "Kotputli",
    "Latitude": "27.7032",
    "Longitude": "76.2297",
    "RegionCode": "KPLI",
    "State": "Rajasthan",
    "SubRegionCode": "KPLI",
    "VenueAddress": "Bansur Road ,Bhuchahira, Moh. Badabas, Kotputli, Kotputli, Rajasthan 303108, India",
    "VenueCode": "GCKJ",
    "VenueName": "Gold Cinema: Kotputli"
  },
  "GCPT": {
    "AvailableFormats": "2D",
    "City": "Pathankot",
    "Latitude": "32.2726",
    "Longitude": "75.6535",
    "RegionCode": "PATH",
    "State": "Punjab",
    "SubRegionCode": "PATH",
    "VenueAddress": "4th Floor, City Centre Mall, Dalhousie Road, Pathankot, Punjab 145001, India",
    "VenueCode": "GCPT",
    "VenueName": "Grand Cinemaz: Pathankot"
  },
  "GCTI": {
    "AvailableFormats": "2D",
    "City": "Tinsukia",
    "Latitude": "27.492",
    "Longitude": "95.3617",
    "RegionCode": "TINS",
    "State": "Assam",
    "SubRegionCode": "TINS",
    "VenueAddress": "ATC Mall, GNB Road, Tinsukia, Assam 786125, India",
    "VenueCode": "GCTI",
    "VenueName": "Galleria Cinemas: ATC Mall, Tinsukia"
  },
  "GDCN": {
    "AvailableFormats": "2D",
    "City": "Guwahati",
    "Latitude": "26.1795",
    "Longitude": "91.8302",
    "RegionCode": "GUW",
    "State": "Assam",
    "SubRegionCode": "GUW",
    "VenueAddress": "LG Tower Tiniali, Narengi, Near Tulip Resturant, Guwahati, Assam 781026, India",
    "VenueCode": "GDCN",
    "VenueName": "Gold Cinema: Narengi"
  },
  "GDMT": {
    "AvailableFormats": "2D|3D",
    "City": "Mathura",
    "Latitude": "27.4943",
    "Longitude": "77.6551",
    "RegionCode": "MATH",
    "State": "Uttar Pradesh",
    "SubRegionCode": "MATH",
    "VenueAddress": "Highway Plaza Shopping Complex, NH2 Delhi-Agra Road, Near Mandi Crossing, Mathura, Uttar Pradesh 281004, India",
    "VenueCode": "GDMT",
    "VenueName": "Gold Cinema: Mathura"
  },
  "GETT": {
    "AvailableFormats": "2D",
    "City": "Hindaun City",
    "Latitude": "26.7284",
    "Longitude": "77.0333",
    "RegionCode": "HIND",
    "State": "Rajasthan",
    "SubRegionCode": "HIND",
    "VenueAddress": "SH 1, Keshav Pura, Opposite Government Girls Senior Secondary School, Hindaun City, Rajasthan 322230, India",
    "VenueCode": "GETT",
    "VenueName": "Geeta Talkies: Hindaun City"
  },
  "GGRJ": {
    "AvailableFormats": "",
    "City": "Gajapathinagaram",
    "FirstTracked": "2026-07-14",
    "Latitude": "18.28414",
    "Longitude": "83.33718",
    "RegionCode": "GJPT",
    "State": "Andhra Pradesh",
    "SubRegionCode": "GJPT",
    "VenueAddress": "Jayanthi Colony, Near Canara Bank, Gajapathinagaram, Andhra Pradesh 535270, India",
    "VenueCode": "GGRJ",
    "VenueName": "Gangaraju Kalamandir: Gajapathinagaram"
  },
  "GKCS": {
    "AvailableFormats": "2D",
    "City": "Sarangpur",
    "Latitude": "23.5761",
    "Longitude": "76.4842",
    "RegionCode": "SARA",
    "State": "Madhya Pradesh",
    "SubRegionCode": "SARA",
    "VenueAddress": "AB Road, Sudarshan Nagar, Sarangpur, Madhya Pradesh 465697, India",
    "VenueCode": "GKCS",
    "VenueName": "Gopal Krishna Multiplex: Sarangpur"
  },
  "GLXJ": {
    "AvailableFormats": "2D",
    "City": "Jaipur",
    "Latitude": "26.8337",
    "Longitude": "75.7783",
    "RegionCode": "JAIP",
    "State": "Rajasthan",
    "SubRegionCode": "JAIP",
    "VenueAddress": "SP, 9, Shipra Path, RIICO Industrial Area, Mansarovar, Jaipur, Rajasthan 302020, India",
    "VenueCode": "GLXJ",
    "VenueName": "Galaxy Cinema Mansarovar: Jaipur"
  },
  "GOCL": {
    "AvailableFormats": "",
    "City": "Lakhimpur",
    "FirstTracked": "2026-07-14",
    "Latitude": "27.236189",
    "Longitude": "94.10158",
    "RegionCode": "LAHA",
    "State": "Assam",
    "SubRegionCode": "LAHA",
    "VenueAddress": "North Lakhimpur, Thakurbari Road, Lakhimpur, Assam 787001, India",
    "VenueCode": "GOCL",
    "VenueName": "Gold Cinema: Lakhimpur"
  },
  "GPBR": {
    "AvailableFormats": "2D",
    "City": "Bengaluru",
    "Latitude": "12.9144",
    "Longitude": "77.5995",
    "RegionCode": "HOKT",
    "State": "Karnataka",
    "SubRegionCode": "HOKT",
    "VenueAddress": "Near Jayadeva Hospital, Bannerghatta Road, Opp Shoppers Stop, Bengaluru, Karnataka 560076, India",
    "VenueCode": "GPBR",
    "VenueName": "Gopalan Cinemas: Bannerghatta Road"
  },
  "GPTB": {
    "AvailableFormats": "2D",
    "City": "Bengaluru",
    "Latitude": "12.8912",
    "Longitude": "77.6265",
    "RegionCode": "HOKT",
    "State": "Karnataka",
    "SubRegionCode": "HOKT",
    "VenueAddress": "12th Cross, Bommanahalli Post, Begur Main Road,Hongasandra Next To Banashankari Tent, Bengaluru, Karnataka 560068, India",
    "VenueCode": "GPTB",
    "VenueName": "Galaxy Paradise (Miniplex): Begur Road"
  },
  "GSEE": {
    "AvailableFormats": "",
    "City": "Baikunthpur",
    "FirstTracked": "2026-07-14",
    "Latitude": "23.2686",
    "Longitude": "82.5548",
    "RegionCode": "BKTH",
    "State": "Chhattisgarh",
    "SubRegionCode": "BKTH",
    "VenueAddress": "Mission School Road, Harratola, Near Hotel Shree Ganga, Baikunthpur, Chhattisgarh 497335, India",
    "VenueCode": "GSEE",
    "VenueName": "Ganga Shree Cineplex: Baikunthpur"
  },
  "GTCP": {
    "AvailableFormats": "",
    "City": "Channarayapatna",
    "FirstTracked": "2026-07-14",
    "Latitude": "12.905309",
    "Longitude": "76.38963",
    "RegionCode": "CHNN",
    "State": "Karnataka",
    "SubRegionCode": "CHNN",
    "VenueAddress": "Renukamba Road, Near Channarayapatna Post Office, Channarayapatna, Karnataka 573116, India",
    "VenueCode": "GTCP",
    "VenueName": "Gayatri Theatre: Channarayapatna"
  },
  "GTSV": {
    "AvailableFormats": "",
    "City": "Vuyyuru",
    "FirstTracked": "2026-07-16",
    "Latitude": "16.3698",
    "Longitude": "80.8439",
    "RegionCode": "VYUR",
    "State": "Andhra Pradesh",
    "SubRegionCode": "VYUR",
    "VenueAddress": "Telaprolu - Vuyyuru Valluru Road, Katuru Road, Near IDBI Bank, Opposite Swarna motors YAMAHA, Vuyyuru, Andhra Pradesh 521165, India",
    "VenueCode": "GTSV",
    "VenueName": "Srinivasa Theatre: Vuyyuru"
  },
  "GUCK": {
    "AvailableFormats": "2D",
    "City": "Kanpur",
    "Latitude": "26.4607",
    "Longitude": "80.327",
    "RegionCode": "KANP",
    "State": "Uttar Pradesh",
    "SubRegionCode": "KANP",
    "VenueAddress": "87/8, Gunjan Cinema, G.T.Road, Kanpur Nagar, Near Society Motors, Kanpur, Uttar Pradesh 208003, India",
    "VenueCode": "GUCK",
    "VenueName": "Gunjan Cinema: Kanpur"
  },
  "HAMR": {
    "AvailableFormats": "2D",
    "City": "Haflong",
    "Latitude": "25.1731",
    "Longitude": "93.0149",
    "RegionCode": "HALG",
    "State": "Assam",
    "SubRegionCode": "HALG",
    "VenueAddress": "H20, Dibarai, Haflong, Assam 788819, India",
    "VenueCode": "HAMR",
    "VenueName": "Hamringdi Cinema: Haflong"
  },
  "HENN": {
    "AvailableFormats": "",
    "City": "Yerraguntla",
    "FirstTracked": "2026-07-14",
    "Latitude": "14.640306",
    "Longitude": "78.53689",
    "RegionCode": "YERR",
    "State": "Andhra Pradesh",
    "SubRegionCode": "YERR",
    "VenueAddress": "Kadapa - Tadipatri Highway, Muddanur Road, Near State Bank Of India, Yerraguntla, Andhra Pradesh 516309, India",
    "VenueCode": "HENN",
    "VenueName": "Hema Picture Palace: Yerraguntla"
  },
  "HHJY": {
    "AvailableFormats": "",
    "City": "Salur",
    "FirstTracked": "2026-07-14",
    "Latitude": "18.51932",
    "Longitude": "83.19987",
    "RegionCode": "SALU",
    "State": "Andhra Pradesh",
    "SubRegionCode": "SALU",
    "VenueAddress": "Jeypore-Vizianagaram Road, Kota Veedhi, Salur, Andhra Pradesh 535591, India",
    "VenueCode": "HHJY",
    "VenueName": "Sri Rama Theatre A/C DTS: Salur"
  },
  "HRBT": {
    "AvailableFormats": "",
    "City": "Bathinda",
    "FirstTracked": "2026-07-17",
    "Latitude": "30.2274",
    "Longitude": "74.9376",
    "RegionCode": "BHAT",
    "State": "Punjab",
    "SubRegionCode": "BHAT",
    "VenueAddress": "Harchand Palace, Goniana Road, Mata Jivi Nagar, Bathinda, Punjab 151001, India",
    "VenueCode": "HRBT",
    "VenueName": "Harchand Cinema: Bathinda"
  },
  "IAJS": {
    "AvailableFormats": "2D|3D",
    "City": "Gurugram (Gurgaon)",
    "Latitude": "28.392",
    "Longitude": "77.059",
    "RegionCode": "NCR",
    "State": "NCR",
    "SubRegionCode": "GURG",
    "VenueAddress": "INOX Leisure Limited, 3rd Floor, AIPL Joystreet Mall, Sector-66, Gurugram (Gurgaon), NCR 122018, India",
    "VenueCode": "IAJS",
    "VenueName": "INOX: AIPL Joy Street, Gurgaon"
  },
  "IESA": {
    "AvailableFormats": "2D",
    "City": "Satna",
    "Latitude": "24.5749",
    "Longitude": "80.8303",
    "RegionCode": "SATN",
    "State": "Madhya Pradesh",
    "SubRegionCode": "SATN",
    "VenueAddress": "Venus Treasure, 3rd Floor, Near Civil Line over bridge, Behind Circuit House, Satna, Madhya Pradesh 485001, India",
    "VenueCode": "IESA",
    "VenueName": "Imusica Entertainments: Satna"
  },
  "IMCB": {
    "AvailableFormats": "2D",
    "City": "Bengaluru",
    "Latitude": "12.8415",
    "Longitude": "77.6767",
    "RegionCode": "BANG",
    "State": "Karnataka",
    "SubRegionCode": "BANG",
    "VenueAddress": "M5 Ecity Mall, 3rd Floor, Plot No. 1, Veerasandra Industrial Area, Hosur Road, Next to Audi Showroom. Opposite - Electronic City Flyover, Phase II, Electronic City, Bengaluru, Karnataka 560100, India",
    "VenueCode": "IMCB",
    "VenueName": "INOX: M5 Ecity, Bengaluru"
  },
  "IMOB": {
    "AvailableFormats": "2D|IMAX 2D|4DX|3D",
    "City": "Mumbai",
    "Latitude": "19.2218",
    "Longitude": "72.8629",
    "RegionCode": "MUMBAI",
    "State": "Maharashtra",
    "SubRegionCode": "MWEST",
    "VenueAddress": "Oberoi Sky City Mall, Datta Pada Road, Borivali East, Devi Pada Metro Station, Mumbai, Maharashtra 400066, India",
    "VenueCode": "IMOB",
    "VenueName": "INOX Megaplex: Sky City Mall, Borivali"
  },
  "INAP": {
    "AvailableFormats": "2D|3D",
    "City": "Udaipur",
    "Latitude": "24.5863",
    "Longitude": "73.7104",
    "RegionCode": "UDAI",
    "State": "Rajasthan",
    "SubRegionCode": "UDAI",
    "VenueAddress": "5th Floor,Lake City Mall, University Road, Ashok Nagar, Near Porwal Ji Ki Badi, Udaipur, Rajasthan 313001, India",
    "VenueCode": "INAP",
    "VenueName": "INOX: Lake City Mall"
  },
  "INBS": {
    "AvailableFormats": "2D",
    "City": "Jorhat",
    "Latitude": "26.7543",
    "Longitude": "94.2181",
    "RegionCode": "JORT",
    "State": "Assam",
    "SubRegionCode": "JORT",
    "VenueAddress": "4th Floor, ABS Mall, AT Rd, Gar-Ali, Opposite Prince Of Wales, Jorhat, Assam 785001, India",
    "VenueCode": "INBS",
    "VenueName": "INOX: ABS Mall, Jorhat"
  },
  "INER": {
    "AvailableFormats": "2D|3D",
    "City": "Kolkata",
    "Latitude": "22.5386",
    "Longitude": "88.3515",
    "RegionCode": "KOLK",
    "State": "West Bengal",
    "SubRegionCode": "KOLK",
    "VenueAddress": "Lala Lajpat, Rai Sarani, Bhawanipur, Kolkata, West Bengal 700020, India",
    "VenueCode": "INER",
    "VenueName": "INOX: Forum Mall, Elgin Road"
  },
  "INIC": {
    "AvailableFormats": "2D|3D",
    "City": "Indore",
    "Latitude": "22.7181",
    "Longitude": "75.8713",
    "RegionCode": "IND",
    "State": "Madhya Pradesh",
    "SubRegionCode": "IND",
    "VenueAddress": "170,R.N.T. Marg, Regal Square, Flim Colony, South Tukoganj, 4th Floor, Indore Central, Indore, Madhya Pradesh 452001, India",
    "VenueCode": "INIC",
    "VenueName": "INOX: Nexus Indore Central Mall, Regal Square"
  },
  "INMH": {
    "AvailableFormats": "2D|3D",
    "City": "Hyderabad",
    "Latitude": "17.3907",
    "Longitude": "78.4884",
    "RegionCode": "HYD",
    "State": "Telangana",
    "SubRegionCode": "HYD",
    "VenueAddress": "5th Floor, Maheshwari Parmeshwari Mall, Kachiguda Cross Roads, Hyderabad, Telangana 500027, India",
    "VenueCode": "INMH",
    "VenueName": "INOX: Maheshwari Parmeshwari Mall, Kachiguda"
  },
  "INPC": {
    "AvailableFormats": "2D|3D",
    "City": "Chandigarh",
    "Latitude": "30.7527",
    "Longitude": "76.9086",
    "RegionCode": "CHD",
    "State": "Chandigarh",
    "SubRegionCode": "CHD",
    "VenueAddress": "Amravati, Enclave, Chandigarh, Chandigarh 110065, India",
    "VenueCode": "INPC",
    "VenueName": "INOX: NH22 Mall, Amravati Enclave, Panchkula"
  },
  "INRC": {
    "AvailableFormats": "2D|3D|IMAX 2D",
    "City": "Mumbai",
    "Latitude": "19.0994",
    "Longitude": "72.9161",
    "RegionCode": "MUMBAI",
    "State": "Maharashtra",
    "SubRegionCode": "MCENT",
    "VenueAddress": "3rd Floor, R City Mall, Lal Bahadur Shastri Marg, Ghatkopar West, Mumbai, Maharashtra 400086, India",
    "VenueCode": "INRC",
    "VenueName": "INOX: R-City, Ghatkopar"
  },
  "INSE": {
    "AvailableFormats": "2D",
    "City": "Vadodara",
    "Latitude": "22.3229",
    "Longitude": "73.1866",
    "RegionCode": "VAD",
    "State": "Gujarat",
    "SubRegionCode": "VAD",
    "VenueAddress": "4th Floor, Seven Seas Mall, IPCL Circle, Fatehgunj, Jayesh Colony, Vadodara, Gujarat 390002, India",
    "VenueCode": "INSE",
    "VenueName": "Infinity 7 Seas Cinema: Fatehganj"
  },
  "INTO": {
    "AvailableFormats": "2D",
    "City": "Chennai",
    "Latitude": "12.8362",
    "Longitude": "80.2296",
    "RegionCode": "CHEN",
    "State": "Tamil Nadu",
    "SubRegionCode": "CHEN",
    "VenueAddress": "3rd Floor, The Marina Mall, Old Mahabalipuram Road, Egatoor, Navalur, Chennai, Tamil Nadu 603103, India",
    "VenueCode": "INTO",
    "VenueName": "INOX: The Marina Mall, OMR"
  },
  "INVR": {
    "AvailableFormats": "2D|3D",
    "City": "Surat",
    "Latitude": "21.1455",
    "Longitude": "72.7571",
    "RegionCode": "SURT",
    "State": "Gujarat",
    "SubRegionCode": "SURT",
    "VenueAddress": "3rd Floor, VR Mall, Dumas Road, Magdalla, Near Sunglass Hut, Surat, Gujarat 395007, India",
    "VenueCode": "INVR",
    "VenueName": "INOX: VR Mall, Surat"
  },
  "IOMG": {
    "AvailableFormats": "2D|3D",
    "City": "Greater Noida",
    "Latitude": "28.4888",
    "Longitude": "77.5145",
    "RegionCode": "NCR",
    "State": "NCR",
    "SubRegionCode": "GRET",
    "VenueAddress": "INOX Leisure Ltd, 2nd Floor, Omaxe Connaught Place Mall, H Block, Sector Beta- 2, Greater Noida, NCR 201308, India",
    "VenueCode": "IOMG",
    "VenueName": "INOX: Omaxe Connaught Place Mall, Greater Noida"
  },
  "IPMJ": {
    "AvailableFormats": "2D|3D",
    "City": "Delhi",
    "Latitude": "28.5371",
    "Longitude": "77.2831",
    "RegionCode": "NCR",
    "State": "NCR",
    "SubRegionCode": "DELHI",
    "VenueAddress": "3rd Floor, Pacific Mall, Mathura Road, Delhi, NCR 110076, India",
    "VenueCode": "IPMJ",
    "VenueName": "INOX: Pacific Mall, Jasola"
  },
  "ISMG": {
    "AvailableFormats": "3D|2D",
    "City": "Ghaziabad",
    "Latitude": "28.6342",
    "Longitude": "77.3695",
    "RegionCode": "MRDG",
    "State": "NCR",
    "SubRegionCode": "MRDG",
    "VenueAddress": "Shipra Mall, 3rd Floor, Plot No.9, Vaibhav Khand, Indira Puram, Ghaziabad, NCR 201014, India",
    "VenueCode": "ISMG",
    "VenueName": "INOX: Shipra Mall, Ghaziabad"
  },
  "IVNM": {
    "AvailableFormats": "",
    "City": "Hyderabad",
    "Latitude": "17.4946",
    "Longitude": "78.3549",
    "RegionCode": "HYD",
    "State": "Telangana",
    "SubRegionCode": "HYD",
    "VenueAddress": "6th floor, SMR Vinay Metro Mall, Miyapur, Hyderabad, Telangana 500049, India",
    "VenueCode": "IVNM",
    "VenueName": "INOX: SMR Vinay Metro Mall, Dolby ATMOS: Miyapur"
  },
  "JATV": {
    "AvailableFormats": "2D",
    "City": "Vijayawada",
    "Latitude": "16.517",
    "Longitude": "80.6305",
    "RegionCode": "KADU",
    "State": "Andhra Pradesh",
    "SubRegionCode": "KADU",
    "VenueAddress": "Gandhi Nagar, Samba Murty Road, Andhra Pradesh, Vijayawada, Andhra Pradesh 520003, India",
    "VenueCode": "JATV",
    "VenueName": "Jayram Theatre: Vijayawada"
  },
  "JCFF": {
    "AvailableFormats": "2D",
    "City": "Sivaganga",
    "Latitude": "9.84731",
    "Longitude": "78.4901",
    "RegionCode": "SHVG",
    "State": "Tamil Nadu",
    "SubRegionCode": "SHVG",
    "VenueAddress": "No.8, First Floor, Aranmanai Vaasal, Near Bus stand, Sivaganga, Tamil Nadu 630561, India",
    "VenueCode": "JCFF",
    "VenueName": "JB Cinemas Future Films Dolby Atmos: Sivagangai"
  },
  "JCXP": {
    "AvailableFormats": "2D",
    "City": "Jhargram",
    "Latitude": "22.4356",
    "Longitude": "87.0015",
    "RegionCode": "JARG",
    "State": "West Bengal",
    "SubRegionCode": "JARG",
    "VenueAddress": "Munsi Sai Mouza, Old Jhargram, Near Samsan Kali Temple, Jhargram, West Bengal 721507, India",
    "VenueCode": "JCXP",
    "VenueName": "Jhargram Cineplex: Jhargram"
  },
  "JHOL": {
    "AvailableFormats": "2D",
    "City": "Bongaigaon",
    "Latitude": "26.4884",
    "Longitude": "90.5517",
    "RegionCode": "BONG",
    "State": "Assam",
    "SubRegionCode": "BONG",
    "VenueAddress": "3rd Floor Enajori Complex, Bir Chilarai Road, Near Bazar INDIA, Bongaigaon, Assam 783380, India",
    "VenueCode": "JHOL",
    "VenueName": "Jolly Max Cinema: Bongaigaon"
  },
  "JKKC": {
    "AvailableFormats": "2D",
    "City": "Viralimalai",
    "Latitude": "10.5971",
    "Longitude": "78.544",
    "RegionCode": "PUDH",
    "State": "Tamil Nadu",
    "SubRegionCode": "PUDH",
    "VenueAddress": "Maduraimain Road, Viralimalai , Pudukottai, Viralimalai, Tamil Nadu 621316, India",
    "VenueCode": "JKKC",
    "VenueName": "Jothi Theatre A/C 4K 7.1 (Viralimalai): Trichy"
  },
  "JMMA": {
    "AvailableFormats": "2D",
    "City": "Angamaly",
    "Latitude": "10.2254",
    "Longitude": "76.4137",
    "RegionCode": "KLDY",
    "State": "Kerala",
    "SubRegionCode": "KLDY",
    "VenueAddress": "Mookkannoor, Ezhattumugham Road, Josh Mall, Angamaly, Kerala 683577, India",
    "VenueCode": "JMMA",
    "VenueName": "JM Movies Josh Mall: Mookkannoor Angamaly"
  },
  "JRRM": {
    "AvailableFormats": "2D",
    "City": "Rupnagar",
    "Latitude": "30.9548",
    "Longitude": "76.5313",
    "RegionCode": "RUPN",
    "State": "Punjab",
    "SubRegionCode": "RUPN",
    "VenueAddress": "Chandigarh Road, Magror, Rupnagar, Punjab 140001, India",
    "VenueCode": "JRRM",
    "VenueName": "JR Ohri Cinemas: Ropar"
  },
  "JTCK": {
    "AvailableFormats": "2D",
    "City": "Kozhikode",
    "Latitude": "11.2898",
    "Longitude": "75.7751",
    "RegionCode": "KOZH",
    "State": "Kerala",
    "SubRegionCode": "KOZH",
    "VenueAddress": "East Hill, Near Center School, Opposite State Bank of India, Kozhikode, Kerala 673005, India",
    "VenueCode": "JTCK",
    "VenueName": "Regal Cinemas: Kozhikode"
  },
  "JTLT": {
    "AvailableFormats": "2D",
    "City": "Narasannapeta",
    "Latitude": "18.4161",
    "Longitude": "84.0412",
    "RegionCode": "NRPT",
    "State": "Andhra Pradesh",
    "SubRegionCode": "NRPT",
    "VenueAddress": "Maruthi Nagar, Near LIC Office, Narasannapeta, Andhra Pradesh 532421, India",
    "VenueCode": "JTLT",
    "VenueName": "Sri Lakshmi Talkies AC DTS: Narasannapeta"
  },
  "JTNR": {
    "AvailableFormats": "2D",
    "City": "Nagpur",
    "Latitude": "21.1446",
    "Longitude": "79.0903",
    "RegionCode": "NAGP",
    "State": "Maharashtra",
    "SubRegionCode": "NAGP",
    "VenueAddress": "Subhash Road, Cotton Market, Ganeshpeth Colony, Nagpur, Maharashtra 440018, India",
    "VenueCode": "JTNR",
    "VenueName": "Jayshree Cineplex: Nagpur"
  },
  "JTSC": {
    "AvailableFormats": "2D",
    "City": "Vijayawada",
    "Latitude": "16.5132",
    "Longitude": "80.6263",
    "RegionCode": "VIJA",
    "State": "Andhra Pradesh",
    "SubRegionCode": "VIJA",
    "VenueAddress": "Swarnalok Complex, Eluru Rd, Governorpet, Vijayawada, Andhra Pradesh 520002, India",
    "VenueCode": "JTSC",
    "VenueName": "Swarna Multiplex: Vijayawada"
  },
  "JTVK": {
    "AvailableFormats": "2D|3D",
    "City": "Tanuku",
    "Latitude": "16.7597",
    "Longitude": "81.691",
    "RegionCode": "TADP",
    "State": "Andhra Pradesh",
    "SubRegionCode": "TADP",
    "VenueAddress": "NH16, Ngo Colony, Palangi, Near Sri Vijayadurga temple, Tanuku, Andhra Pradesh 534211, India",
    "VenueCode": "JTVK",
    "VenueName": "Sri Venkateswara Complex: Tanuku"
  },
  "JYCM": {
    "AvailableFormats": "2D",
    "City": "Maslandapur",
    "Latitude": "22.8559",
    "Longitude": "88.7447",
    "RegionCode": "MASL",
    "State": "West Bengal",
    "SubRegionCode": "MASL",
    "VenueAddress": "Maslandapur-Tentulia Road, Opposite State Bank of India, Maslandapur, West Bengal 743289, India",
    "VenueCode": "JYCM",
    "VenueName": "Jyoti Cinema: Maslandapur"
  },
  "KACR": {
    "AvailableFormats": "2D",
    "City": "Arambagh",
    "Latitude": "22.8852",
    "Longitude": "87.7866",
    "RegionCode": "AMBH",
    "State": "West Bengal",
    "SubRegionCode": "AMBH",
    "VenueAddress": "SH2, Near Karuna Market, Arambagh, West Bengal 712601, India",
    "VenueCode": "KACR",
    "VenueName": "Karuna Cinema: Arambagh"
  },
  "KATK": {
    "AvailableFormats": "2D",
    "City": "Karunagapally",
    "Latitude": "9.05599",
    "Longitude": "76.5378",
    "RegionCode": "KARG",
    "State": "Kerala",
    "SubRegionCode": "KARG",
    "VenueAddress": "Kottarakkara Road, Karunagappalli, Near Padanayaar Mahadeva Temple, Karunagapally, Kerala 690518, India",
    "VenueCode": "KATK",
    "VenueName": "Krishna A/C 2K Dolby 7.1Karunagappally"
  },
  "KCBI": {
    "AvailableFormats": "3D|2D",
    "City": "Bengaluru",
    "Latitude": "12.9233",
    "Longitude": "77.5533",
    "RegionCode": "HOKT",
    "State": "Karnataka",
    "SubRegionCode": "HOKT",
    "VenueAddress": "No.43/2, 1st Cross, 5th Block, 100 feet Road, Katriguppe, Banashankari 3rd Stage, Near Union Bank Of India ATM, Bengaluru, Karnataka 560085, India",
    "VenueCode": "KCBI",
    "VenueName": "Kamakya 4K Dolby Atmos 3D A/C Cinema: Banashankari"
  },
  "KCMD": {
    "AvailableFormats": "",
    "City": "Vizag",
    "Latitude": "17.7353",
    "Longitude": "83.3175",
    "RegionCode": "VIZA",
    "State": "Andhra Pradesh",
    "SubRegionCode": "VIZA",
    "VenueAddress": "D.No. 53-23-23, Beside Maddilapalem Bus Depot, Visakhapatnam, Vizag, Andhra Pradesh 530013, India",
    "VenueCode": "KCMD",
    "VenueName": "Kameswari & Kinnera AC Laser 4K Maddilapalem:Vizag"
  },
  "KCSV": {
    "AvailableFormats": "2D",
    "City": "Villupuram",
    "Latitude": "12.038",
    "Longitude": "79.544",
    "RegionCode": "VILL",
    "State": "Tamil Nadu",
    "SubRegionCode": "VILL",
    "VenueAddress": "Mailkal street vikiravandi, Opposite to bus stand, Villupuram, Tamil Nadu 605652, India",
    "VenueCode": "KCSV",
    "VenueName": "KA Cinemas A/C: Vikravandi"
  },
  "KDIN": {
    "AvailableFormats": "2D",
    "City": "Indore",
    "Latitude": "22.7127",
    "Longitude": "75.8382",
    "RegionCode": "IND",
    "State": "Madhya Pradesh",
    "SubRegionCode": "IND",
    "VenueAddress": "258, Labriya Bheru, Dhar Road, Near Gangawal Bus Stand, Indore, Madhya Pradesh 452002, India",
    "VenueCode": "KDIN",
    "VenueName": "Kastur Deluxe Theatre: Indore"
  },
  "KICS": {
    "AvailableFormats": "2D",
    "City": "Mulleria",
    "Latitude": "12.5319",
    "Longitude": "75.1562",
    "RegionCode": "KASA",
    "State": "Kerala",
    "SubRegionCode": "KASA",
    "VenueAddress": "Near Kaveri Auditorium, Kadakam, Near Kadakam Business Centre, Mulleria, Kerala 671542, India",
    "VenueCode": "KICS",
    "VenueName": "Kaveri Cinemas A/C DTS Dolby: Karmamthody"
  },
  "KKPE": {
    "AvailableFormats": "2D",
    "City": "Erode",
    "Latitude": "11.1297",
    "Longitude": "77.8609",
    "RegionCode": "KARU",
    "State": "Tamil Nadu",
    "SubRegionCode": "KARU",
    "VenueAddress": "State Highway 172A, Koluthupalayam, Erode, Near Kombanaipudur Bus Stop, Erode, Tamil Nadu 638152, India",
    "VenueCode": "KKPE",
    "VenueName": "Krishna Theatre Dolby 7.1: Koluthupalayam"
  },
  "KLSK": {
    "AvailableFormats": "2D",
    "City": "Kozhikode",
    "Latitude": "11.2586",
    "Longitude": "75.7825",
    "RegionCode": "KOZH",
    "State": "Kerala",
    "SubRegionCode": "KOZH",
    "VenueAddress": "Indira Gandhi Road, Opposite KSRTC Bus Terminal, Tazhekkod, Polpaya Mana, Near Hotel Royal Plaza, Kozhikode, Kerala 673004, India",
    "VenueCode": "KLSK",
    "VenueName": "Kairali Sree Theatre: Kozhikode"
  },
  "KMSV": {
    "AvailableFormats": "",
    "City": "Vadakkencherry",
    "FirstTracked": "2026-07-14",
    "Latitude": "10.589751",
    "Longitude": "76.48151",
    "RegionCode": "VDCY",
    "State": "Kerala",
    "SubRegionCode": "VDCY",
    "VenueAddress": "2nd Floor, KAM Plaza, Main Road, Vadakkencherry, Kerala 678683, India",
    "VenueCode": "KMSV",
    "VenueName": "KAM Movies: Vadakkenchery"
  },
  "KPPP": {
    "AvailableFormats": "2D",
    "City": "Gonda",
    "Latitude": "27.1487",
    "Longitude": "81.9585",
    "RegionCode": "GOND",
    "State": "Uttar Pradesh",
    "SubRegionCode": "GOND",
    "VenueAddress": "27 Circular Road, Veer Pur, Near Arkaan Petroleum, Gonda, Uttar Pradesh 271003, India",
    "VenueCode": "KPPP",
    "VenueName": "Kunwar Nova Cinemaz: Gonda"
  },
  "KRJG": {
    "AvailableFormats": "2D",
    "City": "Jaggampeta",
    "Latitude": "17.1752",
    "Longitude": "82.0621",
    "RegionCode": "JAGG",
    "State": "Andhra Pradesh",
    "SubRegionCode": "JAGG",
    "VenueAddress": "Jaggampeta-Ramavaram Road, Near Bank of Baroda, Jaggampeta, Andhra Pradesh 533435, India",
    "VenueCode": "KRJG",
    "VenueName": "Krishnaveni Theatre: Jaggampeta"
  },
  "KRVN": {
    "AvailableFormats": "",
    "City": "Vrindavan",
    "FirstTracked": "2026-07-14",
    "Latitude": "18.0799",
    "Longitude": "80.8238",
    "RegionCode": "MATH",
    "State": "Uttar Pradesh",
    "SubRegionCode": "MATH",
    "VenueAddress": "Near Srinivas Mobiles, SH 12, Vrindavan, Uttar Pradesh 507133, India",
    "VenueCode": "KRVN",
    "VenueName": "Krishna Funland Cinema: Vrindavan"
  },
  "KSNY": {
    "AvailableFormats": "2D",
    "City": "Cuddalore",
    "Latitude": "11.7467",
    "Longitude": "79.7575",
    "RegionCode": "CUDD",
    "State": "Tamil Nadu",
    "SubRegionCode": "CUDD",
    "VenueAddress": "Imperial Road, Thirupapuliyur, Cuddalore, Tamil Nadu 600001, India",
    "VenueCode": "KSNY",
    "VenueName": "AGS KRISHNALAYA 4K DOLBY ATMOS: CUDDALORE"
  },
  "KTBR": {
    "AvailableFormats": "2D",
    "City": "Boisar",
    "Latitude": "19.7963",
    "Longitude": "72.7523",
    "RegionCode": "DHAU",
    "State": "Maharashtra",
    "SubRegionCode": "DHAU",
    "VenueAddress": "At Saravali S. No. 108, Nawapur Road, Boisar, Maharashtra 401501, India",
    "VenueCode": "KTBR",
    "VenueName": "KT Multivision Cinema: Boisar"
  },
  "KTPC": {
    "AvailableFormats": "3D|2D",
    "City": "Patna",
    "Latitude": "25.5998",
    "Longitude": "85.2214",
    "RegionCode": "PATN",
    "State": "Bihar",
    "SubRegionCode": "PATN",
    "VenueAddress": "Sadar Gali, Khaje Kalan, Khamji Begum Colony, Sadikpur, Patna, Bihar 800008, India",
    "VenueCode": "KTPC",
    "VenueName": "Krishna Talkies: Patna"
  },
  "KYID": {
    "AvailableFormats": "2D",
    "City": "Indore",
    "Latitude": "22.667",
    "Longitude": "75.8225",
    "RegionCode": "IND",
    "State": "Madhya Pradesh",
    "SubRegionCode": "IND",
    "VenueAddress": "Kalyan Cinemas, Kalyan Mall, 340, Sukhnivas Road, Dutt Nagar, Rajendra Nagar, Next to D Mart, Indore, Madhya Pradesh 452012, India",
    "VenueCode": "KYID",
    "VenueName": "Kalyan Cinemas: Rajendra Nagar, Indore"
  },
  "LALK": {
    "AvailableFormats": "2D",
    "City": "Kanpur",
    "Latitude": "26.4401",
    "Longitude": "80.3238",
    "RegionCode": "KANP",
    "State": "Uttar Pradesh",
    "SubRegionCode": "KANP",
    "VenueAddress": "127/401 A, Block S, Kanpur Nagar, Kanpur, Uttar Pradesh 208014, India",
    "VenueCode": "LALK",
    "VenueName": "Lal Palace: Kanpur"
  },
  "LCDA": {
    "AvailableFormats": "2D",
    "City": "Theni",
    "Latitude": "10.1265",
    "Longitude": "77.5375",
    "RegionCode": "THEN",
    "State": "Tamil Nadu",
    "SubRegionCode": "THEN",
    "VenueAddress": "1/348 State Bank Colony, Keelavadakarai, Periyakulam, Theni, Tamil Nadu 625601, India",
    "VenueCode": "LCDA",
    "VenueName": "Lucky Cinemas Dolby Atmos: Periyakulam"
  },
  "LCTM": {
    "AvailableFormats": "2D",
    "City": "Trivandrum",
    "Latitude": "8.48838",
    "Longitude": "76.9519",
    "RegionCode": "VKAL",
    "State": "Kerala",
    "SubRegionCode": "VKAL",
    "VenueAddress": "KSRTC Bus Terminal Complex, Thampanoor, Thiruvananthapuram, Near Ponnara Sreedhar Park, Trivandrum, Kerala 695014, India",
    "VenueCode": "LCTM",
    "VenueName": "Lenin Cinemas 4K 3D Dolby Atmos KSFDC: Trivandrum"
  },
  "LIPP": {
    "AvailableFormats": "",
    "City": "Ottapalam",
    "FirstTracked": "2026-07-14",
    "Latitude": "10.772966",
    "Longitude": "76.37364",
    "RegionCode": "OTTP",
    "State": "Kerala",
    "SubRegionCode": "OTTP",
    "VenueAddress": "Lakshmi Picture Palace, Main Road, Ottapalam, Ottapalam, Kerala 679101, India",
    "VenueCode": "LIPP",
    "VenueName": "Lakshmi Picture Palace"
  },
  "LKSS": {
    "AvailableFormats": "",
    "City": "Piduguralla",
    "FirstTracked": "2026-07-14",
    "Latitude": "16.48022",
    "Longitude": "79.89127",
    "RegionCode": "PIDU",
    "State": "Andhra Pradesh",
    "SubRegionCode": "PIDU",
    "VenueAddress": "Jayalakshmi Picture Palace, Tangeda Road, Piduguralla, Andhra Pradesh 522413, India",
    "VenueCode": "LKSS",
    "VenueName": "Lakshmi Srinivasa Pictures A/C: Piduguralla"
  },
  "LMCR": {
    "AvailableFormats": "2D",
    "City": "Rohtak",
    "Latitude": "28.8906",
    "Longitude": "76.6042",
    "RegionCode": "ROH",
    "State": "Haryana",
    "SubRegionCode": "ROH",
    "VenueAddress": "Liberty Theatre, Delhi Road, Rohtak, Haryana 124001, India",
    "VenueCode": "LMCR",
    "VenueName": "Liberty Mycinemas: Rohtak"
  },
  "LRCP": {
    "AvailableFormats": "2D",
    "City": "Rampachodavaram",
    "Latitude": "17.439",
    "Longitude": "81.7737",
    "RegionCode": "RACD",
    "State": "Andhra Pradesh",
    "SubRegionCode": "RACD",
    "VenueAddress": "Rajahmundry - Bhadrachalam Highway, Near Tea Turn, Rampachodavaram, Andhra Pradesh 533288, India",
    "VenueCode": "LRCP",
    "VenueName": "Lalitha Talkies 2K A/C DTS: Rampachodavaram"
  },
  "LUCP": {
    "AvailableFormats": "2D",
    "City": "Petlad",
    "Latitude": "22.4641",
    "Longitude": "72.7938",
    "RegionCode": "BORM",
    "State": "Gujarat",
    "SubRegionCode": "BORM",
    "VenueAddress": "3rd Floor Yogi Icon, GJ SH 89, Shekhadi, Near Nayara Petrol Pump, Petlad, Gujarat 388450, India",
    "VenueCode": "LUCP",
    "VenueName": "The Lux Cinema: Petlad"
  },
  "M2RH": {
    "AvailableFormats": "2D|3D",
    "City": "Delhi",
    "Latitude": "28.7012",
    "Longitude": "77.1168",
    "RegionCode": "NCR",
    "State": "NCR",
    "SubRegionCode": "DELHI",
    "VenueAddress": "16 Mangalam Place District Centre, Sector-3 Rohini, Opposite Laxmi Vilas Bank, Delhi, NCR 110085, India",
    "VenueCode": "M2RH",
    "VenueName": "M2K: Rohini"
  },
  "MACK": {
    "AvailableFormats": "2D",
    "City": "Kasaragod",
    "Latitude": "12.5063",
    "Longitude": "74.99",
    "RegionCode": "KASA",
    "State": "Kerala",
    "SubRegionCode": "KASA",
    "VenueAddress": "AT Road, Dwaraka Nagar, Kasaragod, Near Kerala State Electricity Board, Kasaragod, Kerala 671121, India",
    "VenueCode": "MACK",
    "VenueName": "Moviemax Circle: Kasaragod"
  },
  "MAHB": {
    "AvailableFormats": "2D",
    "City": "Bhadrak",
    "Latitude": "21.0683",
    "Longitude": "86.466",
    "RegionCode": "BHAD",
    "State": "Odisha",
    "SubRegionCode": "BHAD",
    "VenueAddress": "State Highway 53, Near Randia Children Park, Behind Tarini Temple, Bhadrak, Odisha 756113, India",
    "VenueCode": "MAHB",
    "VenueName": "Madhab Cinema Hall: Bhadrak"
  },
  "MANU": {
    "AvailableFormats": "",
    "City": "Chhatrapati Sambhajinagar (Aurangabad)",
    "FirstTracked": "2026-07-14",
    "Latitude": "19.875738",
    "Longitude": "75.35421",
    "RegionCode": "AURA",
    "State": "Maharashtra",
    "SubRegionCode": "AURA",
    "VenueAddress": "Nupur Cinetorium, 7 Hills Jalna Road, Near Fire Brigade Office, Chhatrapati Sambhajinagar (Aurangabad), Maharashtra 431003, India",
    "VenueCode": "MANU",
    "VenueName": "Mukta A2 Cinemas:Nupur, Chhatrapati Sambhaji Nagar"
  },
  "MATK": {
    "AvailableFormats": "2D|3D",
    "City": "Pune",
    "Latitude": "18.5189",
    "Longitude": "73.9357",
    "RegionCode": "PUNE",
    "State": "Maharashtra",
    "SubRegionCode": "PUNE",
    "VenueAddress": "MovieMax, Amanora Town Centre, Amanora Park Town, Hadapsar, Pune, Maharashtra 411028, India",
    "VenueCode": "MATK",
    "VenueName": "MovieMax: Amanora Town Centre, Pune(Now Renovated)"
  },
  "MAZZ": {
    "AvailableFormats": "",
    "City": "Puthenvelikkara",
    "Latitude": "10.1898",
    "Longitude": "76.2499",
    "RegionCode": "KOCH",
    "State": "Kerala",
    "SubRegionCode": "KOCH",
    "VenueAddress": "Manacherry-Panjipalla Road, Laksham Veed Colony, Puthenvelikkara, Kerala 683594, India",
    "VenueCode": "MAZZ",
    "VenueName": "FilmyFellas Manu Movies 2K 7.1 Puthenvelikara"
  },
  "MBTK": {
    "AvailableFormats": "2D",
    "City": "Kawardha",
    "Latitude": "22.0025",
    "Longitude": "81.234",
    "RegionCode": "KAWA",
    "State": "Chhattisgarh",
    "SubRegionCode": "KAWA",
    "VenueAddress": "Naveen Bazar Chowk, Kawardha Raipur Road, Opposite Gurudwara, Kawardha, Chhattisgarh 491995, India",
    "VenueCode": "MBTK",
    "VenueName": "Maa Bhuvaneshwari Talkies: Kawardha"
  },
  "MCCD": {
    "AvailableFormats": "2D|3D",
    "City": "Jamshedpur",
    "Latitude": "22.7953",
    "Longitude": "86.2244",
    "RegionCode": "JMDP",
    "State": "Jharkhand",
    "SubRegionCode": "JMDP",
    "VenueAddress": "Chandra Pacific Mall, 5th Floor, Katha No. 28, Plot no. 2911, Besides Akashdeep Plaza, Golmuri, East Singhbhum, Jamshedpur, Jharkhand 831003, India",
    "VenueCode": "MCCD",
    "VenueName": "Miraj Cinemas: Golmuri, Chandra Pacific Mall"
  },
  "MCEF": {
    "AvailableFormats": "",
    "City": "Faridabad",
    "Latitude": "28.3868",
    "Longitude": "77.3141",
    "RegionCode": "NCR",
    "State": "NCR",
    "SubRegionCode": "FARI",
    "VenueAddress": "Eldeco Station 1 Mall, 18/6, Sector 12, Haryana, Faridabad, NCR 121007, India",
    "VenueCode": "MCEF",
    "VenueName": "Miraj Cinemas: Eldeco mall, Faridabad"
  },
  "MCGS": {
    "AvailableFormats": "2D",
    "City": "Gadhinglaj",
    "Latitude": "16.2176",
    "Longitude": "74.351",
    "RegionCode": "KOLH",
    "State": "Maharashtra",
    "SubRegionCode": "KOLH",
    "VenueAddress": "Doctor`s Colony, Gadinglaj Chandgad Road, Gadhinglaj, Maharashtra 416502, India",
    "VenueCode": "MCGS",
    "VenueName": "Maratha Chitra Mandir: Gadhinglaj"
  },
  "MCJH": {
    "AvailableFormats": "",
    "City": "Junagarh",
    "FirstTracked": "2026-07-14",
    "Latitude": "19.862988",
    "Longitude": "82.943504",
    "RegionCode": "JUNA",
    "State": "Odisha",
    "SubRegionCode": "JUNA",
    "VenueAddress": "Next to Monarch Lodge, Bhatrajore Right Canal, Junagarh, Odisha 766014, India",
    "VenueCode": "MCJH",
    "VenueName": "Monarch Cinema: Junagarh, Odisha"
  },
  "MCMH": {
    "AvailableFormats": "2D",
    "City": "Hardoi",
    "Latitude": "27.4032",
    "Longitude": "80.1376",
    "RegionCode": "HRDI",
    "State": "Uttar Pradesh",
    "SubRegionCode": "HRDI",
    "VenueAddress": "1, Canal Road, Pragati Nagar, Asha Nagar, Hardoi, Uttar Pradesh 241001, India",
    "VenueCode": "MCMH",
    "VenueName": "Meera Chitra Mandir: Hardoi"
  },
  "MCPR": {
    "AvailableFormats": "2D",
    "City": "Poovar",
    "Latitude": "8.3212",
    "Longitude": "77.0635",
    "RegionCode": "TRIV",
    "State": "Kerala",
    "SubRegionCode": "TRIV",
    "VenueAddress": "Poovar Vizhinjam Road, Near Sruthi Royal Auditorium, Poovar, Kerala 695525, India",
    "VenueCode": "MCPR",
    "VenueName": "Mridhanga Cineplex 4K Dolby Atmos: Poovar"
  },
  "MCSL": {
    "AvailableFormats": "2D|3D",
    "City": "Kolkata",
    "Latitude": "22.5734",
    "Longitude": "88.4138",
    "RegionCode": "KOLK",
    "State": "West Bengal",
    "SubRegionCode": "KOLK",
    "VenueAddress": "No 177 and 178, Downtown Mall, IB Block, Sector 3, Kolkata, West Bengal 700106, India",
    "VenueCode": "MCSL",
    "VenueName": "Miraj Cinemas: Salt Lake, DownTown Mall, Kolkata"
  },
  "MCTI": {
    "AvailableFormats": "2D|3D",
    "City": "Noida",
    "Latitude": "28.5683",
    "Longitude": "77.3267",
    "RegionCode": "NCR",
    "State": "NCR",
    "SubRegionCode": "NOIDA",
    "VenueAddress": "The Great India Place Mall, A2, 3rd Floor, Near Noida Sector 18 Metro Station, Noida, NCR 201301, India",
    "VenueCode": "MCTI",
    "VenueName": "Miraj Cinemas: TGIP, Noida"
  },
  "MDCD": {
    "AvailableFormats": "",
    "City": "Ghaziabad",
    "FirstTracked": "2026-07-14",
    "Latitude": "28.6835",
    "Longitude": "77.5174",
    "RegionCode": "NCR",
    "State": "NCR",
    "SubRegionCode": "GHAZ",
    "VenueAddress": "N.H.9, Mussoorie Gulawathi Road Industrial Area, Near - State Bank of India, Ghaziabad, NCR 201015, India",
    "VenueCode": "MDCD",
    "VenueName": "Madhuban Cinema: Dasna"
  },
  "MECB": {
    "AvailableFormats": "",
    "City": "Bellary",
    "FirstTracked": "2026-07-14",
    "Latitude": "15.142982",
    "Longitude": "76.93244",
    "RegionCode": "BLRY",
    "State": "Karnataka",
    "SubRegionCode": "BLRY",
    "VenueAddress": "SLN Mall, 4th Floor, Sanganakal Road, Bellary, Karnataka 583101, India",
    "VenueCode": "MECB",
    "VenueName": "Movietime Cinemas: SLN Mall, Bellary"
  },
  "MENL": {
    "AvailableFormats": "2D",
    "City": "Ghaziabad",
    "Latitude": "28.7081",
    "Longitude": "77.2916",
    "RegionCode": "NCR",
    "State": "NCR",
    "SubRegionCode": "GHAZ",
    "VenueAddress": "Loni Road, Harijan Basti, Raj Nagar, Gokalpur, Ghaziabad, NCR 110094, India",
    "VenueCode": "MENL",
    "VenueName": "Meenakshi Multiplex Cinema: Loni"
  },
  "MGMF": {
    "AvailableFormats": "",
    "City": "Dhuri",
    "FirstTracked": "2026-07-14",
    "Latitude": "30.3649",
    "Longitude": "75.8591",
    "RegionCode": "DHRI",
    "State": "Punjab",
    "SubRegionCode": "DHRI",
    "VenueAddress": "MGM Mall, Sangrur-Dhuri Road, Near Civil Hospital, Dhuri, Punjab 148024, India",
    "VenueCode": "MGMF",
    "VenueName": "MGM Filmiplex Cinema: Dhuri"
  },
  "MIDL": {
    "AvailableFormats": "2D",
    "City": "Madurai",
    "Latitude": "9.93085",
    "Longitude": "78.0907",
    "RegionCode": "MADU",
    "State": "Tamil Nadu",
    "SubRegionCode": "MADU",
    "VenueAddress": "116/2, Sammattipuram Main Road, Opposite to Big Bazaar, Madurai, Tamil Nadu 625016, India",
    "VenueCode": "MIDL",
    "VenueName": "Midlaand Cinemas A/C 4K Dolby Digital 7.1: Madurai"
  },
  "MJCS": {
    "AvailableFormats": "3D|2D",
    "City": "Akola",
    "Latitude": "20.6983",
    "Longitude": "77.0168",
    "RegionCode": "AKOL",
    "State": "Maharashtra",
    "SubRegionCode": "AKOL",
    "VenueAddress": "Murtizapur Road, Kirti Nagar, Near TVS Showroom, Akola, Maharashtra 444005, India",
    "VenueCode": "MJCS",
    "VenueName": "Miraj Cinemas: Radha Krishna, Akola"
  },
  "MKCK": {
    "AvailableFormats": "2D",
    "City": "Aravakurichi",
    "Latitude": "10.7803",
    "Longitude": "77.9122",
    "RegionCode": "ARAV",
    "State": "Tamil Nadu",
    "SubRegionCode": "ARAV",
    "VenueAddress": "Aravakurichi Main Road, Aravakurichi, Tamil Nadu, Aravakurichi, Tamil Nadu 639201, India",
    "VenueCode": "MKCK",
    "VenueName": "Makkal Cinemas A/C: Aravakurichi"
  },
  "MLAM": {
    "AvailableFormats": "2D",
    "City": "Siliguri",
    "Latitude": "26.7299",
    "Longitude": "88.4321",
    "RegionCode": "SILI",
    "State": "West Bengal",
    "SubRegionCode": "SILI",
    "VenueAddress": "6th Floor, Himalayan Builders, ML Acropolis Mall, Sevoke Road, 2nd Mile, Opposite - Anandalok Hospital, Siliguri, West Bengal 734001, India",
    "VenueCode": "MLAM",
    "VenueName": "INOX: ML Acropolis Mall, Siliguri"
  },
  "MMAH": {
    "AvailableFormats": "2D|3D",
    "City": "Hyderabad",
    "Latitude": "17.4631",
    "Longitude": "78.5607",
    "RegionCode": "HYD",
    "State": "Telangana",
    "SubRegionCode": "HYD",
    "VenueAddress": "AMR Planet Mall,1,Rd,373/1 and 373.3, Trimulgherry, ECIL Road, Extn -  Moula Ali, Secunderabad, Extn - Moula Ali, Secunderabad, Hyderabad, Telangana 500040, India",
    "VenueCode": "MMAH",
    "VenueName": "MovieMax: AMR, ECIL Secunderabad"
  },
  "MMEN": {
    "AvailableFormats": "3D|2D",
    "City": "Nagpur",
    "Latitude": "21.143",
    "Longitude": "79.0803",
    "RegionCode": "NAGP",
    "State": "Maharashtra",
    "SubRegionCode": "NAGP",
    "VenueAddress": "MovieMax, 4th Floor, Variety Square, Sitabuldi, Nagpur, Maharashtra 440012, India",
    "VenueCode": "MMEN",
    "VenueName": "MovieMax: Eternity, Nagpur"
  },
  "MMMR": {
    "AvailableFormats": "2D",
    "City": "Mumbai",
    "Latitude": "19.2928",
    "Longitude": "72.8717",
    "RegionCode": "MUMBAI",
    "State": "Maharashtra",
    "SubRegionCode": "MWEST",
    "VenueAddress": "MovieMax, Prime Mall, Beverly Park, Mira-Bhayander Road, Mira Road (East), Near Shivar Garden, Mumbai, Maharashtra 401107, India",
    "VenueCode": "MMMR",
    "VenueName": "MovieMax: Mira Road"
  },
  "MMSR": {
    "AvailableFormats": "",
    "City": "Pochampally",
    "FirstTracked": "2026-07-14",
    "Latitude": "17.34488",
    "Longitude": "78.81876",
    "RegionCode": "POCH",
    "State": "Telangana",
    "SubRegionCode": "POCH",
    "VenueAddress": "M.G Road, Near Apollo Pharmacy, Pochampally, Telangana 508284, India",
    "VenueCode": "MMSR",
    "VenueName": "MRR Sri Sai Ram Theatre: Pochampally"
  },
  "MMXI": {
    "AvailableFormats": "2D",
    "City": "Indore",
    "Latitude": "22.7481",
    "Longitude": "75.8905",
    "RegionCode": "IND",
    "State": "Madhya Pradesh",
    "SubRegionCode": "IND",
    "VenueAddress": "Gravity Mall Ware House Road Bhamor, Vijay Nagar, Indore, Madhya Pradesh 452010, India",
    "VenueCode": "MMXI",
    "VenueName": "Manmandir Miniplex: Indore"
  },
  "MNKC": {
    "AvailableFormats": "2D",
    "City": "Akola",
    "Latitude": "20.7143",
    "Longitude": "76.9974",
    "RegionCode": "AKOL",
    "State": "Maharashtra",
    "SubRegionCode": "AKOL",
    "VenueAddress": "Manek Talkies, Tilak Road, Near Akot Bus Stand, Akola, Maharashtra 444001, India",
    "VenueCode": "MNKC",
    "VenueName": "Manek Cinema: Akola"
  },
  "MPDB": {
    "AvailableFormats": "3D|2D",
    "City": "Bhubaneswar",
    "Latitude": "20.2962",
    "Longitude": "85.835",
    "RegionCode": "JATN",
    "State": "Odisha",
    "SubRegionCode": "JATN",
    "VenueAddress": "Bhoi Nagar, Service Road, Vani Vihar, Near Sky Automobile, Bhubaneswar, Odisha 751022, India",
    "VenueCode": "MPDB",
    "VenueName": "Maharaja (Christie 4K, DOLBY ATMOS 64 CHANNEL)"
  },
  "MRCL": {
    "AvailableFormats": "2D",
    "City": "Sangli",
    "Latitude": "16.8198",
    "Longitude": "74.6424",
    "RegionCode": "ASMA",
    "State": "Maharashtra",
    "SubRegionCode": "ASMA",
    "VenueAddress": "Pandharpur Wal, Shivaji Road, Near City Bus Stand, Miraj, Sangli, Maharashtra 416410, India",
    "VenueCode": "MRCL",
    "VenueName": "Amar Cinema: Miraj"
  },
  "MRRG": {
    "AvailableFormats": "",
    "City": "Hyderabad",
    "Latitude": "17.4513",
    "Longitude": "78.5359",
    "RegionCode": "HYD",
    "State": "Telangana",
    "SubRegionCode": "HYD",
    "VenueAddress": "Bus Stand, Raghavendra Theatre Road, Malkajgiri, Hyderabad, Telangana 500047, India",
    "VenueCode": "MRRG",
    "VenueName": "Miraj Cinemas: Raghavendra, Malkajgiri"
  },
  "MSCM": {
    "AvailableFormats": "2D|3D",
    "City": "Pune",
    "Latitude": "18.6504",
    "Longitude": "73.8393",
    "RegionCode": "PUNE",
    "State": "Maharashtra",
    "SubRegionCode": "PUNE",
    "VenueAddress": "Sector No. 9, Sant Nagar, Spine Road, Pune, Maharashtra 412105, India",
    "VenueCode": "MSCM",
    "VenueName": "Miraj Cinemas: Spine City Mall, Pune"
  },
  "MSRM": {
    "AvailableFormats": "",
    "City": "Punganur",
    "FirstTracked": "2026-07-14",
    "Latitude": "13.363947",
    "Longitude": "78.56852",
    "RegionCode": "PGNR",
    "State": "Andhra Pradesh",
    "SubRegionCode": "PGNR",
    "VenueAddress": "Vidya Nagar, Vet Hospital Road, Nagapyam, Punganur, Andhra Pradesh 517247, India",
    "VenueCode": "MSRM",
    "VenueName": "MSR Movie Land: Punganur"
  },
  "MTCM": {
    "AvailableFormats": "2D",
    "City": "Chidambaram",
    "Latitude": "11.3949",
    "Longitude": "79.7012",
    "RegionCode": "CHID",
    "State": "Tamil Nadu",
    "SubRegionCode": "CHID",
    "VenueAddress": "SP Kovil Street, OP Main Road, Near Gm Vandayar Thirumana Mahal, Chidambaram, Tamil Nadu 608001, India",
    "VenueCode": "MTCM",
    "VenueName": "Mariyappa Theatre: Chidambaram"
  },
  "MTJA": {
    "AvailableFormats": "2D",
    "City": "Jammu",
    "Latitude": "32.7274",
    "Longitude": "74.8458",
    "RegionCode": "JAMM",
    "State": "Jammu and Kashmir",
    "SubRegionCode": "JAMM",
    "VenueAddress": "K C Central, Indira Theater, Canal Road, Jammu Tawi, Near The Raymond Shop, Jammu, Jammu and Kashmir 180002, India",
    "VenueCode": "MTJA",
    "VenueName": "Movietime Cinemas: Jammu"
  },
  "MTND": {
    "AvailableFormats": "2D|3D",
    "City": "Noida",
    "Latitude": "28.5717",
    "Longitude": "77.3225",
    "RegionCode": "NCR",
    "State": "NCR",
    "SubRegionCode": "NOIDA",
    "VenueAddress": "Tulsi Marg, K Block, Pocket E, Dharam Palace Mall, Sector 18, Noida, NCR 201301, India",
    "VenueCode": "MTND",
    "VenueName": "Movietime Cinemas: Sector 18, Noida"
  },
  "MTYA": {
    "AvailableFormats": "",
    "City": "Nandigama",
    "FirstTracked": "2026-07-14",
    "Latitude": "16.7752",
    "Longitude": "80.2837",
    "RegionCode": "NDGM",
    "State": "Andhra Pradesh",
    "SubRegionCode": "NDGM",
    "VenueAddress": "Mayuri Theatre Road, Ramannapet Road, Nandigama, Andhra Pradesh 521185, India",
    "VenueCode": "MTYA",
    "VenueName": "Mayuri Theater A/c Dolby 7.1 Surround: Nandigama"
  },
  "MUTB": {
    "AvailableFormats": "2D",
    "City": "Bengaluru",
    "Latitude": "13.0385",
    "Longitude": "77.5529",
    "RegionCode": "BANG",
    "State": "Karnataka",
    "SubRegionCode": "BANG",
    "VenueAddress": "Muthyala Nagar, 19th Cross, 2nd Stage, Mathikere, Near Railway Gate and J.P.Park, Near Mega Mart, Bengaluru, Karnataka 560054, India",
    "VenueCode": "MUTB",
    "VenueName": "Murali Cinemas(Gokula)4K Dolby7.1 A/C 3D:Mathikere"
  },
  "MXBO": {
    "AvailableFormats": "2D",
    "City": "Mumbai",
    "Latitude": "19.232",
    "Longitude": "72.8287",
    "RegionCode": "MUMBAI",
    "State": "Maharashtra",
    "SubRegionCode": "MWEST",
    "VenueAddress": "Zoom Plaza Mall, 4th Floor,L.T. Road, Borivali (W), Opposite Gorai Depot, Mumbai, Maharashtra 400092, India",
    "VenueCode": "MXBO",
    "VenueName": "Maxus Cinemas: Borivali (W)"
  },
  "MYBG": {
    "AvailableFormats": "2D",
    "City": "Balaghat",
    "Latitude": "21.8109",
    "Longitude": "80.1954",
    "RegionCode": "BLGT",
    "State": "Madhya Pradesh",
    "SubRegionCode": "BLGT",
    "VenueAddress": "Chitragupt Nagar, Gondia Road, Near HDFC Bank, Balaghat, Madhya Pradesh 481001, India",
    "VenueCode": "MYBG",
    "VenueName": "Mayur Talkies: Balaghat"
  },
  "MYRP": {
    "AvailableFormats": "2D",
    "City": "Kollam",
    "Latitude": "8.88953",
    "Longitude": "76.5858",
    "RegionCode": "KOLM",
    "State": "Kerala",
    "SubRegionCode": "KOLM",
    "VenueAddress": "RP Mall, Level 5, Salem-Kochi Highway, Near Reliance Trends, Kollam, Kerala 691001, India",
    "VenueCode": "MYRP",
    "VenueName": "MY Cinemas, RP Mall: Kollam"
  },
  "NAGO": {
    "AvailableFormats": "2D",
    "City": "Nagaur",
    "Latitude": "27.1957",
    "Longitude": "73.7501",
    "RegionCode": "NAGR",
    "State": "Rajasthan",
    "SubRegionCode": "NAGR",
    "VenueAddress": "NH 65, Hanuman Bagh Colony,Bassi Mohalla, Nagaur, Rajasthan 341001, India",
    "VenueCode": "NAGO",
    "VenueName": "Laxmi Tara Cinema: Nagaur"
  },
  "NCCW": {
    "AvailableFormats": "2D",
    "City": "Wai",
    "Latitude": "17.9525",
    "Longitude": "73.8873",
    "RegionCode": "WAIP",
    "State": "Maharashtra",
    "SubRegionCode": "WAIP",
    "VenueAddress": "Chota Pul, Gangapuri Road, Danebazar, Ganpati Ali, Wai, Maharashtra 412803, India",
    "VenueCode": "NCCW",
    "VenueName": "New Chitra Cinema: Wai"
  },
  "NCMD": {
    "AvailableFormats": "2D",
    "City": "Doraha",
    "Latitude": "30.7867",
    "Longitude": "76.0467",
    "RegionCode": "DORH",
    "State": "Punjab",
    "SubRegionCode": "DORH",
    "VenueAddress": "West View Plaza, GT Road, Doraha, Near Mcdonalds, Doraha, Punjab 141421, India",
    "VenueCode": "NCMD",
    "VenueName": "Nova Cinemaz: Doraha"
  },
  "NECB": {
    "AvailableFormats": "2D",
    "City": "Billawar",
    "Latitude": "32.6136",
    "Longitude": "75.6041",
    "RegionCode": "BILL",
    "State": "Jammu and Kashmir",
    "SubRegionCode": "BILL",
    "VenueAddress": "Tilla Billawar, Near Bharat Stone Crusher, Billawar, Jammu and Kashmir 184203, India",
    "VenueCode": "NECB",
    "VenueName": "Neelam Cinema: Billawar"
  },
  "NHCG": {
    "AvailableFormats": "2D",
    "City": "Mumbai",
    "Latitude": "18.962",
    "Longitude": "72.824",
    "RegionCode": "MUMBAI",
    "State": "Maharashtra",
    "SubRegionCode": "MWEST",
    "VenueAddress": "Plot no: 266, Nishat Talkies, Maulana shaukatali Road, Mumbai, Maharashtra 400008, India",
    "VenueCode": "NHCG",
    "VenueName": "Nishat Cinema: Grant Road"
  },
  "NLPS": {
    "AvailableFormats": "",
    "City": "Perundurai",
    "FirstTracked": "2026-07-14",
    "Latitude": "11.286024",
    "Longitude": "77.58599",
    "RegionCode": "PEDR",
    "State": "Tamil Nadu",
    "SubRegionCode": "PEDR",
    "VenueAddress": "Thiruvenkadampalayam, Nallapa Theatre Road, Opposite Sri Vishnu Car Wash, Perundurai, Tamil Nadu 638052, India",
    "VenueCode": "NLPS",
    "VenueName": "Nallappas Cinemas: Perundurai"
  },