{
  "AACN": {
    "AvailableFormats": "2D",
    "City": "Hyderabad",
    "Latitude": "17.4669",
    "Longitude": "78.3104",
    "RegionCode": "HYD",
    "State": "Telangana",
    "SubRegionCode": "HYD",
    "VenueAddress": "Nallagandla Road, HUDA Layout, Hyderabad, Telangana 500019, India",
    "VenueCode": "AACN",
    "VenueName": "Aparna Cinemas: Nallagandla"
  },
  "AASH": {
    "AvailableFormats": "2D",
    "City": "Bhandara",
    "Latitude": "21.17",
    "Longitude": "79.6562",
    "RegionCode": "BHAA",
    "State": "Maharashtra",
    "SubRegionCode": "BHAA",
    "VenueAddress": "Gandhi Square, Gandhi Chowk, Santaji Nagar, Bhandara, Maharashtra 441904, India",
    "VenueCode": "AASH",
    "VenueName": "Adarsh Chitra Mandir: Bhandara"
  },
  "ABCS": {
    "AvailableFormats": "3D|2D",
    "City": "Hyderabad",
    "Latitude": "17.4005",
    "Longitude": "78.5548",
    "RegionCode": "HYD",
    "State": "Telangana",
    "SubRegionCode": "HYD",
    "VenueAddress": "DSL Virtue Mall, 3rd Floor, Plot No. B-1, B-2B and 2, Uppal Khlasa VRR, Near Indian Oil Petrol Pump, Hyderabad, Telangana 500039, India",
    "VenueCode": "ABCS",
    "VenueName": "Cinepolis: DSL Virtue Mall Uppal, Hyderabad"
  },
  "ABTS": {
    "AvailableFormats": "2D",
    "City": "Palakollu",
    "Latitude": "16.5167",
    "Longitude": "81.7258",
    "RegionCode": "PLKL",
    "State": "Andhra Pradesh",
    "SubRegionCode": "PLKL",
    "VenueAddress": "Money Market Road, Near Kanaka Durga Maa Temple, Palakollu, Andhra Pradesh 534260, India",
    "VenueCode": "ABTS",
    "VenueName": "Adabala Theatre Screen 1: Palakollu"
  },
  "ACDC": {
    "AvailableFormats": "2D",
    "City": "Chhatarpur",
    "Latitude": "24.8849",
    "Longitude": "79.5946",
    "RegionCode": "CHHT",
    "State": "Madhya Pradesh",
    "SubRegionCode": "CHHT",
    "VenueAddress": "Green Avenue Colony, Next to Dr. Radhakrishna Higher Secondary School, Chhatarpur, Madhya Pradesh 471001, India",
    "VenueCode": "ACDC",
    "VenueName": "Ashoka Cineplex: Chhatarpur"
  },
  "ACJA": {
    "AvailableFormats": "2D",
    "City": "Surat",
    "Latitude": "21.2463",
    "Longitude": "72.7925",
    "RegionCode": "SURT",
    "State": "Gujarat",
    "SubRegionCode": "SURT",
    "VenueAddress": "6th Floor, Exxoniic Mall, Jahangirpura Variyaav Road, Near Iskon Temple, Jahangirpura, Surat, Gujarat 395005, India",
    "VenueCode": "ACJA",
    "VenueName": "Apple Cinema: Jahangirpura, Surat"
  },
  "ACMM": {
    "AvailableFormats": "2D",
    "City": "Bilimora",
    "Latitude": "20.7681",
    "Longitude": "72.9731",
    "RegionCode": "BILI",
    "State": "Gujarat",
    "SubRegionCode": "BILI",
    "VenueAddress": "Sardar Patel Market Road, Triveni Society, Maruti Nagar, Bilimora, Gujarat 396321, India",
    "VenueCode": "ACMM",
    "VenueName": "Anand Cine Magic Multiplex: Bilimora Renovated"
  },
  "ACPR": {
    "AvailableFormats": "2D",
    "City": "Payyanur",
    "Latitude": "12.1084",
    "Longitude": "75.2125",
    "RegionCode": "PAYY",
    "State": "Kerala",
    "SubRegionCode": "PAYY",
    "VenueAddress": "No 4657, Kokkanissery Road, Payyanur, Kerala 670307, India",
    "VenueCode": "ACPR",
    "VenueName": "Archana Cineplex RGB Laser 4K 3D ATMOS: Payyanur"
  },
  "ACVM": {
    "AvailableFormats": "2D",
    "City": "Chennai",
    "Latitude": "13.1047",
    "Longitude": "80.209",
    "RegionCode": "PONE",
    "State": "Tamil Nadu",
    "SubRegionCode": "PONE",
    "VenueAddress": "No. 1/1, Mettu Street Villivakkam, Behind, Villivakkam Bus Depot, Chennai, Tamil Nadu 600049, India",
    "VenueCode": "ACVM",
    "VenueName": "AGS Cinemas: Villivakkam"
  },
  "ADDC": {
    "AvailableFormats": "2D",
    "City": "Lucknow",
    "Latitude": "26.8362",
    "Longitude": "81.002",
    "RegionCode": "LUCK",
    "State": "Uttar Pradesh",
    "SubRegionCode": "LUCK",
    "VenueAddress": "1/23, Vardan Khand, Sector 1, Gomti Nagar, Makhdoom Pur, Lucknow, Uttar Pradesh 226010, India",
    "VenueCode": "ADDC",
    "VenueName": "Antas DD Cinemas: Lucknow"
  },
  "AGSG": {
    "AvailableFormats": "2D",
    "City": "Hoshiarpur",
    "Latitude": "31.3192",
    "Longitude": "76.0614",
    "RegionCode": "HOSH",
    "State": "Punjab",
    "SubRegionCode": "HOSH",
    "VenueAddress": "AG Star Cinemaz and Fitness, DTF ( Drive Thru Food ) on Chandigarh Hoshiarpur Highway, Near Sahota Petro Village Badhowan Saila Khurd, Hoshiarpur, Punjab 144529, India",
    "VenueCode": "AGSG",
    "VenueName": "AG Star Cinema: Saila Khurd"
  },
  "AKCH": {
    "AvailableFormats": "2D",
    "City": "Kollam",
    "Latitude": "8.81261",
    "Longitude": "76.6716",
    "RegionCode": "KOLM",
    "State": "Kerala",
    "SubRegionCode": "KOLM",
    "VenueAddress": "Paravur, North Paravur Road, Near ValluVally Juma Masjid, Kollam, Kerala 691301, India",
    "VenueCode": "AKCH",
    "VenueName": "Ashok Cine House: Paravur"
  },
  "AKTN": {
    "AvailableFormats": "2D",
    "City": "Kanchipuram",
    "Latitude": "12.8313",
    "Longitude": "79.7091",
    "RegionCode": "KNPM",
    "State": "Tamil Nadu",
    "SubRegionCode": "KNPM",
    "VenueAddress": "Ennaikaran, Railway Road, Kanchipuram, Tamil Nadu 631501, India",
    "VenueCode": "AKTN",
    "VenueName": "Aruna Cinemas RGB Laser 4K AC Dolby Atmos"
  },
  "ALUC": {
    "AvailableFormats": "2D",
    "City": "Hyderabad",
    "Latitude": "17.3896272",
    "Longitude": "78.3438856",
    "RegionCode": "HYD",
    "State": "Telangana",
    "SubRegionCode": "HYD",
    "VenueAddress": "Plot 20, Adjacent to Allu Studios, Power Welfare Society, Narsingi, Hyderabad, Telangana 500075, India",
    "VenueCode": "ALUC",
    "VenueName": "ALLU Cinemas: Kokapet"
  },
  "AMDK": {
    "AvailableFormats": "2D",
    "City": "Devarakonda",
    "Latitude": "16.6908",
    "Longitude": "78.9227",
    "RegionCode": "DEVK",
    "State": "Telangana",
    "SubRegionCode": "DEVK",
    "VenueAddress": "Devarakonda Road, Mallepally Road, Near State Bank of India ATM, Devarakonda, Telangana 508248, India",
    "VenueCode": "AMDK",
    "VenueName": "Asian Manoj: Devarakonda"
  },
  "AMOE": {
    "AvailableFormats": "3D|2D",
    "City": "Amravati",
    "Latitude": "20.8983",
    "Longitude": "77.7477",
    "RegionCode": "AMRA",
    "State": "Maharashtra",
    "SubRegionCode": "AMRA",
    "VenueAddress": "Elite Mall, Guruchhaya Colony, Saturna, Sai Nagar,Badnera Road, Near Bhakti Dham Mandir, Amravati, Maharashtra 444607, India",
    "VenueCode": "AMOE",
    "VenueName": "E Orbit Multiplex: Amravati"
  },
  "ANAN": {
    "AvailableFormats": "2D",
    "City": "Khed",
    "Latitude": "17.7125",
    "Longitude": "73.4093",
    "RegionCode": "KHED",
    "State": "Maharashtra",
    "SubRegionCode": "KHED",
    "VenueAddress": "Near Nagarpalika, Khed Dapoli Road, Khed, Maharashtra 415709, India",
    "VenueCode": "ANAN",
    "VenueName": "City Pride: Annand"
  },
  "ANNK": {
    "AvailableFormats": "2D",
    "City": "Kothamangalam",
    "Latitude": "10.063",
    "Longitude": "76.6202",
    "RegionCode": "KTMM",
    "State": "Kerala",
    "SubRegionCode": "KTMM",
    "VenueAddress": "Dhanushkodi Rd, Kothamangalam, Near Kothamangalam Bus Stand, Kothamangalam, Kerala 686666, India",
    "VenueCode": "ANNK",
    "VenueName": "ANN Cinema Complex 4K 3D Dolby Atmos RGB LASER"
  },
  "ANTP": {
    "AvailableFormats": "2D",
    "City": "Ramachandrapuram",
    "Latitude": "16.83799",
    "Longitude": "82.02889",
    "RegionCode": "RCPR",
    "State": "Andhra Pradesh",
    "SubRegionCode": "RCPR",
    "VenueAddress": "Ramachandrapuram Road, Ramachandrapuram, Andhra Pradesh 533255, India",
    "VenueCode": "ANTP",
    "VenueName": "Annapurna A/C 2K Dolby 7.1 : Ramachandrapuram"
  },
  "APCX": {
    "AvailableFormats": "2D",
    "City": "Punalur",
    "Latitude": "9.01592",
    "Longitude": "76.939",
    "RegionCode": "PUNA",
    "State": "Kerala",
    "SubRegionCode": "PUNA",
    "VenueAddress": "Kalayanad, Kollam Thirumangalam Road, Punalur, Kerala 691305, India",
    "VenueCode": "APCX",
    "VenueName": "ARIESPLEX PUNALUR RGB LASER 4K ATMOS"
  },
  "APRK": {
    "AvailableFormats": "2D",
    "City": "Kamareddy",
    "Latitude": "18.3256",
    "Longitude": "78.3327",
    "RegionCode": "KMRD",
    "State": "Telangana",
    "SubRegionCode": "KMRD",
    "VenueAddress": "Vivekananda Colony, Ashok Nagar, Kamareddy, Telangana 503111, India",
    "VenueCode": "APRK",
    "VenueName": "Asian Priya Cineplex: Kamareddy"
  },
  "ARBL": {
    "AvailableFormats": "2D",
    "City": "Buldana",
    "Latitude": "20.5467",
    "Longitude": "76.1763",
    "RegionCode": "BULD",
    "State": "Maharashtra",
    "SubRegionCode": "BULD",
    "VenueAddress": "ARD Green Valley, Malkapur Road, Opposite Hero Honda Showroom, Buldana, Maharashtra 443001, India",
    "VenueCode": "ARBL",
    "VenueName": "ARD Cinemall: Buldana"
  },
  "ARRO": {
    "AvailableFormats": "2D",
    "City": "Ooty",
    "Latitude": "11.4145",
    "Longitude": "76.709",
    "RegionCode": "OOTY",
    "State": "Tamil Nadu",
    "SubRegionCode": "OOTY",
    "VenueAddress": "Garden Road, Pudumund, Ooty, Tamil Nadu 643001, India",
    "VenueCode": "ARRO",
    "VenueName": "The Assembly Rooms: Ooty"
  },
  "ASCC": {
    "AvailableFormats": "2D",
    "City": "Coimbatore",
    "Latitude": "10.9599",
    "Longitude": "76.9808",
    "RegionCode": "COIM",
    "State": "Tamil Nadu",
    "SubRegionCode": "COIM",
    "VenueAddress": "231, Sundarapuram,Podanur, Sarada Mill Road, Near Podanur Panchayat Office, Coimbatore, Tamil Nadu 641023, India",
    "VenueCode": "ASCC",
    "VenueName": "Arasan Cinemas A/C 4K Dolby: Coimbatore"
  },
  "ASJY": {
    "AvailableFormats": "2D",
    "City": "Hyderabad",
    "Latitude": "17.5028",
    "Longitude": "78.3122",
    "RegionCode": "HYD",
    "State": "Telangana",
    "SubRegionCode": "HYD",
    "VenueAddress": "Jyothi Nagar, Ashok Nagar, Chanda Nagar, Opposite TVS Motors, Near Brilliant Junior College, Hyderabad, Telangana 502032, India",
    "VenueCode": "ASJY",
    "VenueName": "Asian Jyothi: RC Puram"
  },
  "ASNT": {
    "AvailableFormats": "2D",
    "City": "Adilabad",
    "Latitude": "19.6748",
    "Longitude": "78.5315",
    "RegionCode": "ADIL",
    "State": "Telangana",
    "SubRegionCode": "ADIL",
    "VenueAddress": "Bhuktapur, Near IDBI Bank, Near Hanuman Temple, Adilabad, Telangana 504001, India",
    "VenueCode": "ASNT",
    "VenueName": "Asian Nataraj: Adilabad"
  },
  "ASTB": {
    "AvailableFormats": "2D",
    "City": "Bengaluru",
    "Latitude": "13.0807",
    "Longitude": "77.5011",
    "RegionCode": "HOKT",
    "State": "Karnataka",
    "SubRegionCode": "HOKT",
    "VenueAddress": "23, Chikkabanavara, Hesarghatta Main Rd, Near Chikkabanavara Circle, Bengaluru, Karnataka 560090, India",
    "VenueCode": "ASTB",
    "VenueName": "Ashoka Cinemas - Dolby Laser: Chikkabanavara"
  },
  "ATAM": {
    "AvailableFormats": "",
    "City": "Batlagundu",
    "Latitude": "10.2275",
    "Longitude": "77.7483",
    "RegionCode": "BTGD",
    "State": "Tamil Nadu",
    "SubRegionCode": "BTGD",
    "VenueAddress": "Ayyampalayam, Dindugal Road, Near State Bank of India, Batlagundu, Tamil Nadu 624204, India",
    "VenueCode": "ATAM",
    "VenueName": "Alagesan Theatre: Ayyampalayam"
  },
  "ATJL": {
    "AvailableFormats": "2D",
    "City": "Jagdalpur",
    "Latitude": "19.0867",
    "Longitude": "82.0165",
    "RegionCode": "JAGD",
    "State": "Chhattisgarh",
    "SubRegionCode": "JAGD",
    "VenueAddress": "Anupama Chowk, Chitrakote Road, Jaiswal Colony, Jagdalpur, Chhattisgarh 494001, India",
    "VenueCode": "ATJL",
    "VenueName": "Anupama Theatre: Jagdalpur"
  },
  "ATTS": {
    "AvailableFormats": "2D",
    "City": "Hoshiarpur",
    "Latitude": "31.5552",
    "Longitude": "75.8694",
    "RegionCode": "TNDA",
    "State": "Punjab",
    "SubRegionCode": "TNDA",
    "VenueAddress": "Tanda Road, Bharat Petroleum, Hoshiarpur, Hoshiarpur, Punjab 146001, India",
    "VenueCode": "ATTS",
    "VenueName": "AG Star Cinemaz Hoshiarpur (Near Amber Palace)"
  },
  "AVCS": {
    "AvailableFormats": "2D",
    "City": "Pollachi",
    "Latitude": "10.5644",
    "Longitude": "76.9216",
    "RegionCode": "POLL",
    "State": "Tamil Nadu",
    "SubRegionCode": "POLL",
    "VenueAddress": "Sethumadai Road, Vettaikaranpudur, Pollachi, Tamil Nadu 642129, India",
    "VenueCode": "AVCS",
    "VenueName": "Abirami Vishal Cinemas 4K Laser: Vettaikaranpudur"
  },
  "AXMC": {
    "AvailableFormats": "2D",
    "City": "Muvattupuzha",
    "Latitude": "9.98175",
    "Longitude": "76.5787",
    "RegionCode": "MUVA",
    "State": "Kerala",
    "SubRegionCode": "MUVA",
    "VenueAddress": "3rd Floor Grand Centre Mall, Thottumkalpeedika, Muvattupuzha, Kerala 686661, India",
    "VenueCode": "AXMC",
    "VenueName": "Aashirvad Cineplexx, GrandCentreMall: Muvattupuzha"
  },
  "BAHS": {
    "AvailableFormats": "2D",
    "City": "Basti",
    "Latitude": "26.7995",
    "Longitude": "82.7341",
    "RegionCode": "BAST",
    "State": "Uttar Pradesh",
    "SubRegionCode": "BAST",
    "VenueAddress": "Baadshah Tower, Malviya Road, Bhatolowa, Basti, Uttar Pradesh 272001, India",
    "VenueCode": "BAHS",
    "VenueName": "Baadshah Multiplex: Basti"
  },
  "BBCL": {
    "AvailableFormats": "3D|2D",
    "City": "Solapur",
    "Latitude": "17.677",
    "Longitude": "75.8986",
    "RegionCode": "SOLA",
    "State": "Maharashtra",
    "SubRegionCode": "SOLA",
    "VenueAddress": "Bhagwat Kala Chaya 8, Old Police Line, Murarji Peth, Solapur, Maharashtra 413001, India",
    "VenueCode": "BBCL",
    "VenueName": "Bhagwat Cinemas (A.C): Solapur"
  },
  "BCKR": {
    "AvailableFormats": "2D|3D",
    "City": "Kharagpur",
    "Latitude": "22.3381",
    "Longitude": "87.306",
    "RegionCode": "KGPR",
    "State": "West Bengal",
    "SubRegionCode": "KGPR",
    "VenueAddress": "Railway Plot No- 489, New Settlement, Gate Bazar, Kharagpur, West Bengal 721301, India",
    "VenueCode": "BCKR",
    "VenueName": "Bombay Cineplex: Kharagpur"
  },
  "BGTC": {
    "AvailableFormats": "2D",
    "City": "Chandbali",
    "Latitude": "20.7743",
    "Longitude": "86.7453",
    "RegionCode": "CHAZ",
    "State": "Odisha",
    "SubRegionCode": "CHAZ",
    "VenueAddress": "B.G Talkies, Sanpur, Po-Panchapada, Bhadrak, Chandbali, Odisha 756133, India",
    "VenueCode": "BGTC",
    "VenueName": "B.G. Talkies (AC, Dolby Digital Sound): Chandbali"
  },
  "BIJO": {
    "AvailableFormats": "2D",
    "City": "Shillong",
    "Latitude": "25.5764",
    "Longitude": "91.8816",
    "RegionCode": "SHLG",
    "State": "Meghalaya",
    "SubRegionCode": "SHLG",
    "VenueAddress": "Police Bazar, Near Bank of India Shillong, Shillong, Meghalaya 793001, India",
    "VenueCode": "BIJO",
    "VenueName": "Bijou Cinema: Shillong"
  },
  "BKDV": {
    "AvailableFormats": "2D",
    "City": "Bengaluru",
    "Latitude": "12.8957",
    "Longitude": "77.621",
    "RegionCode": "HOKT",
    "State": "Karnataka",
    "SubRegionCode": "HOKT",
    "VenueAddress": "Beside D Mart and Jockey Factory, Kodichikkanahalli Main Road, SR Naidu Layout, Hongasandra, Bengaluru, Karnataka 560068, India",
    "VenueCode": "BKDV",
    "VenueName": "Brundha RGB Laser 4K Projection: Hongasandra DMart"
  },
  "BMBK": {
    "AvailableFormats": "2D",
    "City": "Bhawanipatna",
    "Latitude": "19.9065",
    "Longitude": "83.1421",
    "RegionCode": "BHAW",
    "State": "Odisha",
    "SubRegionCode": "BHAW",
    "VenueAddress": "Bhagirathi Mall, Sambhunagar Pada, Bhawanipatna, Odisha 766002, India",
    "VenueCode": "BMBK",
    "VenueName": "Bhagirathi Multiplex: Bhawanipatna"
  },
  "BODA": {
    "AvailableFormats": "2D",
    "City": "Damoh",
    "Latitude": "23.8026",
    "Longitude": "79.4537",
    "RegionCode": "DAMO",
    "State": "Madhya Pradesh",
    "SubRegionCode": "DAMO",
    "VenueAddress": "Choupra Khurd, Jabalpur Road, Damoh, Madhya Pradesh 470661, India",
    "VenueCode": "BODA",
    "VenueName": "Bollywood Cinema: Damoh"
  },
  "BSMP": {
    "AvailableFormats": "2D",
    "City": "Ambikapur",
    "Latitude": "23.1147",
    "Longitude": "83.198",
    "RegionCode": "AMBI",
    "State": "Chhattisgarh",
    "SubRegionCode": "AMBI",
    "VenueAddress": "Kharsia Road, Beside Hotel Grand Basant, NH 78, Ambikapur, Chhattisgarh 497001, India",
    "VenueCode": "BSMP",
    "VenueName": "Basant Multiplex: Ambikapur"
  },
  "BTFD": {
    "AvailableFormats": "3D|2D",
    "City": "Delhi",
    "Latitude": "28.5615",
    "Longitude": "77.2686",
    "RegionCode": "NCR",
    "State": "NCR",
    "SubRegionCode": "DELHI",
    "VenueAddress": "Grand Mall Community Centre,1, Maulana Mohammad Ali Jauhar Marg, Friends Colony West, New Friends Colony, Delhi, NCR 110025, India",
    "VenueCode": "BTFD",
    "VenueName": "Batra Reels Cinemas: New Friends Colony"
  },
  "BXDR": {
    "AvailableFormats": "2D",
    "City": "Dharampur",
    "Latitude": "20.5308",
    "Longitude": "73.187",
    "RegionCode": "BILI",
    "State": "Gujarat",
    "SubRegionCode": "BILI",
    "VenueAddress": "2nd Floor, Tanishq complex, Dharampur Barumal Road, Bilpudi, Dharampur, Gujarat 396050, India",
    "VenueCode": "BXDR",
    "VenueName": "Balaji Cinemax: Dharampur"
  },
  "CBPB": {
    "AvailableFormats": "2D|3D",
    "City": "Bhopal",
    "Latitude": "23.2199",
    "Longitude": "77.4395",
    "RegionCode": "BHOP",
    "State": "Madhya Pradesh",
    "SubRegionCode": "BHOP",
    "VenueAddress": "4th Floor, Bansal Plaza, Rani Kamplapati Railway Station, Bhopal, Madhya Pradesh 462023, India",
    "VenueCode": "CBPB",
    "VenueName": "Cinepolis: Bansal Plaza, Bhopal"
  },
  "CCBT": {
    "AvailableFormats": "2D|3D",
    "City": "Guwahati",
    "Latitude": "26.1202",
    "Longitude": "91.7981",
    "RegionCode": "GUW",
    "State": "Assam",
    "SubRegionCode": "GUW",
    "VenueAddress": "Beltola-Basistha Road, Beltola, Opposite Shankardeva Netralaya, Lakhi Mandir,Guwahati, Assam 781028, India",
    "VenueCode": "CCBT",
    "VenueName": "Matrix Cinemas: Matrix Mall, Beltola, Guwahati"
  },
  "CCKN": {
    "AvailableFormats": "",
    "City": "Nagpur",
    "Latitude": "21.0532",
    "Longitude": "79.0626",
    "RegionCode": "NAGP",
    "State": "Maharashtra",
    "SubRegionCode": "NAGP",
    "VenueAddress": "Shankarpur Road, New Khapri, Nagpur, Maharashtra 441108, India",
    "VenueCode": "CCKN",
    "VenueName": "Cine Chourangi: Khapri, Nagpur"
  },
  "CCMP": {
    "AvailableFormats": "3D|2D",
    "City": "Navi Mumbai",
    "Latitude": "18.9991",
    "Longitude": "73.123",
    "RegionCode": "MUMBAI",
    "State": "Maharashtra",
    "SubRegionCode": "THAN",
    "VenueAddress": "Plot 1/3 Shubham Commercial Complex, Sector 11 New Panvel, Near Punjab National Bank Near Ganaraj Auto Service And Petrol Pump, Navi Mumbai, Maharashtra 410206, India",
    "VenueCode": "CCMP",
    "VenueName": "Miraj Cineraj Cinemas: Panvel"
  },
  "CCPZ": {
    "AvailableFormats": "2D|3D",
    "City": "Gurugram (Gurgaon)",
    "Latitude": "28.479",
    "Longitude": "77.0801",
    "RegionCode": "NCR",
    "State": "NCR",
    "SubRegionCode": "GURG",
    "VenueAddress": "DLF City Centre Mall. 3rd Floor, DLF Phase 2, Mehrauli Gurgaon Road, Opposite Beverly Park, Gurugram (Gurgaon), NCR 122002, India",
    "VenueCode": "CCPZ",
    "VenueName": "PVR: City Centre, Gurgaon"
  },
  "CCZC": {
    "AvailableFormats": "2D",
    "City": "Chikhli",
    "Latitude": "20.3177",
    "Longitude": "76.2555",
    "RegionCode": "CHIH",
    "State": "Maharashtra",
    "SubRegionCode": "CHIH",
    "VenueAddress": "Jalna Road, Plot No: 12, Survey No 190 Chikhli, District Buldana, Chikhli, Maharashtra 443201, India",
    "VenueCode": "CCZC",
    "VenueName": "Cine Magic Cinema: Chikhli"
  },
  "CECB": {
    "AvailableFormats": "2D|3D",
    "City": "Bardoli",
    "Latitude": "21.118",
    "Longitude": "73.0958",
    "RegionCode": "BRDL",
    "State": "Gujarat",
    "SubRegionCode": "BRDL",
    "VenueAddress": "1st Floor Cineverse Complex, Bardoli Road, Near Vimal Agro Industries, Bardoli, Gujarat 394601, India",
    "VenueCode": "CECB",
    "VenueName": "Cineverse Cinema: Bardoli"
  },
  "CGAR": {
    "AvailableFormats": "2D",
    "City": "Ahmedabad",
    "Latitude": "23.0319",
    "Longitude": "72.5699",
    "RegionCode": "AHD",
    "State": "Gujarat",
    "SubRegionCode": "AHD",
    "VenueAddress": "Ellis Bridge,Muslim Society, Ashram Road,Navrangpura, Near Dena Bank, Ahmedabad, Gujarat 380009, India",
    "VenueCode": "CGAR",
    "VenueName": "City Gold: Ashram Road"
  },
  "CGKD": {
    "AvailableFormats": "2D",
    "City": "Kadi",
    "Latitude": "23.2914",
    "Longitude": "72.3363",
    "RegionCode": "KADI",
    "State": "Gujarat",
    "SubRegionCode": "KADI",
    "VenueAddress": "City Park Road, Bhaupura, Near Kadi Fire Station, Kadi, Gujarat 382715, India",
    "VenueCode": "CGKD",
    "VenueName": "City Gold: Kadi"
  },
  "CHKM": {
    "AvailableFormats": "2D",
    "City": "Kadalundi",
    "Latitude": "11.1549",
    "Longitude": "75.8473",
    "RegionCode": "KOZH",
    "State": "Kerala",
    "SubRegionCode": "KOZH",
    "VenueAddress": "8/567, Mannur Valavu, Mannur Valavu, Kadalundi, Kadalundi, Kerala 673328, India",
    "VenueCode": "CHKM",
    "VenueName": "Chithra Cineplex 4K RGB Laser dtsX: Mannur Valavu"
  },
  "CIBA": {
    "AvailableFormats": "2D",
    "City": "Korba",
    "Latitude": "22.3513",
    "Longitude": "82.6993",
    "RegionCode": "KRBA",
    "State": "Chhattisgarh",
    "SubRegionCode": "KRBA",
    "VenueAddress": "City Center Mall, B-10, Purani Basti, Power House Road, Korba, Chhattisgarh 495678, India",
    "VenueCode": "CIBA",
    "VenueName": "Cinemood Multiplex (Dolby Atmos Sound): Korba"
  },
  "CIPS": {
    "AvailableFormats": "2D|3D|4DX",
    "City": "Delhi",
    "Latitude": "28.5283",
    "Longitude": "77.2176",
    "RegionCode": "NCR",
    "State": "NCR",
    "SubRegionCode": "DELHI",
    "VenueAddress": "DLF Avenue, Saket District Centre, Plot-A4, Near Marriot Hotel, Saket, Delhi, NCR 110017, India",
    "VenueCode": "CIPS",
    "VenueName": "Cinepolis: DLF Avenue, Saket"
  },
  "CKUA": {
    "AvailableFormats": "2D|3D",
    "City": "Ahmedabad",
    "Latitude": "22.9998",
    "Longitude": "72.658",
    "RegionCode": "AHD",
    "State": "Gujarat",
    "SubRegionCode": "AHD",
    "VenueAddress": "3rd Floor, Near Nirant Cross Road, Metro Station Vastral, Ahmedabad, Gujarat 382418, India",
    "VenueCode": "CKUA",
    "VenueName": "Cinepolis: Kankubag, Vastral, Ahmedabad"
  },
  "CLLB": {
    "AvailableFormats": "2D",
    "City": "Bhagalpur",
    "Latitude": "25.2483",
    "Longitude": "86.9764",
    "RegionCode": "BHAG",
    "State": "Bihar",
    "SubRegionCode": "BHAG",
    "VenueAddress": "4th floor, H L Tower, DN Singh Road, Near Hari Om Laxmi Narayan Jewellers, Kharmanchak, PS, Jogsar, Adampur, Bhagalpur, Bihar 812002, India",
    "VenueCode": "CLLB",
    "VenueName": "Connplex Cinemas (Luxuriance): Bhagalpur"
  },
  "CMBE": {
    "AvailableFormats": "2D",
    "City": "Begusarai",
    "Latitude": "25.4371",
    "Longitude": "86.1382",
    "RegionCode": "BEGS",
    "State": "Bihar",
    "SubRegionCode": "BEGS",
    "VenueAddress": "Panhas Garden and Resort, Near Krishi Bazar Samiti,Sh -55, Begusarai, Bihar 851101, India",
    "VenueCode": "CMBE",
    "VenueName": "Chhotu Maharaj Cine Cafe: Begusarai"
  },
  "CMMA": {
    "AvailableFormats": "2D|3D",
    "City": "Hyderabad",
    "Latitude": "17.3538",
    "Longitude": "78.4206",
    "RegionCode": "HYD",
    "State": "Telangana",
    "SubRegionCode": "HYD",
    "VenueAddress": "Mantra Mall, Inner Ring Road, Royal Colony, Upparpally, Hyderabad, Telangana 500030, India",
    "VenueCode": "CMMA",
    "VenueName": "Cinepolis: Mantra Mall, Attapur"
  },
  "CMSA": {
    "AvailableFormats": "2D",
    "City": "Shrigonda",
    "Latitude": "18.6277",
    "Longitude": "74.6887",
    "RegionCode": "SHRI",
    "State": "Maharashtra",
    "SubRegionCode": "SHRI",
    "VenueAddress": "Pargaon, Ahmednagar Road, Shrigonda, Maharashtra 413701, India",
    "VenueCode": "CMSA",
    "VenueName": "Chhotu Maharaj Cine Cafe: Shrigonda"
  },
  "CMVP": {
    "AvailableFormats": "2D",
    "City": "Pune",
    "Latitude": "18.7887",
    "Longitude": "73.7717",
    "RegionCode": "PUNE",
    "State": "Maharashtra",
    "SubRegionCode": "PUNE",
    "VenueAddress": "Ground, Plot No.PAP-V-74, Vasuli, Chakan MIDC, Phase 2, Khed, Pune, Maharashtra 410501, India",
    "VenueCode": "CMVP",
    "VenueName": "Chhotu Maharaj Cine Cafe, Vasuli Phata: Pune"
  },
  "CNCL": {
    "AvailableFormats": "2D",
    "City": "Lonavala",
    "Latitude": "18.747",
    "Longitude": "73.409",
    "RegionCode": "LNVL",
    "State": "Maharashtra",
    "SubRegionCode": "LNVL",
    "VenueAddress": "Neelkamal, Siddharth Nagar, Near DTDC - Pune-Lonavala, Lonavala, Maharashtra 410401, India",
    "VenueCode": "CNCL",
    "VenueName": "Cinebliss Neelkamal Cinema: Lonavala"
  },
  "CNGE": {
    "AvailableFormats": "2D",
    "City": "Trivandrum",
    "Latitude": "8.57061",
    "Longitude": "76.8841",
    "RegionCode": "VKAL",
    "State": "Kerala",
    "SubRegionCode": "VKAL",
    "VenueAddress": "Green Field Stadium, Karyavattom.P.O, Near The Sports Hub, Trivandrum, Kerala 695581, India",
    "VenueCode": "CNGE",
    "VenueName": "Greenfield Moviemax Cinemas: Trivandrum"
  },
  "CNPT": {
    "AvailableFormats": "2D",
    "City": "Tirupur",
    "Latitude": "11.0989",
    "Longitude": "77.3775",
    "RegionCode": "TIRP",
    "State": "Tamil Nadu",
    "SubRegionCode": "TIRP",
    "VenueAddress": "Rakkiapalayam Road, Cheran Nagar, Valliammai Nagar, Near Hp Petrol Pump, Tirupur, Tamil Nadu 641606, India",
    "VenueCode": "CNPT",
    "VenueName": "Cine Park Theatre: Tirupur"
  },
  "CNWJ": {
    "AvailableFormats": "2D|3D",
    "City": "Jaipur",
    "Latitude": "26.8532",
    "Longitude": "75.8048",
    "RegionCode": "JAIP",
    "State": "Rajasthan",
    "SubRegionCode": "JAIP",
    "VenueAddress": "D-Block, Sector 4, JLN Marg, Malviya Nagar, Jaipur, Rajasthan 302017, India",
    "VenueCode": "CNWJ",
    "VenueName": "Cinepolis: World Trade Park Mall, Jaipur"
  },
  "COPG": {
    "AvailableFormats": "2D",
    "City": "Gandhinagar",
    "Latitude": "23.1848",
    "Longitude": "72.6229",
    "RegionCode": "GNAGAR",
    "State": "Gujarat",
    "SubRegionCode": "GNAGAR",
    "VenueAddress": "301-308, Shreeji Signature, Sargasan, Near Reliance Crossroad, Gandhinagar, Gujarat 382028, India",
    "VenueCode": "COPG",
    "VenueName": "Connplex Cinemas (Signature): Gandhinagar"
  },
  "CPCN": {
    "AvailableFormats": "2D",
    "City": "Bijainagar",
    "Latitude": "25.9298",
    "Longitude": "74.6475",
    "RegionCode": "BINW",
    "State": "Rajasthan",
    "SubRegionCode": "BINW",
    "VenueAddress": "Bus Stand Road, Opposite Hotel N Chandra Palace, Bijainagar, Rajasthan 305624, India",
    "VenueCode": "CPCN",
    "VenueName": "Cineplus Cinema: Bijainagar"
  },
  "CPJI": {
    "AvailableFormats": "3D|2D",
    "City": "Jaipur",
    "Latitude": "26.857",
    "Longitude": "75.8051",
    "RegionCode": "JAIP",
    "State": "Rajasthan",
    "SubRegionCode": "JAIP",
    "VenueAddress": "Cinepolis Jewel of India Jaipur, 1st Floor, KH. No.180,181,184,186, Horizon Tower, Jawahar Lal Nehru Marg, Jaipur, Rajasthan 302018, India",
    "VenueCode": "CPJI",
    "VenueName": "Cinepolis: Jewel of India, Jaipur (Newly Opened)"
  },
  "CPMF": {
    "AvailableFormats": "",
    "City": "Faridabad",
    "Latitude": "28.3874",
    "Longitude": "77.312",
    "RegionCode": "NCR",
    "State": "NCR",
    "SubRegionCode": "FARI",
    "VenueAddress": "Second Floor, Plot No. 05, Sector 20B, Near Radisson Blue Hotel, Faridabad, NCR 121001, India",
    "VenueCode": "CPMF",
    "VenueName": "Cinepolis: Pacific Mall, Faridabad"
  },
  "CPOV": {
    "AvailableFormats": "2D|3D",
    "City": "Vijayawada",
    "Latitude": "16.4888",
    "Longitude": "80.6752",
    "RegionCode": "KADU",
    "State": "Andhra Pradesh",
    "SubRegionCode": "KADU",
    "VenueAddress": "Cinepolis India Pvt Ltd, 3rd Floor, Power One Mall, Survery no -220/4 Kanuru gram, Bunder Road, District- Krishna, Vijayawada, Andhra Pradesh 520007, India",
    "VenueCode": "CPOV",
    "VenueName": "Cinepolis: Power One Mall, Vijayawada"
  },
  "CPUM": {
    "AvailableFormats": "2D|3D",
    "City": "Delhi",
    "Latitude": "28.7149",
    "Longitude": "77.1164",
    "RegionCode": "NCR",
    "State": "NCR",
    "SubRegionCode": "DELHI",
    "VenueAddress": "Unity One Rohini, Bhagawan Mahavir Marg, Rohini West Metro Station, Sector 10, Rohini, Delhi, NCR 110085, India",
    "VenueCode": "CPUM",
    "VenueName": "Cinepolis: Unity One Mall Rohini, Delhi"
  },
  "CRJA": {
    "AvailableFormats": "2D|3D",
    "City": "Jamnagar",
    "Latitude": "22.4717",
    "Longitude": "70.049",
    "RegionCode": "JAM",
    "State": "Gujarat",
    "SubRegionCode": "JAM",
    "VenueAddress": "4th Floor, Crystal Mall, Airport Road, Khodiyar Colony, Jamnagar, Gujarat 361005, India",
    "VenueCode": "CRJA",
    "VenueName": "INOX: Crystal Mall, Jamnagar"
  },
  "CSCV": {
    "AvailableFormats": "2D|3D",
    "City": "Vizag (Visakhapatnam)",
    "Latitude": "17.8083",
    "Longitude": "83.3751",
    "RegionCode": "VIZA",
    "State": "Andhra Pradesh",
    "SubRegionCode": "VIZA",
    "VenueAddress": "100 Feet Road, Madhurawada, Vizag (Visakhapatnam), Andhra Pradesh 530048, India",
    "VenueCode": "CSCV",
    "VenueName": "Cinepolis: Sreekanya Cineglitz, Madhurawada"
  },
  "CSSL": {
    "AvailableFormats": "2D",
    "City": "Asansol",
    "Latitude": "23.7034",
    "Longitude": "86.9483",
    "RegionCode": "ASANSOL",
    "State": "West Bengal",
    "SubRegionCode": "ASANSOL",
    "VenueAddress": "Sentrum Mall, Lions Club Road, Shristinagar, Asansol, West Bengal 713305, India",
    "VenueCode": "CSSL",
    "VenueName": "CineCosmo: Sentrum Mall, Asansol"
  },
  "CSUB": {
    "AvailableFormats": "2D",
    "City": "Cumbum",
    "Latitude": "9.75236",
    "Longitude": "77.2795",
    "RegionCode": "CMBM",
    "State": "Tamil Nadu",
    "SubRegionCode": "CMBM",
    "VenueAddress": "1587/3A, RJMS Danube Building, Uthamapuram, Theni, Cumbum, Tamil Nadu 625516, India",
    "VenueCode": "CSUB",
    "VenueName": "Cine Square Cinemas 2K DOLBY A/C: Cumbum"
  },
  "CTML": {
    "AvailableFormats": "2D|3D",
    "City": "Bilaspur",
    "Latitude": "22.0942",
    "Longitude": "82.1257",
    "RegionCode": "BILA",
    "State": "Chhattisgarh",
    "SubRegionCode": "BILA",
    "VenueAddress": "36 City Mall, Mungeli Road, Near Mangala Chowk, Bilaspur, Chhattisgarh 495001, India",
    "VenueCode": "CTML",
    "VenueName": "City36 Cinemas: Bilaspur"
  },
  "CTSR": {
    "AvailableFormats": "2D|3D",
    "City": "Pune",
    "Latitude": "18.4887",
    "Longitude": "73.8579",
    "RegionCode": "PUNE",
    "State": "Maharashtra",
    "SubRegionCode": "PUNE",
    "VenueAddress": "Market Yard, Pune Satara Road, Pune, Maharashtra 411037, India",
    "VenueCode": "CTSR",
    "VenueName": "City Pride: Satara Road"
  },
  "CVLG": {
    "AvailableFormats": "2D",
    "City": "Bengaluru",
    "Latitude": "12.9817",
    "Longitude": "77.5638",
    "RegionCode": "BANG",
    "State": "Karnataka",
    "SubRegionCode": "BANG",
    "VenueAddress": "3rd Floor, Lulu Mall, Rajajinagar, Bengaluru, Karnataka 560023, India",
    "VenueCode": "CVLG",
    "VenueName": "Cinepolis VIP: Lulu Mall, Bengaluru"
  },
  "CXBS": {
    "AvailableFormats": "2D",
    "City": "Bharuch",
    "Latitude": "21.719",
    "Longitude": "72.9784",
    "RegionCode": "BHAR",
    "State": "Gujarat",
    "SubRegionCode": "BHAR",
    "VenueAddress": "1st FloorShilpiMultiplex Building, ShilpiSquare, Dahej Bypass Road, Bharuch, Gujarat 392015, India",
    "VenueCode": "CXBS",
    "VenueName": "Connplex Cinemas: Bharuch Shilpi Square"
  },
  "CYKR": {
    "AvailableFormats": "2D|DOLBY CINEMA 2D|3D",
    "City": "Pune",
    "Latitude": "18.5502",
    "Longitude": "73.9379",
    "RegionCode": "PUNE",
    "State": "Maharashtra",
    "SubRegionCode": "PUNE",
    "VenueAddress": "Nyati Plaza, Thite Nagar, Kharadi, Pune, Maharashtra 411014, India",
    "VenueCode": "CYKR",
    "VenueName": "City Pride: Kharadi"
  },
  "DCAK": {
    "AvailableFormats": "2D",
    "City": "Kodungallur",
    "Latitude": "10.2315",
    "Longitude": "76.1974",
    "RegionCode": "KODU",
    "State": "Kerala",
    "SubRegionCode": "KODU",
    "VenueAddress": "Kalpaka Road, Star Nagar, Kodungallur, Kerala 680668, India",
    "VenueCode": "DCAK",
    "VenueName": "D CINEMAA: MUGHAL MALL BARCO 4K LASER, KODUNGALLUR"
  },
  "DCJN": {
    "AvailableFormats": "2D",
    "City": "Jhunjhunu",
    "Latitude": "28.128",
    "Longitude": "75.4101",
    "RegionCode": "JHUN",
    "State": "Rajasthan",
    "SubRegionCode": "JHUN",
    "VenueAddress": "2nd Floor, 109, MG Mall, Tall Road, Near Khemi Sati Bus Stand, Jhunjhunu, Rajasthan 333001, India",
    "VenueCode": "DCJN",
    "VenueName": "Dhishoom Cinemas: Jhunjhunu"
  },
  "DCTW": {
    "AvailableFormats": "2D",
    "City": "Thane",
    "Latitude": "19.254465",
    "Longitude": "72.985121",
    "RegionCode": "THNE",
    "State": "Maharashtra",
    "SubRegionCode": "THNE",
    "VenueAddress": "Hiranandani Estate, Villa Grand Road, Thane, Maharashtra 400607, India",
    "VenueCode": "DCTW",
    "VenueName": "Devgn CineX: The Walk, Thane"
  },
  "DEMP": {
    "AvailableFormats": "2D",
    "City": "Thrissur",
    "Latitude": "10.4243",
    "Longitude": "76.1315",
    "RegionCode": "MANR",
    "State": "Kerala",
    "SubRegionCode": "MANR",
    "VenueAddress": "Kanjany Peringottukara Rd, Peringottukara,Kerala, Near Kanadi Kavu Temple, Thrissur, Kerala 680565, India",
    "VenueCode": "DEMP",
    "VenueName": "Deva Cinemas 4K Dolby Full Atmos: Peringottukara"
  },
  "DHCL": {
    "AvailableFormats": "2D",
    "City": "Badaun",
    "Latitude": "28.0319",
    "Longitude": "79.125",
    "RegionCode": "BADN",
    "State": "Uttar Pradesh",
    "SubRegionCode": "BADN",
    "VenueAddress": "Dhishoom Cinemas, 3rd floor City Mall, Labela Road, Badaun, Uttar Pradesh 243601, India",
    "VenueCode": "DHCL",
    "VenueName": "Dhishoom Cinemas, City Mall: Budaun"
  },
  "DLCN": {
    "AvailableFormats": "2D",
    "City": "Nenmara",
    "Latitude": "10.5908",
    "Longitude": "76.5954",
    "RegionCode": "NENM",
    "State": "Kerala",
    "SubRegionCode": "NENM",
    "VenueAddress": "State Highway 58, MG Road, Nenmara, Kerala 678508, India",
    "VenueCode": "DLCN",
    "VenueName": "Dhanalakshmi Cinemas: Nenmara"
  },
  "DMKT": {
    "AvailableFormats": "2D",
    "City": "Nagapattinam",
    "Latitude": "10.7691",
    "Longitude": "79.8414",
    "RegionCode": "NGPT",
    "State": "Tamil Nadu",
    "SubRegionCode": "NGPT",
    "VenueAddress": "Public Office Road, ASN Colony, Elancheran Nagar, Nagapattinam, Tamil Nadu 611001, India",
    "VenueCode": "DMKT",
    "VenueName": "Devi Cinemas (Karthik Cinemas) A/C Dolby Atmos"
  },
  "DOMY": {
    "AvailableFormats": "3D|2D",
    "City": "Ayodhya",
    "Latitude": "26.784",
    "Longitude": "82.1443",
    "RegionCode": "FAZA",
    "State": "Uttar Pradesh",
    "SubRegionCode": "FAZA",
    "VenueAddress": "3rd Floor, Mall of Avadh, Ram Path, Ayodhya, Uttar Pradesh 224001, India",
    "VenueCode": "DOMY",
    "VenueName": "Dhishoom Cinemas: Ayodhya"
  },
  "DSCZ": {
    "AvailableFormats": "2D",
    "City": "Nabarangpur",
    "Latitude": "19.2204",
    "Longitude": "82.5404",
    "RegionCode": "NAGU",
    "State": "Odisha",
    "SubRegionCode": "NAGU",
    "VenueAddress": "Plot No. 1910, Katha No.122, Ichabatiguda, Nabarangpur, Odisha 764059, India",
    "VenueCode": "DSCZ",
    "VenueName": "DS3 Cinemas: Nabarangpur"
  },
  "DTVP": {
    "AvailableFormats": "2D",
    "City": "Vijayapura",
    "Latitude": "16.8269",
    "Longitude": "75.7164",
    "RegionCode": "VJPR",
    "State": "Karnataka",
    "SubRegionCode": "VJPR",
    "VenueAddress": "Tippu Sultan Circle, D.C Office Road, Near KSRTC Bus Stand, Vijayapura, Karnataka 586101, India",
    "VenueCode": "DTVP",
    "VenueName": "Dreamland A/C Dolby Theatre: Vijayapura (Bijapur)"
  },
  "DVPM": {
    "AvailableFormats": "2D",
    "City": "Pandharpur",
    "Latitude": "17.6802",
    "Longitude": "75.3231",
    "RegionCode": "PNDH",
    "State": "Maharashtra",
    "SubRegionCode": "PNDH",
    "VenueAddress": "Pune - Pandharpur Road, Market Yard, Gokul Nagar, Isbavi, Near New S.T. Stand, Pandharpur, Maharashtra 413304, India",
    "VenueCode": "DVPM",
    "VenueName": "DVP Square: Pandharpur"
  },
  "ECGN": {
    "AvailableFormats": "2D",
    "City": "Gondia",
    "Latitude": "21.4655",
    "Longitude": "80.1894",
    "RegionCode": "AMGN",
    "State": "Maharashtra",
    "SubRegionCode": "AMGN",
    "VenueAddress": "2nd Floor, Platinum Plaza, Ward No 9, Lohiya Ward, Pal Chowk, Rail Toly, Bhandarkar Road, Near State Bank of India, Gondia, Maharashtra 441614, India",
    "VenueCode": "ECGN",
    "VenueName": "EOS Cinemas: Gondia"
  },
  "EETS": {
    "AvailableFormats": "2D",
    "City": "Erode",
    "Latitude": "11.3288",
    "Longitude": "77.7098",
    "RegionCode": "EROD",
    "State": "Tamil Nadu",
    "SubRegionCode": "EROD",
    "VenueAddress": "468, Brough Road, Teachers Colony, Palayapalayam, Near Aanjaneyar Kovil, Erode, Tamil Nadu 638001, India",
    "VenueCode": "EETS",
    "VenueName": "Sangeetha Theatre A/C 4K Dolby 7.1: Erode"
  },
  "EMPN": {
    "AvailableFormats": "",
    "City": "Pulgaon",
    "Latitude": "20.725908",
    "Longitude": "78.31447",
    "RegionCode": "PUON",
    "State": "Maharashtra",
    "SubRegionCode": "PUON",
    "VenueAddress": "Empress Mall, Gandhi Nagar, Pulgaon Road, Near Pulgaon Railway Station, Pulgaon, Maharashtra 442303, India",
    "VenueCode": "EMPN",
    "VenueName": "Empress Cinema: Pulgaon"
  },
  "ESCP": {
    "AvailableFormats": "2D",
    "City": "Patna",
    "Latitude": "25.6177",
    "Longitude": "85.1486",
    "RegionCode": "PATN",
    "State": "Bihar",
    "SubRegionCode": "PATN",
    "VenueAddress": "East of Gandhi Maidan, Near Kargil Chowk, Bakarganj, Patna, Bihar 800004, India",
    "VenueCode": "ESCP",
    "VenueName": "Elphinstone Cinema"
  },
  "ETTR": {
    "AvailableFormats": "2D",
    "City": "Tirukoilur",
    "Latitude": "11.9683",
    "Longitude": "79.2055",
    "RegionCode": "TRKR",
    "State": "Tamil Nadu",
    "SubRegionCode": "TRKR",
    "VenueAddress": "SH 9, Thirukoilure, Near Government Hospital, Tirukoilur, Tamil Nadu 605757, India",
    "VenueCode": "ETTR",
    "VenueName": "Eshwari Thiraiarangam A/C 4K Dolby Atmos"
  },
  "EYLH": {
    "AvailableFormats": "2D",
    "City": "Ranchi",
    "Latitude": "23.3328",
    "Longitude": "85.3171",
    "RegionCode": "RANC",
    "State": "Jharkhand",
    "SubRegionCode": "RANC",
    "VenueAddress": "Hinoo Main Road, Shukla Colony,Opposite River View Restaurant, Ranchi, Jharkhand 834002, India",
    "VenueCode": "EYLH",
    "VenueName": "Eylex Cinemas: Hinoo"
  },
  "FFCX": {
    "AvailableFormats": "2D|3D",
    "City": "Indore",
    "Latitude": "22.6197",
    "Longitude": "75.8018",
    "RegionCode": "IND",
    "State": "Madhya Pradesh",
    "SubRegionCode": "IND",
    "VenueAddress": "Fundore Mall, 1st floor, Ahead of Rau Circle and Opposite Guru Kripa Restaurant, Near Red Maple Mashal Resort, Rau, Indore, Madhya Pradesh 453331, India",
    "VenueCode": "FFCX",
    "VenueName": "Fundore Cinemas, Rau: Indore"
  },
  "FMKY": {
    "AvailableFormats": "2D|3D",
    "City": "Kalyan",
    "Latitude": "19.2299",
    "Longitude": "73.1232",
    "RegionCode": "MUMBAI",
    "State": "Maharashtra",
    "SubRegionCode": "KALYAN",
    "VenueAddress": "2nd Floor, Metro Junction Mall, Netivali Village, Kalyan Shilphata Road, Kalyan, Maharashtra 421306, India",
    "VenueCode": "FMKY",
    "VenueName": "INOX: Metro Mall Junction, Kalyan (E)"
  },
  "FNAS": {
    "AvailableFormats": "2D|3D",
    "City": "Amritsar",
    "Latitude": "31.62",
    "Longitude": "74.9068",
    "RegionCode": "AMRI",
    "State": "Punjab",
    "SubRegionCode": "AMRI",
    "VenueAddress": "Alpha One, Level-2, G.T. Road, Maqbool Pura, Amritsar, Punjab 143006, India",
    "VenueCode": "FNAS",
    "VenueName": "Cinepolis: Nexus Amritsar"
  },
  "FNJJ": {
    "AvailableFormats": "2D|3D",
    "City": "Jaipur",
    "Latitude": "26.9422",
    "Longitude": "75.771",
    "RegionCode": "JAIP",
    "State": "Rajasthan",
    "SubRegionCode": "JAIP",
    "VenueAddress": "Jhotwara Road, Plot No: 1/1, Triton Mega Mall, Jaipur, Rajasthan 302012, India",
    "VenueCode": "FNJJ",
    "VenueName": "Cinepolis: Triton Mega Mall, Jaipur"
  },
  "FQSA": {
    "AvailableFormats": "2D",
    "City": "Navi Mumbai",
    "Latitude": "19.066",
    "Longitude": "73.0083",
    "RegionCode": "MUMBAI",
    "State": "Maharashtra",
    "SubRegionCode": "THAN",
    "VenueAddress": "Sector 3, Sanpada, Navi Mumbai, Maharashtra 400705, India",
    "VenueCode": "FQSA",
    "VenueName": "Fun Square Cinema: Sanpada"
  },
  "FSTD": {
    "AvailableFormats": "2D",
    "City": "Jaipur",
    "Latitude": "26.9606",
    "Longitude": "75.7786",
    "RegionCode": "JAIP",
    "State": "Rajasthan",
    "SubRegionCode": "JAIP",
    "VenueAddress": "Vidyadhar Nagar, Times square Mall, Jaipur, Rajasthan 302039, India",
    "VenueCode": "FSTD",
    "VenueName": "Funstar Cinemas: Vidhyadhar Nagar, Jaipur"
  },
  "GAGC": {
    "AvailableFormats": "2D",
    "City": "Delhi",
    "Latitude": "28.6964",
    "Longitude": "77.3149",
    "RegionCode": "NCR",
    "State": "NCR",
    "SubRegionCode": "DELHI",
    "VenueAddress": "Main Road Nand Nagari, Kanchipuram, Community Centre, Village Mandoli, Delhi, NCR 110093, India",
    "VenueCode": "GAGC",
    "VenueName": "Gagan Theatre: Nand Nagri, Delhi"
  },
  "GATR": {
    "AvailableFormats": "2D",
    "City": "Rajahmundry",
    "Latitude": "17.003",
    "Longitude": "81.775",
    "RegionCode": "RJMU",
    "State": "Andhra Pradesh",
    "SubRegionCode": "RJMU",
    "VenueAddress": "Syamalamba Temple Road, Mangalavaripeta, Near Sri Vinayaka Temple, Rajahmundry, Andhra Pradesh 533101, India",
    "VenueCode": "GATR",
    "VenueName": "Apsara Laser R.G.B 4K Dolby Atmos: Rajahmundry"
  },
  "GCBB": {
    "AvailableFormats": "2D",
    "City": "Barshi",
    "Latitude": "18.2463",
    "Longitude": "75.6966",
    "RegionCode": "BRHI",
    "State": "Maharashtra",
    "SubRegionCode": "BRHI",
    "VenueAddress": "M.P complex 1551/1/2CD, Near by Hiremath Hospital, Subhas Nagar, Agalgoan Road, Solapur, Barshi, Maharashtra 413401, India",
    "VenueCode": "GCBB",
    "VenueName": "Golden Cinemax: Barshi"
  },
  "GCFK": {
    "AvailableFormats": "2D",
    "City": "Kochi",
    "Latitude": "9.95385",
    "Longitude": "76.2477",
    "RegionCode": "PALY",
    "State": "Kerala",
    "SubRegionCode": "PALY",
    "VenueAddress": "Pandikudy, Anavathil, Thamaraparambu, Chullickal, Near Keraleswaram Siva Temple, Kochi, Kerala 682001, India",
    "VenueCode": "GCFK",
    "VenueName": "G Cinemas Fort Kochi: 4K Dolby ATMOS"
  },
  "GCMC": {
    "AvailableFormats": "2D",
    "City": "Nedumkandam",
    "Latitude": "9.83834",
    "Longitude": "77.1577",
    "RegionCode": "NEDU",
    "State": "Kerala",
    "SubRegionCode": "NEDU",
    "VenueAddress": "Munnar Kumily Highway, Nedumkandam, Near State Bank of India, Nedumkandam, Kerala 685553, India",
    "VenueCode": "GCMC",
    "VenueName": "G Cinemax Multiplex"
  },
  "GCRT": {
    "AvailableFormats": "2D|3D",
    "City": "Ratlam",
    "Latitude": "23.3301",
    "Longitude": "75.0371",
    "RegionCode": "KHCU",
    "State": "Madhya Pradesh",
    "SubRegionCode": "KHCU",
    "VenueAddress": "2nd Floor, Gayatri Cinema Campus, Mission Hospital Road, Fun Buzz, Ratlam, Madhya Pradesh 457001, India",
    "VenueCode": "GCRT",
    "VenueName": "Gayatri Cinemas: Ratlam"
  },
  "GDAK": {
    "AvailableFormats": "2D",
    "City": "Attibele",
    "Latitude": "12.779",
    "Longitude": "77.7734",
    "RegionCode": "ATTO",
    "State": "Karnataka",
    "SubRegionCode": "ATTO",
    "VenueAddress": "Hosur Main Road, Next to Ganesh Temple, Attibele, Karnataka 562107, India",
    "VenueCode": "GDAK",
    "VenueName": "Gowrishankar DOLBY 7.1 RGB Laser: Attibele"
  },
  "GDCS": {
    "AvailableFormats": "2D",
    "City": "Silchar",
    "Latitude": "24.8284",
    "Longitude": "92.8033",
    "RegionCode": "SIL",
    "State": "Assam",
    "SubRegionCode": "SIL",
    "VenueAddress": "Entertainment Plaza, Barak Cha Sramik Union Building Complex, Sadarghat Road, Waris Industries, Silchar, Assam 788001, India",
    "VenueCode": "GDCS",
    "VenueName": "Gold Cinema, Sadarghat Road: Silchar"
  },
  "GDTY": {
    "AvailableFormats": "2D",
    "City": "Bengaluru",
    "Latitude": "13.0216",
    "Longitude": "77.5513",
    "RegionCode": "BANG",
    "State": "Karnataka",
    "SubRegionCode": "BANG",
    "VenueAddress": "46/2, Industrial Surab, Tumkur Road, Yeshwanthpur, Near Yeshwantpur Railway Station, Bengaluru, Karnataka 560022, India",
    "VenueCode": "GDTY",
    "VenueName": "Goverdhan Theatre: Yeshwantpur"
  },
  "GGCV": {
    "AvailableFormats": "2D",
    "City": "Vapi",
    "Latitude": "20.3756",
    "Longitude": "72.9212",
    "RegionCode": "VAPI",
    "State": "Gujarat",
    "SubRegionCode": "VAPI",
    "VenueAddress": "CM O No 11, Geet Cinema, Gunjan Road, GIDC, Vapi, Gujarat 396195, India",
    "VenueCode": "GGCV",
    "VenueName": "Gunjan Geet Cinema: Vapi"
  },
  "GKCP": {
    "AvailableFormats": "2D|3D",
    "City": "Chennai",
    "Latitude": "13.0337",
    "Longitude": "80.1611",
    "RegionCode": "CHEN",
    "State": "Tamil Nadu",
    "SubRegionCode": "CHEN",
    "VenueAddress": "No 93, Lakshmi Nagar, Near Madurai Kannappar Mess, Chennai, Tamil Nadu 600116, India",
    "VenueCode": "GKCP",
    "VenueName": "GK Cinemas RGB + Laser SRL 4D: Porur"
  },
  "GLXJ": {
    "AvailableFormats": "2D",
    "City": "Jaipur",
    "Latitude": "26.8337",
    "Longitude": "75.7783",
    "RegionCode": "JAIP",
    "State": "Rajasthan",
    "SubRegionCode": "JAIP",
    "VenueAddress": "SP, 9, Shipra Path, RIICO Industrial Area, Mansarovar, Jaipur, Rajasthan 302020, India",
    "VenueCode": "GLXJ",
    "VenueName": "Galaxy Cinema Mansarovar: Jaipur"
  },
  "GODH": {
    "AvailableFormats": "2D",
    "City": "Dharamsala",
    "Latitude": "32.2143",
    "Longitude": "76.3171",
    "RegionCode": "DMSL",
    "State": "Himachal Pradesh",
    "SubRegionCode": "DMSL",
    "VenueAddress": "Maximus Mall, Mann Filling Station, Kotwali Bazar, Dharamsala, Himachal Pradesh 176215, India",
    "VenueCode": "GODH",
    "VenueName": "Gold Cinema: Dharamsala"
  },
  "GPMF": {
    "AvailableFormats": "2D",
    "City": "Faridkot",
    "Latitude": "30.6768",
    "Longitude": "74.7611",
    "RegionCode": "DKOT",
    "State": "Punjab",
    "SubRegionCode": "DKOT",
    "VenueAddress": "Gills Palace, Circular Road, Balbir Basti, Faridkot, Punjab 151203, India",
    "VenueCode": "GPMF",
    "VenueName": "Gill Plaza Multiplex: Faridkot"
  },
  "GRNG": {
    "AvailableFormats": "",
    "City": "Ghaziabad",
    "Latitude": "28.6549",
    "Longitude": "77.4356",
    "RegionCode": "NCR",
    "State": "NCR",
    "SubRegionCode": "GHAZ",
    "VenueAddress": "C-115, Grand Trunk Road, Model Town East, Gandhi Nagar, Nehru Nagar III, Ghaziabad, NCR 201001, India",
    "VenueCode": "GRNG",
    "VenueName": "Grand Cinemaz@Choudhry Mall"
  },
  "GTCK": {
    "AvailableFormats": "2D",
    "City": "Trivandrum",
    "Latitude": "8.60425",
    "Longitude": "76.8156",
    "RegionCode": "VKAL",
    "State": "Kerala",
    "SubRegionCode": "VKAL",
    "VenueAddress": "Puthukurichy (P.O), Kaniyapuram, Near V Tracks Cinemas, Trivandrum, Kerala 695303, India",
    "VenueCode": "GTCK",
    "VenueName": "GTracks Screen 2 Sony 4K: Kadinamkulam"
  },
  "GTTA": {
    "AvailableFormats": "2D",
    "City": "Falakata",
    "Latitude": "26.5179",
    "Longitude": "89.2024",
    "RegionCode": "FALA",
    "State": "West Bengal",
    "SubRegionCode": "FALA",
    "VenueAddress": "Babupara, Near Netaji Road, Opposite Falakata Park, Falakata, West Bengal 735211, India",
    "VenueCode": "GTTA",
    "VenueName": "Gouri Talkies: Falakata"
  },
  "GWEK": {
    "AvailableFormats": "2D",
    "City": "Kallara",
    "Latitude": "9.70018",
    "Longitude": "76.4759",
    "RegionCode": "ETTU",
    "State": "Kerala",
    "SubRegionCode": "ETTU",
    "VenueAddress": "Kallara - Neendoor - Pravattom Road, Neendoor, Kallara, Kerala 686611, India",
    "VenueCode": "GWEK",
    "VenueName": "Goodwill Cinemas 4K RGB LASER Atmos 3D: Kallara"
  },
  "HARK": {
    "AvailableFormats": "2D",
    "City": "Jalalabad",
    "Latitude": "30.6096",
    "Longitude": "74.2555",
    "RegionCode": "JLAB",
    "State": "Punjab",
    "SubRegionCode": "JLAB",
    "VenueAddress": "Fazilka  Ferozpur Road, Aman Nagar, Near Bus Stand, Jalalabad, Punjab 152024, India",
    "VenueCode": "HARK",
    "VenueName": "Harkishan Cinema: Jalalabad"
  },
  "HFSV": {
    "AvailableFormats": "2D",
    "City": "Vasco Da Gama",
    "Latitude": "15.4",
    "Longitude": "73.8143",
    "RegionCode": "GOA",
    "State": "Goa",
    "SubRegionCode": "VAGG",
    "VenueAddress": "Vaddem, New Vaddem, FL  Gomes Road, Near Corporation Bank, Vasco Da Gama, Goa 403802, India",
    "VenueCode": "HFSV",
    "VenueName": "Z Square Cine Shivam: Vasco Da Gama"
  },
  "HMMW": {
    "AvailableFormats": "2D|3D",
    "City": "Washim",
    "Latitude": "20.1096",
    "Longitude": "77.1269",
    "RegionCode": "WASH",
    "State": "Maharashtra",
    "SubRegionCode": "WASH",
    "VenueAddress": "Upper Ground Floor,B-Wing, Patni Commercial Comple, Washim, Maharashtra 444505, India",
    "VenueCode": "HMMW",
    "VenueName": "H2M Movieplex: Washim"
  },
  "HVCD": {
    "AvailableFormats": "",
    "City": "Gurugram (Gurgaon)",
    "Latitude": "28.403",
    "Longitude": "76.9739",
    "RegionCode": "NCR",
    "State": "NCR",
    "SubRegionCode": "GURG",
    "VenueAddress": "SVH Metro Street, 2nd Floor, Sector 83, Gurugram (Gurgaon), NCR 122012, India",
    "VenueCode": "HVCD",
    "VenueName": "Cineport Cinemas: SVH Metro Street, Sector 83"
  },
  "IDRM": {
    "AvailableFormats": "2D|3D",
    "City": "Bhubaneswar",
    "Latitude": "20.241",
    "Longitude": "85.7585",
    "RegionCode": "JATN",
    "State": "Odisha",
    "SubRegionCode": "JATN",
    "VenueAddress": "2nd Floor, DN Regalia Mall, IDCO Plot No 1/A, Bhagabanpur Industrial Estate, Patrapada, Bhubaneswar, Odisha 751019, India",
    "VenueCode": "IDRM",
    "VenueName": "INOX: DN Regalia Mall"
  },
  "ILKS": {
    "AvailableFormats": "2D",
    "City": "Hyderabad",
    "Latitude": "17.477071",
    "Longitude": "78.422257",
    "RegionCode": "HYD",
    "State": "Telangana",
    "SubRegionCode": "HYD",
    "VenueAddress": "2nd Floor, Lake Shore Mall, IDA Kukatpally, Hyderabad, Telangana 500072, India",
    "VenueCode": "ILKS",
    "VenueName": "PVR Lakeshore PXL 4K Laser ATMOS DTS-X Y Junction"
  },
  "IMMO": {
    "AvailableFormats": "2D|2D SCREEN X",
    "City": "Bengaluru",
    "Latitude": "13.0702",
    "Longitude": "77.5924",
    "RegionCode": "BANG",
    "State": "Karnataka",
    "SubRegionCode": "BANG",
    "VenueAddress": "239/240, Byatarayanapura, Yelahanka Taluk, Bellary Road, Bengaluru, Karnataka 560092, India",
    "VenueCode": "IMMO",
    "VenueName": "INOX: Megaplex Mall of Asia Bangalore"
  },
  "INAM": {
    "AvailableFormats": "3D|2D",
    "City": "Kota",
    "Latitude": "25.1619",
    "Longitude": "75.8635",
    "RegionCode": "KOTA",
    "State": "Rajasthan",
    "SubRegionCode": "KOTA",
    "VenueAddress": "Kota Ahluwalias Great Mall, DCM Road, Ramchandrapura, Dhanmandi, Kota, Rajasthan 324005, India",
    "VenueCode": "INAM",
    "VenueName": "INOX: Ahluwalias Great Mall, Kota"
  },
  "INBP": {
    "AvailableFormats": "2D|3D",
    "City": "Patna",
    "Latitude": "25.6175",
    "Longitude": "85.1352",
    "RegionCode": "PATN",
    "State": "Bihar",
    "SubRegionCode": "PATN",
    "VenueAddress": "3rd Floor, City Centre Mall, Lodipur, Patna, Bihar 800001, India",
    "VenueCode": "INBP",
    "VenueName": "INOX: City Centre Mall, Patna"
  },
  "INEM": {
    "AvailableFormats": "2D",
    "City": "Jaipur",
    "Latitude": "26.8954",
    "Longitude": "75.7486",
    "RegionCode": "JAIP",
    "State": "Rajasthan",
    "SubRegionCode": "JAIP",
    "VenueAddress": "3rd Floor, Elements Mall, Ajmer Road, Mahatma Gandhi Nagar, Jaipur, Rajasthan 302021, India",
    "VenueCode": "INEM",
    "VenueName": "INOX: Elements Mall, Ajmer Road"
  },
  "INHY": {
    "AvailableFormats": "2D",
    "City": "Hyderabad",
    "Latitude": "17.4196",
    "Longitude": "78.4486",
    "RegionCode": "HYD",
    "State": "Telangana",
    "SubRegionCode": "HYD",
    "VenueAddress": "4th Floor, GVK One Mall, Road No.1, Banjara Hills, Opposite Hyatt Place, Hyderabad, Telangana 500034, India",
    "VenueCode": "INHY",
    "VenueName": "INOX GVK One, Banjara Hills: Hyderabad"
  },
  "INMH": {
    "AvailableFormats": "2D|3D",
    "City": "Hyderabad",
    "Latitude": "17.3907",
    "Longitude": "78.4884",
    "RegionCode": "HYD",
    "State": "Telangana",
    "SubRegionCode": "HYD",
    "VenueAddress": "5th Floor, Maheshwari Parmeshwari Mall, Kachiguda Cross Roads, Hyderabad, Telangana 500027, India",
    "VenueCode": "INMH",
    "VenueName": "INOX: Maheshwari Parmeshwari Mall, Kachiguda"
  },
  "INPC": {
    "AvailableFormats": "2D|3D",
    "City": "Chandigarh",
    "Latitude": "30.7527",
    "Longitude": "76.9086",
    "RegionCode": "CHD",
    "State": "Chandigarh",
    "SubRegionCode": "CHD",
    "VenueAddress": "Amravati, Enclave, Chandigarh, Chandigarh 110065, India",
    "VenueCode": "INPC",
    "VenueName": "INOX: NH22 Mall, Amravati Enclave, Panchkula"
  },
  "INRC": {
    "AvailableFormats": "2D|3D|IMAX 2D",
    "City": "Mumbai",
    "Latitude": "19.0994",
    "Longitude": "72.9161",
    "RegionCode": "MUMBAI",
    "State": "Maharashtra",
    "SubRegionCode": "MCENT",
    "VenueAddress": "3rd Floor, R City Mall, Lal Bahadur Shastri Marg, Ghatkopar West, Mumbai, Maharashtra 400086, India",
    "VenueCode": "INRC",
    "VenueName": "INOX: R-City, Ghatkopar"
  },
  "INSE": {
    "AvailableFormats": "2D",
    "City": "Vadodara",
    "Latitude": "22.3229",
    "Longitude": "73.1866",
    "RegionCode": "VAD",
    "State": "Gujarat",
    "SubRegionCode": "VAD",
    "VenueAddress": "4th Floor, Seven Seas Mall, IPCL Circle, Fatehgunj, Jayesh Colony, Vadodara, Gujarat 390002, India",
    "VenueCode": "INSE",
    "VenueName": "Infinity 7 Seas Cinema: Fatehganj"
  },
  "INTO": {
    "AvailableFormats": "2D",
    "City": "Chennai",
    "Latitude": "12.8362",
    "Longitude": "80.2296",
    "RegionCode": "CHEN",
    "State": "Tamil Nadu",
    "SubRegionCode": "CHEN",
    "VenueAddress": "3rd Floor, The Marina Mall, Old Mahabalipuram Road, Egatoor, Navalur, Chennai, Tamil Nadu 603103, India",
    "VenueCode": "INTO",
    "VenueName": "INOX: The Marina Mall, OMR"
  },
  "INVR": {
    "AvailableFormats": "2D|3D",
    "City": "Surat",
    "Latitude": "21.1455",
    "Longitude": "72.7571",
    "RegionCode": "SURT",
    "State": "Gujarat",
    "SubRegionCode": "SURT",
    "VenueAddress": "3rd Floor, VR Mall, Dumas Road, Magdalla, Near Sunglass Hut, Surat, Gujarat 395007, India",
    "VenueCode": "INVR",
    "VenueName": "INOX: VR Mall, Surat"
  },
  "IOMH": {
    "AvailableFormats": "2D",
    "City": "Hyderabad",
    "Latitude": "17.405558",
    "Longitude": "78.496391",
    "RegionCode": "HYD",
    "State": "Telangana",
    "SubRegionCode": "HYD",
    "VenueAddress": "Odeon Mall, Chikkadpally, New Nallakunta, Hyderabad, Telangana 500020, India",
    "VenueCode": "IOMH",
    "VenueName": "INOX: Odeon 4K, LASER, ATMOS, DTS-X: RTC X Roads"
  },
  "IPMM": {
    "AvailableFormats": "2D",
    "City": "Mughalsarai",
    "Latitude": "25.2937",
    "Longitude": "83.0992",
    "RegionCode": "MGSI",
    "State": "Uttar Pradesh",
    "SubRegionCode": "MGSI",
    "VenueAddress": "Second Floor, IP Mughal Multiplex, Chandauli District, GT Road, Mughalsarai, Uttar Pradesh 232101, India",
    "VenueCode": "IPMM",
    "VenueName": "IP Cinemas: IP Mughal Multiplex"
  },
  "ISML": {
    "AvailableFormats": "2D|3D",
    "City": "Gurugram (Gurgaon)",
    "Latitude": "28.3925",
    "Longitude": "76.9676",
    "RegionCode": "NCR",
    "State": "NCR",
    "SubRegionCode": "GURG",
    "VenueAddress": "INOX Leisure Ltd, 2nd Floor, Sapphire Mall, Sector - 83, NH - 8, Gurugram (Gurgaon), NCR 122004, India",
    "VenueCode": "ISML",
    "VenueName": "INOX: Gurgaon Sapphire 83"
  },
  "IWPM": {
    "AvailableFormats": "2D",
    "City": "Gangtok",
    "Latitude": "27.3295",
    "Longitude": "88.612",
    "RegionCode": "GANG",
    "State": "Sikkim",
    "SubRegionCode": "GANG",
    "VenueAddress": "4th Floor, West Point Mall, DPH Road, Arithang, Gangtok, Sikkim 737101, India",
    "VenueCode": "IWPM",
    "VenueName": "INOX: West Point Mall, Gangtok-MN"
  },
  "JBCA": {
    "AvailableFormats": "2D",
    "City": "Trivandrum",
    "Latitude": "8.71232",
    "Longitude": "76.813",
    "RegionCode": "VKAL",
    "State": "Kerala",
    "SubRegionCode": "VKAL",
    "VenueAddress": "Alamcode, Near - Vazhiyorakkada Restaurant, Trivandrum, Kerala 695102, India",
    "VenueCode": "JBCA",
    "VenueName": "Thapasya Cine House: Attingal"
  },
  "JCMA": {
    "AvailableFormats": "2D|3D",
    "City": "Ambikapur",
    "Latitude": "23.1266",
    "Longitude": "83.1916",
    "RegionCode": "AMBI",
    "State": "Chhattisgarh",
    "SubRegionCode": "AMBI",
    "VenueAddress": "Devigang Road, Near Mahamaya Chowk, Ambikapur, Chhattisgarh 497001, India",
    "VenueCode": "JCMA",
    "VenueName": "JCM Multiplex: Ambikapur"
  },
  "JEMC": {
    "AvailableFormats": "2D",
    "City": "Chotila",
    "Latitude": "22.4669",
    "Longitude": "71.2678",
    "RegionCode": "CHOT",
    "State": "Gujarat",
    "SubRegionCode": "CHOT",
    "VenueAddress": "NH. 8, A Magharikhada, Near Bitter Beans Cafe and Food Zone, Chotila, Gujarat 363520, India",
    "VenueCode": "JEMC",
    "VenueName": "Jolly Enjoy Multiplex: Chotila"
  },
  "JJDA": {
    "AvailableFormats": "2D",
    "City": "Pathapatnam",
    "Latitude": "18.7523",
    "Longitude": "84.0947",
    "RegionCode": "PRKM",
    "State": "Andhra Pradesh",
    "SubRegionCode": "PRKM",
    "VenueAddress": "Jagatha Janani Theatre, Near St.Ann`s School, Srikakulam District, Pathapatnam, Andhra Pradesh 532213, India",
    "VenueCode": "JJDA",
    "VenueName": "J &J Cinemas A/C Dolby Atmos: Pathapatnam"
  },
  "JMEX": {
    "AvailableFormats": "2D",
    "City": "Malkangiri",
    "Latitude": "18.364",
    "Longitude": "81.9024",
    "RegionCode": "MALG",
    "State": "Odisha",
    "SubRegionCode": "MALG",
    "VenueAddress": "National Highway 326, Near Kaniska Automobiles, Malkangiri, Odisha 764045, India",
    "VenueCode": "JMEX",
    "VenueName": "J Max Cinemas: Malkangiri"
  },
  "JPCJ": {
    "AvailableFormats": "2D",
    "City": "Jalalabad",
    "Latitude": "30.6035",
    "Longitude": "74.2602",
    "RegionCode": "JLAB",
    "State": "Punjab",
    "SubRegionCode": "JLAB",
    "VenueAddress": "J P Cinema, Muktsar Road, Jalalabad, Punjab 152024, India",
    "VenueCode": "JPCJ",
    "VenueName": "JP Cinema: Jalalabad"
  },
  "JTCK": {
    "AvailableFormats": "2D",
    "City": "Kozhikode",
    "Latitude": "11.2898",
    "Longitude": "75.7751",
    "RegionCode": "KOZH",
    "State": "Kerala",
    "SubRegionCode": "KOZH",
    "VenueAddress": "East Hill, Near Center School, Opposite State Bank of India, Kozhikode, Kerala 673005, India",
    "VenueCode": "JTCK",
    "VenueName": "Regal Cinemas: Kozhikode"
  },
  "JTMN": {
    "AvailableFormats": "2D",
    "City": "Jaipur",
    "Latitude": "26.8372",
    "Longitude": "75.8339",
    "RegionCode": "JAIP",
    "State": "Rajasthan",
    "SubRegionCode": "JAIP",
    "VenueAddress": "INOX Leisure Ltd, 4th Floor, JTM Mall, Model Town, Malviya Nagar, Jaipur, Rajasthan 302017, India",
    "VenueCode": "JTMN",
    "VenueName": "INOX: JTM Mall, Malviya Nagar"
  },
  "JTRA": {
    "AvailableFormats": "2D",
    "City": "Anakapalle",
    "Latitude": "17.6927",
    "Longitude": "83.0018",
    "RegionCode": "ANKP",
    "State": "Andhra Pradesh",
    "SubRegionCode": "ANKP",
    "VenueAddress": "Narasinga Rao Peta, Near Tata Docomo Store, Anakapalle, Andhra Pradesh 531001, India",
    "VenueCode": "JTRA",
    "VenueName": "Ramachandra Theatre: Anakapalle"
  },
  "JTVK": {
    "AvailableFormats": "2D|3D",
    "City": "Tanuku",
    "Latitude": "16.7597",
    "Longitude": "81.691",
    "RegionCode": "TADP",
    "State": "Andhra Pradesh",
    "SubRegionCode": "TADP",
    "VenueAddress": "NH16, Ngo Colony, Palangi, Near Sri Vijayadurga temple, Tanuku, Andhra Pradesh 534211, India",
    "VenueCode": "JTVK",
    "VenueName": "Sri Venkateswara Complex: Tanuku"
  },
  "JYCM": {
    "AvailableFormats": "2D",
    "City": "Maslandapur",
    "Latitude": "22.8559",
    "Longitude": "88.7447",
    "RegionCode": "MASL",
    "State": "West Bengal",
    "SubRegionCode": "MASL",
    "VenueAddress": "Maslandapur-Tentulia Road, Opposite State Bank of India, Maslandapur, West Bengal 743289, India",
    "VenueCode": "JYCM",
    "VenueName": "Jyoti Cinema: Maslandapur"
  },
  "KACX": {
    "AvailableFormats": "2D",
    "City": "Raikot",
    "Latitude": "30.6484",
    "Longitude": "75.5757",
    "RegionCode": "RKOT",
    "State": "Punjab",
    "SubRegionCode": "RKOT",
    "VenueAddress": "Modern Footwear, 305/3888, Jagraon Road, Raikot, Raikot, Punjab 142034, India",
    "VenueCode": "KACX",
    "VenueName": "KVA Cineplex: Raikot"
  },
  "KAWS": {
    "AvailableFormats": "2D",
    "City": "Sonari",
    "Latitude": "27.028",
    "Longitude": "95.0312",
    "RegionCode": "SOYW",
    "State": "Assam",
    "SubRegionCode": "SOYW",
    "VenueAddress": "Kalpana Motors, Main Road, Sonari, Assam 785690, India",
    "VenueCode": "KAWS",
    "VenueName": "Kalpana Cine World: Sonari"
  },
  "KCKA": {
    "AvailableFormats": "2D",
    "City": "Korutla",
    "Latitude": "18.8262",
    "Longitude": "78.7134",
    "RegionCode": "KCKA",
    "State": "Telangana",
    "SubRegionCode": "KCKA",
    "VenueAddress": "Nizamabad - Mancherial Road, NH 63, Near LIC of India Satellite Ofc, Korutla, Telangana 505326, India",
    "VenueCode": "KCKA",
    "VenueName": "Kinnera Deluxe Theatre: Korutla"
  },
  "KCSR": {
    "AvailableFormats": "2D",
    "City": "Shrirampur",
    "Latitude": "19.6165",
    "Longitude": "74.6566",
    "RegionCode": "SHUR",
    "State": "Maharashtra",
    "SubRegionCode": "SHUR",
    "VenueAddress": "Kishor Cineplex, Shivaji Road, Shrirampur, Maharashtra 413709, India",
    "VenueCode": "KCSR",
    "VenueName": "Kishor Cineplex: Shrirampur"
  },
  "KFVU": {
    "AvailableFormats": "",
    "City": "Vrindavan",
    "Latitude": "27.56726",
    "Longitude": "77.63679",
    "RegionCode": "VRIN",
    "State": "Uttar Pradesh",
    "SubRegionCode": "VRIN",
    "VenueAddress": "Fun Land Vrindavan, Allhepur, Vrindavan, Uttar Pradesh 281121, India",
    "VenueCode": "KFVU",
    "VenueName": "Krishna Funland Cinema: Vrindavan"
  },
  "KKMA": {
    "AvailableFormats": "2D",
    "City": "Silvassa",
    "Latitude": "20.2716",
    "Longitude": "72.9916",
    "RegionCode": "SILV",
    "State": "Gujarat",
    "SubRegionCode": "SILV",
    "VenueAddress": "Prithviraj Chauhan Marg, Gujarat State Highway 185p, ,Opposite Yatri Niwas Hotel, Silvassa, Gujarat 396230, India",
    "VenueCode": "KKMA",
    "VenueName": "The Cine Station: Silvassa"
  },
  "KLMS": {
    "AvailableFormats": "2D",
    "City": "Kim",
    "Latitude": "21.4049",
    "Longitude": "72.9148",
    "RegionCode": "SURT",
    "State": "Gujarat",
    "SubRegionCode": "SURT",
    "VenueAddress": "3rd Floor, Laxmi Arcade, Kim Olpad Road, Mulad Village, Near Laxmi Bungalow, Kim, Gujarat 394110, India",
    "VenueCode": "KLMS",
    "VenueName": "KD Laxmi Multiplex (Dolby 7.1): Kim, Surat"
  },
  "KMRM": {
    "AvailableFormats": "2D",
    "City": "Chennai",
    "Latitude": "12.9718",
    "Longitude": "80.1922",
    "RegionCode": "CHEN",
    "State": "Tamil Nadu",
    "SubRegionCode": "CHEN",
    "VenueAddress": "No 364, Mount - Madipakkam Road, Ullagaram, Puzhuthivakkam, Opposite to Muthoot Finance, Chennai, Tamil Nadu 600091, India",
    "VenueCode": "KMRM",
    "VenueName": "Kumaran Theatre PROVA 4K DOLBY ATMOS: Madipakkam"
  },
  "KPPP": {
    "AvailableFormats": "2D",
    "City": "Gonda",
    "Latitude": "27.1487",
    "Longitude": "81.9585",
    "RegionCode": "GOND",
    "State": "Uttar Pradesh",
    "SubRegionCode": "GOND",
    "VenueAddress": "27 Circular Road, Veer Pur, Near Arkaan Petroleum, Gonda, Uttar Pradesh 271003, India",
    "VenueCode": "KPPP",
    "VenueName": "Kunwar Nova Cinemaz: Gonda"
  },
  "KRMT": {
    "AvailableFormats": "2D",
    "City": "Sakti",
    "Latitude": "22.0182",
    "Longitude": "82.9593",
    "RegionCode": "SAKT",
    "State": "Chhattisgarh",
    "SubRegionCode": "SAKT",
    "VenueAddress": "1st Floor, Jindal Plaza Station Road, Sakti Marg, Sakti, Chhattisgarh 495689, India",
    "VenueCode": "KRMT",
    "VenueName": "Krishna Metro Cinema: Sakti"
  },
  "KSGK": {
    "AvailableFormats": "2D",
    "City": "Vizag (Visakhapatnam)",
    "Latitude": "17.6864",
    "Longitude": "83.208",
    "RegionCode": "SABB",
    "State": "Andhra Pradesh",
    "SubRegionCode": "SABB",
    "VenueAddress": "Main Road, Old Gajuwaka, Near Mamata Hospital, Vizag (Visakhapatnam), Andhra Pradesh 530026, India",
    "VenueCode": "KSGK",
    "VenueName": "Sree Kanya Cinemas: Gajuwaka"
  },
  "KSTR": {
    "AvailableFormats": "2D",
    "City": "Alappuzha",
    "Latitude": "9.49605",
    "Longitude": "76.3412",
    "RegionCode": "CRTL",
    "State": "Kerala",
    "SubRegionCode": "CRTL",
    "VenueAddress": "CCNB Road, Erezha, Mullakkal, Near St George Lodgings, Alappuzha, Kerala 688011, India",
    "VenueCode": "KSTR",
    "VenueName": "Kairali Sree Theater: Alappuzha"
  },
  "KTKO": {
    "AvailableFormats": "2D",
    "City": "B.Kothakota",
    "Latitude": "13.6586",
    "Longitude": "78.2672",
    "RegionCode": "BKOT",
    "State": "Andhra Pradesh",
    "SubRegionCode": "BKOT",
    "VenueAddress": "Bypass Road, Handadi, B.Kothakota, Andhra Pradesh 517370, India",
    "VenueCode": "KTKO",
    "VenueName": "Sri Venkateswara Theater Dolby Digital"
  },
  "KYRR": {
    "AvailableFormats": "2D",
    "City": "Rayakottai",
    "Latitude": "12.5146",
    "Longitude": "78.032",
    "RegionCode": "RTTA",
    "State": "Tamil Nadu",
    "SubRegionCode": "RTTA",
    "VenueAddress": "4/424, Shoolagiri Main Road, Rahamath Colony, Rayakottai, Tamil Nadu 635116, India",
    "VenueCode": "KYRR",
    "VenueName": "Kamaraj Theatre: Rayakottai"
  },
  "LCKR": {
    "AvailableFormats": "2D",
    "City": "Kannur",
    "Latitude": "11.8798",
    "Longitude": "75.3691",
    "RegionCode": "KANN",
    "State": "Kerala",
    "SubRegionCode": "KANN",
    "VenueAddress": "Tulichery Road, Talap, Near Oriental Bank of commerce, Kannur, Kerala 670002, India",
    "VenueCode": "LCKR",
    "VenueName": "Liberty Cinema: Kannur (Ambili Theatre)"
  },
  "LCXA": {
    "AvailableFormats": "2D",
    "City": "Amgaon",
    "Latitude": "21.3759",
    "Longitude": "80.381",
    "RegionCode": "AMGN",
    "State": "Maharashtra",
    "SubRegionCode": "AMGN",
    "VenueAddress": "Liya Cinemax, OPP Bail Bazar, Amgaon, Maharashtra 441902, India",
    "VenueCode": "LCXA",
    "VenueName": "Liya Cinemax: Amgaon"
  },
  "LITH": {
    "AvailableFormats": "2D",
    "City": "Hinganghat",
    "Latitude": "20.5505",
    "Longitude": "78.8364",
    "RegionCode": "HINA",
    "State": "Maharashtra",
    "SubRegionCode": "HINA",
    "VenueAddress": "Civil Lines Road, Dag Borkhedi, Hinganghat, Maharashtra 442301, India",
    "VenueCode": "LITH",
    "VenueName": "Laxmi Talkies: Hinganghat"
  },
  "LKTK": {
    "AvailableFormats": "2D",
    "City": "Karur",
    "Latitude": "10.9587",
    "Longitude": "78.0829",
    "RegionCode": "KARU",
    "State": "Tamil Nadu",
    "SubRegionCode": "KARU",
    "VenueAddress": "No 61, Dindigul Road, Opposite Bombay sweets and Bakery, Karur, Tamil Nadu 639001, India",
    "VenueCode": "LKTK",
    "VenueName": "Lakshmi Raam Theatre: Karur"
  },
  "LMSR": {
    "AvailableFormats": "2D",
    "City": "Sehore",
    "Latitude": "23.2016",
    "Longitude": "77.0796",
    "RegionCode": "SEHO",
    "State": "Madhya Pradesh",
    "SubRegionCode": "SEHO",
    "VenueAddress": "42, Sindhi Colony, Main Road, Near State bank of India, Next to City Post Office, Sehore, Madhya Pradesh 466001, India",
    "VenueCode": "LMSR",
    "VenueName": "Lisa Multiplex Screen 2: Sehore"
  },
  "LTRM": {
    "AvailableFormats": "2D",
    "City": "Ratlam",
    "Latitude": "23.3291",
    "Longitude": "75.0381",
    "RegionCode": "KHCU",
    "State": "Madhya Pradesh",
    "SubRegionCode": "KHCU",
    "VenueAddress": "Lokendra Talkies Road, Sahar Sarai, Laxman Pura, Katju Nagar, Near Getwell Hospital and Research Center, Ratlam, Madhya Pradesh 457001, India",
    "VenueCode": "LTRM",
    "VenueName": "Shri Lokendra Talkies (Laser Projector): Ratlam"
  },
  "LYAS": {
    "AvailableFormats": "2D",
    "City": "Solapur",
    "Latitude": "17.6533",
    "Longitude": "75.9318",
    "RegionCode": "SOLA",
    "State": "Maharashtra",
    "SubRegionCode": "SOLA",
    "VenueAddress": "S.No.218/2 C, Adarsh Nagar, Akashwai Kendra Road, Opposite MIDC, Solapur, Maharashtra 413006, India",
    "VenueCode": "LYAS",
    "VenueName": "Laxminarayan Cinema: Solapur"
  },
  "MACB": {
    "AvailableFormats": "2D|3D",
    "City": "Banswara",
    "Latitude": "23.5537",
    "Longitude": "74.4264",
    "RegionCode": "BANS",
    "State": "Rajasthan",
    "SubRegionCode": "BANS",
    "VenueAddress": "3rd Floor, Nakshatra Mall, Udaipur Dungarpur Link Road, Banswara, Rajasthan 327001, India",
    "VenueCode": "MACB",
    "VenueName": "Mukta A2 Cinemas: Nakshatra Mall, Banswara"
  },
  "MAGH": {
    "AvailableFormats": "2D",
    "City": "Station Ghanpur",
    "Latitude": "17.8528",
    "Longitude": "79.3762",
    "RegionCode": "STGH",
    "State": "Telangana",
    "SubRegionCode": "STGH",
    "VenueAddress": "Palakurthy Road, Uppugal - Ghanpur Road, Station Ghanpur, Telangana 506144, India",
    "VenueCode": "MAGH",
    "VenueName": "Mahalaxmi Cinemas: Station Ghanpur"
  },
  "MALB": {
    "AvailableFormats": "",
    "City": "Bhopal",
    "Latitude": "23.2745",
    "Longitude": "77.3703",
    "RegionCode": "BHOP",
    "State": "Madhya Pradesh",
    "SubRegionCode": "BHOP",
    "VenueAddress": "Miraj Cinemas, 4th Floor, Alark Square, Lalghati, Bhopal, Madhya Pradesh 462030, India",
    "VenueCode": "MALB",
    "VenueName": "Miraj Cinemas: Alark Square, Bhopal"
  },
  "MAVC": {
    "AvailableFormats": "3D|2D",
    "City": "Vizag (Visakhapatnam)",
    "Latitude": "17.7088",
    "Longitude": "83.3002",
    "RegionCode": "SABB",
    "State": "Andhra Pradesh",
    "SubRegionCode": "SABB",
    "VenueAddress": "4th Floor,Town Main Road, Next Super Bazaar, Vizag, Andhra Pradesh 530002, India",
    "VenueCode": "MAVC",
    "VenueName": "Mukta A2 Cinemas: Vizag (ONLY RECLINERS AND SOFAS)"
  },
  "MBDC": {
    "AvailableFormats": "2D",
    "City": "Kozhikode",
    "Latitude": "11.2599",
    "Longitude": "75.787",
    "RegionCode": "KOZH",
    "State": "Kerala",
    "SubRegionCode": "KOZH",
    "VenueAddress": "3rd Floor, Mavoor Road, Near Mofussil Bus Stand, Kozhikode, Kerala 673004, India",
    "VenueCode": "MBDC",
    "VenueName": "Miraj Cinemas: Blue Diamond Mall, Calicut"
  },
  "MCBG": {
    "AvailableFormats": "2D|3D",
    "City": "Balaghat",
    "Latitude": "21.8173",
    "Longitude": "80.1916",
    "RegionCode": "BLGT",
    "State": "Madhya Pradesh",
    "SubRegionCode": "BLGT",
    "VenueAddress": "Kalptaru Mall, Chitragupt Nagar, Near Mahavir Chowk, Balaghat, Madhya Pradesh 481001, India",
    "VenueCode": "MCBG",
    "VenueName": "Miraj Cinemas: Balaghat"
  },
  "MCDV": {
    "AvailableFormats": "2D",
    "City": "Vizag (Visakhapatnam)",
    "Latitude": "17.6853",
    "Longitude": "83.2087",
    "RegionCode": "VIZA",
    "State": "Andhra Pradesh",
    "SubRegionCode": "VIZA",
    "VenueAddress": "Indira Colony, Gajuwaka, Near Alif Family Restaurant, Vizag (Visakhapatnam), Andhra Pradesh 500026, India",
    "VenueCode": "MCDV",
    "VenueName": "Mohini Cinemas Dolby Atmos: Gajuwaka"
  },
  "MCIW": {
    "AvailableFormats": "2D|IMAX 2D|3D",
    "City": "Mumbai",
    "Latitude": "19.0316",
    "Longitude": "72.8809",
    "RegionCode": "MUMBAI",
    "State": "Maharashtra",
    "SubRegionCode": "MCENT",
    "VenueAddress": "Ajmera I-Land Road, Bhakti Park, Wadala East, Mumbai, Maharashtra 400037, India",
    "VenueCode": "MCIW",
    "VenueName": "Miraj Cinemas: IMAX, Wadala"
  },
  "MCMA": {
    "AvailableFormats": "",
    "City": "Ahmedabad",
    "Latitude": "23.0147",
    "Longitude": "72.5965",
    "RegionCode": "AHD",
    "State": "Gujarat",
    "SubRegionCode": "AHD",
    "VenueAddress": "10, Acer Mall, Kankaria Road, Raipur, Opposite Big Bazaar, Ahmedabad, Gujarat 380001, India",
    "VenueCode": "MCMA",
    "VenueName": "Miraj Cinemas: City Pulse, Ahmedabad"
  },
  "MCPB": {
    "AvailableFormats": "2D|3D",
    "City": "Behror",
    "Latitude": "27.8948",
    "Longitude": "76.2976",
    "RegionCode": "BEHR",
    "State": "Rajasthan",
    "SubRegionCode": "BEHR",
    "VenueAddress": "Parv Plaza, 5th Floor, A-15 B1, Phase 1, Riico Industrial Area, Behror, Rajasthan 301701, India",
    "VenueCode": "MCPB",
    "VenueName": "Mukta A2 Cinemas: Parv Plaza, Behror"
  },
  "MCSL": {
    "AvailableFormats": "2D|3D",
    "City": "Kolkata",
    "Latitude": "22.5734",
    "Longitude": "88.4138",
    "RegionCode": "KOLK",
    "State": "West Bengal",
    "SubRegionCode": "KOLK",
    "VenueAddress": "No 177 and 178, Downtown Mall, IB Block, Sector 3, Kolkata, West Bengal 700106, India",
    "VenueCode": "MCSL",
    "VenueName": "Miraj Cinemas: Salt Lake, DownTown Mall, Kolkata"
  },
  "MCUS": {
    "AvailableFormats": "3D|2D",
    "City": "Alwar",
    "Latitude": "27.6024",
    "Longitude": "76.6314",
    "RegionCode": "ALWR",
    "State": "Rajasthan",
    "SubRegionCode": "ALWR",
    "VenueAddress": "Urban Square Galleria Mall, 4th Floor, Shalimar Apna Ghar, Gate No. 1, Near Telco Chowk, Alwar, Rajasthan 301001, India",
    "VenueCode": "MCUS",
    "VenueName": "Miraj Cinemas: Urban Square Galleria Mall, Alwar"
  },
  "MDGJ": {
    "AvailableFormats": "2D",
    "City": "Daltonganj",
    "Latitude": "24.0411",
    "Longitude": "84.0651",
    "RegionCode": "DATG",
    "State": "Jharkhand",
    "SubRegionCode": "DATG",
    "VenueAddress": "Near Jalihata Bus Stand, Daltonganj Road, Pahari Muhalla, Medininagar, Daltonganj, Jharkhand 822101, India",
    "VenueCode": "MDGJ",
    "VenueName": "Mohan Cinema: Daltonganj"
  },
  "MEMB": {
    "AvailableFormats": "2D",
    "City": "Baddi",
    "Latitude": "30.9255",
    "Longitude": "76.7993",
    "RegionCode": "BADD",
    "State": "Himachal Pradesh",
    "SubRegionCode": "BADD",
    "VenueAddress": "Motia Plaza, Barotiwala Road, Baddi, Himachal Pradesh 173205, India",
    "VenueCode": "MEMB",
    "VenueName": "Maurice Multiplex: Baddi"
  },
  "MFCP": {
    "AvailableFormats": "2D",
    "City": "Pattambi",
    "Latitude": "10.8044",
    "Longitude": "76.1948",
    "RegionCode": "PTMB",
    "State": "Kerala",
    "SubRegionCode": "PTMB",
    "VenueAddress": "Magic Frames, Vadakumuri, Pattambi, Kerala 679303, India",
    "VenueCode": "MFCP",
    "VenueName": "Magic Frames Cinemas 4K Laser 3D Atmos: Pattambi"
  },
  "MHNU": {
    "AvailableFormats": "3D|2D",
    "City": "Ghaziabad",
    "Latitude": "28.6453",
    "Longitude": "77.336",
    "RegionCode": "NCR",
    "State": "NCR",
    "SubRegionCode": "GHAZ",
    "VenueAddress": "Mahagun Metro Mall, Sector-3, Vaishali, Vaishali Sector 3, Ghaziabad, NCR 201012, India",
    "VenueCode": "MHNU",
    "VenueName": "PVR: Mahagun, Ghaziabad"
  },
  "MISC": {
    "AvailableFormats": "2D",
    "City": "Hooghly",
    "Latitude": "22.7766",
    "Longitude": "88.3252",
    "RegionCode": "CHDD",
    "State": "West Bengal",
    "SubRegionCode": "CHDD",
    "VenueAddress": "Grand Trunk Road, Sheoraphuli, Near St. John`s Academy, Hooghly, West Bengal 712223, India",
    "VenueCode": "MISC",
    "VenueName": "Mini Sushama Cinema: Sheoraphuli"
  },
  "MKBG": {
    "AvailableFormats": "2D",
    "City": "Bengaluru",
    "Latitude": "13.0036",
    "Longitude": "77.6362",
    "RegionCode": "HOKT",
    "State": "Karnataka",
    "SubRegionCode": "HOKT",
    "VenueAddress": "No.30, Banaswadi Main Road, Marutiseva Nagar, Bengaluru, Karnataka 560033, India",
    "VenueCode": "MKBG",
    "VenueName": "Mukunda 4K Dolby Atmos: M.S.Nagar"
  },
  "MLCA": {
    "AvailableFormats": "2D",
    "City": "Haripad",
    "Latitude": "9.28209",
    "Longitude": "76.4529",
    "RegionCode": "HRPD",
    "State": "Kerala",
    "SubRegionCode": "HRPD",
    "VenueAddress": "National Highway 66, Haripad, Alappuzha District, Near Madhava Junction, Haripad, Kerala 690514, India",
    "VenueCode": "MLCA",
    "VenueName": "M Lal Cineplexx (Aashirvad): Haripad"
  },
  "MMAP": {
    "AvailableFormats": "2D",
    "City": "Gurugram (Gurgaon)",
    "Latitude": "28.5115",
    "Longitude": "77.042",
    "RegionCode": "NCR",
    "State": "NCR",
    "SubRegionCode": "GURG",
    "VenueAddress": "Ansal Plaza, 3rd Floor, G Block, Sector 23, Palam Vihar, Gurugram (Gurgaon), NCR 122017, India",
    "VenueCode": "MMAP",
    "VenueName": "MovieMax: Ansal Plaza, Gurgaon"
  },
  "MMET": {
    "AvailableFormats": "2D|3D",
    "City": "Thane",
    "Latitude": "19.1871",
    "Longitude": "72.9625",
    "RegionCode": "MUMBAI",
    "State": "Maharashtra",
    "SubRegionCode": "THNE",
    "VenueAddress": "MovieMax, Eternity Mall, Teen Haath Naka, Junction of Eastern Express Highway,Lal Bahadur Shastri Road, Thane West, Thane, Maharashtra 400604, India",
    "VenueCode": "MMET",
    "VenueName": "MovieMax: Eternity Mall, Thane"
  },
  "MMMZ": {
    "AvailableFormats": "",
    "City": "Chickmagaluru",
    "Latitude": "13.3173",
    "Longitude": "75.7707",
    "RegionCode": "CHKA",
    "State": "Karnataka",
    "SubRegionCode": "CHKA",
    "VenueAddress": "KM Road, Next to bus stand, Kadur, Chickmagaluru, Karnataka 577101, India",
    "VenueCode": "MMMZ",
    "VenueName": "Milan Theatre: Chickmagaluru"
  },
  "MMWM": {
    "AvailableFormats": "2D",
    "City": "Thane",
    "Latitude": "19.2211",
    "Longitude": "72.977",
    "RegionCode": "MUMBAI",
    "State": "Maharashtra",
    "SubRegionCode": "THNE",
    "VenueAddress": "MovieMax, Diversion from Vidyapeeth Signal, Opposite Bank Of Baroda, Ghodbunder Road, Kapur Bawadi Naka, Near Safe Way Motors, Thane, Maharashtra 400601, India",
    "VenueCode": "MMWM",
    "VenueName": "MovieMax: Wonder Mall, Thane"
  },
  "MNJL": {
    "AvailableFormats": "",
    "City": "Ludhiana",
    "Latitude": "30.8963",
    "Longitude": "75.8665",
    "RegionCode": "LUDH",
    "State": "Punjab",
    "SubRegionCode": "LUDH",
    "VenueAddress": "Dholewal Chowk, G.T. Road, Ludhiana, Punjab 141001, India",
    "VenueCode": "MNJL",
    "VenueName": "Manju Theatre: Ludhiana"
  },
  "MPTN": {
    "AvailableFormats": "2D",
    "City": "Nandyal",
    "Latitude": "15.4857",
    "Longitude": "78.4871",
    "RegionCode": "NADY",
    "State": "Andhra Pradesh",
    "SubRegionCode": "NADY",
    "VenueAddress": "Atmakur Road, Telugu Peta, Near NTR Shopping Complex, Nandyal, Andhra Pradesh 518501, India",
    "VenueCode": "MPTN",
    "VenueName": "Mini Prathap A/C DTS: Nandyal"
  },
  "MRGK": {
    "AvailableFormats": "2D",
    "City": "Karwar",
    "Latitude": "14.8083",
    "Longitude": "74.1314",
    "RegionCode": "KWAR",
    "State": "Karnataka",
    "SubRegionCode": "KWAR",
    "VenueAddress": "Kaikini Road, Konekar Wada, Next to Bolas The Factory Outlet, Karwar, Karnataka 581301, India",
    "VenueCode": "MRGK",
    "VenueName": "Miraj Cinemas: Geetanjali, Karwar"
  },
  "MRSW": {
    "AvailableFormats": "2D|3D",
    "City": "Vadodara",
    "Latitude": "22.2803",
    "Longitude": "73.1497",
    "RegionCode": "VAD",
    "State": "Gujarat",
    "SubRegionCode": "VAD",
    "VenueAddress": "Plot No. 28, Ward No. 11, Next to Sun Pharma Research Center, Sun Pharma Road, Soudagar Park, Tandalja, Vadodara, Gujarat 390012, India",
    "VenueCode": "MRSW",
    "VenueName": "Miraj Cinemas: SWC Mall"
  },
  "MSMC": {
    "AvailableFormats": "2D",
    "City": "Biaora",
    "Latitude": "23.927",
    "Longitude": "76.9134",
    "RegionCode": "BIAR",
    "State": "Madhya Pradesh",
    "SubRegionCode": "BIAR",
    "VenueAddress": "NH2, Old AB Road, Krishna Puram Colony, Biaora, Madhya Pradesh 465674, India",
    "VenueCode": "MSMC",
    "VenueName": "MSM Cineplex: Biaora"
  },
  "MTCR": {
    "AvailableFormats": "2D|3D",
    "City": "Mumbai",
    "Latitude": "19.0455",
    "Longitude": "72.9031",
    "RegionCode": "MUMBAI",
    "State": "Maharashtra",
    "SubRegionCode": "MCENT",
    "VenueAddress": "Old Basant Cinema, Wadavali Village, Vasant Vihar Complex Road, Vasant Vihar Complex, Chembur, Mumbai, Maharashtra 400074, India",
    "VenueCode": "MTCR",
    "VenueName": "Movietime Cubic Mall: Chembur"
  },
  "MTKR": {
    "AvailableFormats": "2D|3D",
    "City": "Karnal",
    "Latitude": "29.6969",
    "Longitude": "77.0014",
    "RegionCode": "KARN",
    "State": "Haryana",
    "SubRegionCode": "KARN",
    "VenueAddress": "Plot No 1, 4th Floor, Super Mall, Sector 12, Part 1, Karnal, Haryana 132001, India",
    "VenueCode": "MTKR",
    "VenueName": "Movietime Cinemas: Karnal"
  },
  "MTPP": {
    "AvailableFormats": "3D|2D",
    "City": "Delhi",
    "Latitude": "28.7058",
    "Longitude": "77.1428",
    "RegionCode": "NCR",
    "State": "NCR",
    "SubRegionCode": "DELHI",
    "VenueAddress": "1st Floor, North Pacific Mall, KP Block Pitampura, Near Hotel City Park, Delhi, NCR 110088, India",
    "VenueCode": "MTPP",
    "VenueName": "Movietime Cinemas: Pitampura"
  },
  "MUCH": {
    "AvailableFormats": "2D",
    "City": "Champa",
    "Latitude": "22.0317",
    "Longitude": "82.6428",
    "RegionCode": "CHAM",
    "State": "Chhattisgarh",
    "SubRegionCode": "CHAM",
    "VenueAddress": "Near Post Office, Anicut Road, Champa Basti, Champa, Chhattisgarh 495671, India",
    "VenueCode": "MUCH",
    "VenueName": "Mukund`s Multiplex: Champa"
  },
  "MVRP": {
    "AvailableFormats": "2D",
    "City": "Rudrapur",
    "Latitude": "28.9757",
    "Longitude": "79.3866",
    "RegionCode": "RUDP",
    "State": "Uttarakhand",
    "SubRegionCode": "RUDP",
    "VenueAddress": "Ground Floor, Old Chawla Cinema, Gaba Chowk, Near Essar Petrol Pump, Rudrapur, Uttarakhand 263153, India",
    "VenueCode": "MVRP",
    "VenueName": "Movietime Cinemas: Rudrapur"
  },
  "MXGN": {
    "AvailableFormats": "2D",
    "City": "Noida",
    "Latitude": "28.5085",
    "Longitude": "77.3871",
    "RegionCode": "NCR",
    "State": "NCR",
    "SubRegionCode": "NOIDA",
    "VenueAddress": "MovieMax Gulshan One 29 Mall C-3, Sector 129, Noida, NCR 201301, India",
    "VenueCode": "MXGN",
    "VenueName": "MovieMax Laserplex: Gulshan One 29 Mall, Noida"
  },
  "MYDC": {
    "AvailableFormats": "2D",
    "City": "Doimukh",
    "Latitude": "27.1454",
    "Longitude": "93.7539",
    "RegionCode": "MDHK",
    "State": "Arunachal Pradesh",
    "SubRegionCode": "MDHK",
    "VenueAddress": "M.Y. Digital Cinema Hall, Opposite - Main Market, Doimukh, Arunachal Pradesh 791112, India",
    "VenueCode": "MYDC",
    "VenueName": "MY Digital Cinema: Doimukh"
  },
  "NACS": {
    "AvailableFormats": "2D",
    "City": "Korba",
    "Latitude": "22.3606",
    "Longitude": "82.7256",
    "RegionCode": "KRBA",
    "State": "Chhattisgarh",
    "SubRegionCode": "KRBA",
    "VenueAddress": "Ghantaghar Niharika Road, Subhash Chowk, Near New Madhu Sweets, M P Nagar, Korba, Chhattisgarh 495677, India",
    "VenueCode": "NACS",
    "VenueName": "Niharika Cinema 2K Laser & Dolby 7.1 Sound: Korba"
  },
  "NCCW": {
    "AvailableFormats": "2D",
    "City": "Wai",
    "Latitude": "17.9525",
    "Longitude": "73.8873",
    "RegionCode": "WAIP",
    "State": "Maharashtra",
    "SubRegionCode": "WAIP",
    "VenueAddress": "Chota Pul, Gangapuri Road, Danebazar, Ganpati Ali, Wai, Maharashtra 412803, India",
    "VenueCode": "NCCW",
    "VenueName": "New Chitra Cinema: Wai"
  },
  "NCMD": {
    "AvailableFormats": "2D",
    "City": "Doraha",
    "Latitude": "30.7867",
    "Longitude": "76.0467",
    "RegionCode": "DORH",
    "State": "Punjab",
    "SubRegionCode": "DORH",
    "VenueAddress": "West View Plaza, GT Road, Doraha, Near Mcdonalds, Doraha, Punjab 141421, India",
    "VenueCode": "NCMD",
    "VenueName": "Nova Cinemaz: Doraha"
  },
  "NEDD": {
    "AvailableFormats": "2D",
    "City": "Dehradun",
    "Latitude": "30.3265",
    "Longitude": "78.0434",
    "RegionCode": "DEH",
    "State": "Uttarakhand",
    "SubRegionCode": "DEH",
    "VenueAddress": "Rajpur Road, Gandhi Park, Chukkuwala, Near Police Station, Dehradun, Uttarakhand 248001, India",
    "VenueCode": "NEDD",
    "VenueName": "FUN Cinemas New Empire: Dehradun"
  },
  "NKCP": {
    "AvailableFormats": "2D",
    "City": "Jodhpur",
    "Latitude": "26.2772",
    "Longitude": "72.9952",
    "RegionCode": "JODH",
    "State": "Rajasthan",
    "SubRegionCode": "JODH",
    "VenueAddress": "6th Upper Chopasni Road, Akhaliya Vikas Yojana, Choraha, Jodhpur, Rajasthan 342001, India",
    "VenueCode": "NKCP",
    "VenueName": "New Kohinoor Cinema: Jodhpur"
  },
  "NNCZ": {
    "AvailableFormats": "2D",
    "City": "Moga",
    "Latitude": "30.8191",
    "Longitude": "75.2143",
    "RegionCode": "MOGA",
    "State": "Punjab",
    "SubRegionCode": "MOGA",
    "VenueAddress": "Kartar Nagar, G.T Road, Moga - Ludhiana Road, Near Bugipura Chowk, Moga, Punjab 142001, India",
    "VenueCode": "NNCZ",
    "VenueName": "Neelam Nova Cinemaz: Moga"
  },
  "NRMS": {
    "AvailableFormats": "2D",
    "City": "Solapur",
    "Latitude": "17.6353",
    "Longitude": "75.9043",
    "RegionCode": "SOLA",
    "State": "Maharashtra",
    "SubRegionCode": "SOLA",
    "VenueAddress": "Plot No 44, Vishal Nagar, Jule, Solapur, Maharashtra 413001, India",
    "VenueCode": "NRMS",
    "VenueName": "R Miniplex (A.C): Solapur"
  },
  "NTBY": {
    "AvailableFormats": "2D",
    "City": "Bellary",
    "Latitude": "15.1444",
    "Longitude": "76.9284",
    "RegionCode": "BLRY",
    "State": "Karnataka",
    "SubRegionCode": "BLRY",
    "VenueAddress": "Natraj Theater Royal Circle, Natraj Theater Complex, Old Katte Gudda, Cowl Bazaar, Bellary, Karnataka 583101, India",
    "VenueCode": "NTBY",
    "VenueName": "Natraj Theatre: Bellary"
  },
  "NTTE": {
    "AvailableFormats": "2D",
    "City": "Nandyal",
    "Latitude": "15.4859",
    "Longitude": "78.4858",
    "RegionCode": "NADY",
    "State": "Andhra Pradesh",
    "SubRegionCode": "NADY",
    "VenueAddress": "Telugu Peta, Atmakur Road, Near Karnataka Bank, Nandyal, Andhra Pradesh 518501, India",
    "VenueCode": "NTTE",
    "VenueName": "Nidhi Cinemas A/C 2K: Nandyal"
  },
  "NVTB": {
    "AvailableFormats": "",
    "City": "Bhilai",
    "Latitude": "21.2093",
    "Longitude": "81.369",
    "RegionCode": "BHILAI",
    "State": "Chhattisgarh",
    "SubRegionCode": "BHILAI",
    "VenueAddress": "Rajnagar, Camp 1, Near Annpurna Market, Bhilai, Chhattisgarh 490022, India",
    "VenueCode": "NVTB",
    "VenueName": "New Vasant Talkies: Bhilai"
  },
  "NYBH": {
    "AvailableFormats": "2D",
    "City": "Bahadurgarh",
    "Latitude": "28.6723",
    "Longitude": "76.8988",
    "RegionCode": "BAHD",
    "State": "Haryana",
    "SubRegionCode": "BAHD",
    "VenueAddress": "3rd Floor, Avenue 37 Mall, Avenue 37 Mall, HL City, Sector 37, Jhajjar, Bahadurgarh, Haryana 124507, India",
    "VenueCode": "NYBH",
    "VenueName": "NY Cinemas: Bahadurgarh"
  },
  "NYSA": {
    "AvailableFormats": "",
    "City": "Anand",
    "Latitude": "22.5396",
    "Longitude": "72.9252",
    "RegionCode": "AND",
    "State": "Gujarat",
    "SubRegionCode": "AND",
    "VenueAddress": "2nd Floor, Galleria Mall, Survey No. 385 (Paiki) and 386 (Paiki) situated at Moje Karamsad, Taluka Anand, Anand, Gujarat 388121, India",
    "VenueCode": "NYSA",
    "VenueName": "Devgn CineX: Galleria Mall, Anand"
  },
  "ODEN": {
    "AvailableFormats": "2D",
    "City": "Indore",
    "Latitude": "22.6636",
    "Longitude": "75.826",
    "RegionCode": "IND",
    "State": "Madhya Pradesh",
    "SubRegionCode": "IND",
    "VenueAddress": "Westend Mall, Rajendra Nagar, New Bijalpur, Indore, Madhya Pradesh 452012, India",
    "VenueCode": "ODEN",
    "VenueName": "Odeon Cinemas: Rajendra Nagar, Indore"
  },
  "OOCF": {
    "AvailableFormats": "2D",
    "City": "Faridkot",
    "Latitude": "30.702",
    "Longitude": "74.8131",
    "RegionCode": "DKOT",
    "State": "Punjab",
    "SubRegionCode": "DKOT",
    "VenueAddress": "National Highway 54, Pakka, Faridkot, Punjab 151203, India",
    "VenueCode": "OOCF",
    "VenueName": "OHM Omjee Cinemas: Faridkot"
  },
  "PADM": {
    "AvailableFormats": "2D",
    "City": "Kaithal",
    "Latitude": "29.801",
    "Longitude": "76.4151",
    "RegionCode": "KAIT",
    "State": "Haryana",
    "SubRegionCode": "KAIT",
    "VenueAddress": "Padma City Mall, Karnal Road, Near Vegetarian Village Restaurant, Kaithal, Haryana 136027, India",
    "VenueCode": "PADM",
    "VenueName": "Cine Square Cinemas: Kaithal"
  },
  "PAYD": {
    "AvailableFormats": "2D",
    "City": "Yellamanchili",
    "Latitude": "17.5497",
    "Longitude": "82.8519",
    "RegionCode": "YLMN",
    "State": "Andhra Pradesh",
    "SubRegionCode": "YLMN",
    "VenueAddress": "Shivalayam Road, Near Niharika Steel Shop, Yellamanchili, Andhra Pradesh 531055, India",
    "VenueCode": "PAYD",
    "VenueName": "Parameswari A/C DTS: Yellamanchili"
  },
  "PBTR": {
    "AvailableFormats": "2D",
    "City": "Raipur",
    "Latitude": "21.2501",
    "Longitude": "81.6306",
    "RegionCode": "RAIPUR",
    "State": "Chhattisgarh",
    "SubRegionCode": "RAIPUR",
    "VenueAddress": "Janta Colony, Gudhiyari, Station Road, Near Rathore Chowk, Raipur, Chhattisgarh 492009, India",
    "VenueCode": "PBTR",
    "VenueName": "Prabhat Talkies: Raipur"
  },
  "PCCH": {
    "AvailableFormats": "2D",
    "City": "Chandigarh",
    "Latitude": "30.7236",
    "Longitude": "76.7674",
    "RegionCode": "CHD",
    "State": "Chandigarh",
    "SubRegionCode": "CHD",
    "VenueAddress": "Sub. City Center, Sector 34-A, Chandigarh, Chandigarh 160022, India",
    "VenueCode": "PCCH",
    "VenueName": "Piccadily Square: Chandigarh"
  },
  "PCKH": {
    "AvailableFormats": "2D",
    "City": "Howrah",
    "Latitude": "22.5934",
    "Longitude": "88.323",
    "RegionCode": "HWRH",
    "State": "West Bengal",
    "SubRegionCode": "HWRH",
    "VenueAddress": "158/3, Belilious Road, Near UCO Bank - Belilious Road Branch., Howrah, West Bengal 711101, India",
    "VenueCode": "PCKH",
    "VenueName": "Puspashree Cinema: Kadamtala"
  },
  "PCPA": {
    "AvailableFormats": "2D|3D",
    "City": "Patiala",
    "Latitude": "30.3402",
    "Longitude": "76.4323",
    "RegionCode": "PATI",
    "State": "Punjab",
    "SubRegionCode": "PATI",
    "VenueAddress": "2nd Floor VRC City Multiplex Mall, Near ITBP Complex, Rajpura Road,  Heera Bagh Choura, Patiala, Punjab 147001, India",
    "VenueCode": "PCPA",
    "VenueName": "PVR: VRC, Patiala"
  },
  "PCSN": {
    "AvailableFormats": "2D|3D|4DX",
    "City": "Delhi",
    "Latitude": "28.6425",
    "Longitude": "77.1063",
    "RegionCode": "NCR",
    "State": "NCR",
    "SubRegionCode": "DELHI",
    "VenueAddress": "3, Pacific Mall, Tagore Garden, Subhash Nagar, Delhi, NCR 110018, India",
    "VenueCode": "PCSN",
    "VenueName": "PVR: Pacific, Subhash Nagar, Delhi"
  },
  "PDDD": {
    "AvailableFormats": "2D",
    "City": "Faizabad",
    "Latitude": "26.7786",
    "Longitude": "82.148",
    "RegionCode": "FAZA",
    "State": "Uttar Pradesh",
    "SubRegionCode": "FAZA",
    "VenueAddress": "250, Maqbara Fatehganj Road, Motibag, Near Faizabad Chowk, Shakti Vihar Colony, Faizabad, Uttar Pradesh 224001, India",
    "VenueCode": "PDDD",
    "VenueName": "Paradise DD Plex: Faizabad"
  },
  "PDRS": {
    "AvailableFormats": "2D|3D",
    "City": "Varanasi",
    "Latitude": "25.3098",
    "Longitude": "83.0029",
    "RegionCode": "VAR",
    "State": "Uttar Pradesh",
    "SubRegionCode": "VAR",
    "VenueAddress": "D 48/142, Luxa Road, Sidhgiribagh, Near Sri Basdev Baba Mandir, Varanasi, Uttar Pradesh 221001, India",
    "VenueCode": "PDRS",
    "VenueName": "PDR Cinemas: Varanasi"
  },
  "PEVM": {
    "AvailableFormats": "2D|3D",
    "City": "Vadodara",
    "Latitude": "22.2731",
    "Longitude": "73.1882",
    "RegionCode": "VAD",
    "State": "Gujarat",
    "SubRegionCode": "VAD",
    "VenueAddress": "3rd Floor, Eva The Mall, C/O Ramesh Patel Estate, Manjalpur, Near Saraswat Complex, Vadodara, Gujarat 390011, India",
    "VenueCode": "PEVM",
    "VenueName": "PVR: EVA Mall, Vadodara"
  },
  "PGGM": {
    "AvailableFormats": "",
    "City": "Gurugram (Gurgaon)",
    "Latitude": "28.4813",
    "Longitude": "77.0802",
    "RegionCode": "NCR",
    "State": "NCR",
    "SubRegionCode": "GURG",
    "VenueAddress": "3rd Floor, MGF Mall, MG Road, Near MG Road Metro Station, Gurugram (Gurgaon), NCR 122002, India",
    "VenueCode": "PGGM",
    "VenueName": "HDFC Millennia PVR: MGF, Gurugram"
  },
  "PHCS": {
    "AvailableFormats": "2D",
    "City": "Chanchal",
    "Latitude": "25.39",
    "Longitude": "88.0081",
    "RegionCode": "CCWC",
    "State": "West Bengal",
    "SubRegionCode": "CCWC",
    "VenueAddress": "Near Baromaa Bhandar, Samsi Road, Chanchal, West Bengal 732123, India",
    "VenueCode": "PHCS",
    "VenueName": "Puspa Cinema Hall: Chanchal"
  },
  "PIPO": {
    "AvailableFormats": "2D|3D",
    "City": "Pune",
    "Latitude": "18.5339",
    "Longitude": "73.83",
    "RegionCode": "PUNE",
    "State": "Maharashtra",
    "SubRegionCode": "PUNE",
    "VenueAddress": "Pavillion Mall, 3rd Floor, Senapati Bapat Road No.30, Laxmi Society, Model Colony, Shivajinagar, Pune, Maharashtra 411016, India",
    "VenueCode": "PIPO",
    "VenueName": "PVR: Icon, The Pavillion Pune"
  },
  "PJPM": {
    "AvailableFormats": "2D|3D",
    "City": "Muzaffarpur",
    "Latitude": "26.1019",
    "Longitude": "85.4079",
    "RegionCode": "MUZA",
    "State": "Bihar",
    "SubRegionCode": "MUZA",
    "VenueAddress": "3rd Floor, P and M Mall, Bela Road, Opposite - RK Ashram, Beside Industrial Area, BIADA complex, Muzaffarpur, Bihar 842001, India",
    "VenueCode": "PJPM",
    "VenueName": "PJP Cinemas: Muzaffarpur"
  },
  "PKPU": {
    "AvailableFormats": "3D|2D",
    "City": "Pune",
    "Latitude": "18.5013",
    "Longitude": "73.873",
    "RegionCode": "PUNE",
    "State": "Maharashtra",
    "SubRegionCode": "PUNE",
    "VenueAddress": "PVR Kumar Pacific Mall, 4th Floor S-42/43, Plot No. 387, NR7 LOV Shankar Seth Road, Swar Gate, Pune, Maharashtra 411002, India",
    "VenueCode": "PKPU",
    "VenueName": "PVR: Kumar Pacific, Pune"
  },
  "PLUS": {
    "AvailableFormats": "2D|3D",
    "City": "Mumbai",
    "Latitude": "19.0852",
    "Longitude": "72.8302",
    "RegionCode": "MUMBAI",
    "State": "Maharashtra",
    "SubRegionCode": "MWEST",
    "VenueAddress": "Lido Cinema, Juhu Tara Road, Santacruz (W), Opposite SNDT Womens University, Mumbai, Maharashtra 400049, India",
    "VenueCode": "PLUS",
    "VenueName": "PVR: Lido, Juhu Mumbai"
  },
  "PMCA": {
    "AvailableFormats": "2D",
    "City": "Rajpura",
    "Latitude": "30.5055",
    "Longitude": "76.6332",
    "RegionCode": "RARA",
    "State": "Punjab",
    "SubRegionCode": "RARA",
    "VenueAddress": "Prime Hub, Pehar Kalan, NH 7, Near Domino`s Pizza Prime Hub, Rajpura, Punjab 140401, India",
    "VenueCode": "PMCA",
    "VenueName": "Prime Cinema: Rajpura"
  },
  "PMMS": {
    "AvailableFormats": "2D|3D",
    "City": "Delhi",
    "Latitude": "28.7028",
    "Longitude": "77.1585",
    "RegionCode": "NCR",
    "State": "NCR",
    "SubRegionCode": "DELHI",
    "VenueAddress": "4th Floor, A-Block, DLF City Centre Mall, Community Centre, Shalimar Bagh, Delhi, NCR 110088, India",
    "VenueCode": "PMMS",
    "VenueName": "PVR: Shalimar Bagh"
  },
  "PMSR": {
    "AvailableFormats": "2D|3D",
    "City": "Bengaluru",
    "Latitude": "13.0452",
    "Longitude": "77.6266",
    "RegionCode": "HOKT",
    "State": "Karnataka",
    "SubRegionCode": "HOKT",
    "VenueAddress": "5th Floor, MSR Elements Regalia Mall, 100 Main Tanisandra Road, Kasba Hobli, Nagavara, Bengaluru, Karnataka 560077, India",
    "VenueCode": "PMSR",
    "VenueName": "PVR: MSR Elements Mall, Tanisandhra Main Road"
  },
  "PNSM": {
    "AvailableFormats": "2D|3D",
    "City": "Mysuru (Mysore)",
    "Latitude": "12.3187",
    "Longitude": "76.6655",
    "RegionCode": "MYS",
    "State": "Karnataka",
    "SubRegionCode": "MYS",
    "VenueAddress": "3rd Floor, Hyderali Road, Mysuru (Mysore), Karnataka 570010, India",
    "VenueCode": "PNSM",
    "VenueName": "PVR: Nexus Mall Centre City, Mysuru"
  },
  "PPAK": {
    "AvailableFormats": "2D",
    "City": "Kollam",
    "Latitude": "8.90595",
    "Longitude": "76.6233",
    "RegionCode": "KOLM",
    "State": "Kerala",
    "SubRegionCode": "KOLM",
    "VenueAddress": "National Highway 744, Karicode, Peroor, Kottamkara, Kerala, Kollam, Kerala 691005, India",
    "VenueCode": "PPAK",
    "VenueName": "Partha Movie Houses 4K ATMOS"
  },
  "PPMN": {
    "AvailableFormats": "2D|3D",
    "City": "Moradabad",
    "Latitude": "28.8792",
    "Longitude": "78.7397",
    "RegionCode": "MORA",
    "State": "Uttar Pradesh",
    "SubRegionCode": "MORA",
    "VenueAddress": "Parshvnath Mall, V.C. Road, Ashiyana Colony, Moradabad, Uttar Pradesh 244001, India",
    "VenueCode": "PPMN",
    "VenueName": "PVR: Parshvanath, Moradabad"
  },
  "PRAA": {
    "AvailableFormats": "2D",
    "City": "Bareilly",
    "Latitude": "28.3475",
    "Longitude": "79.4246",
    "RegionCode": "BARE",
    "State": "Uttar Pradesh",
    "SubRegionCode": "BARE",
    "VenueAddress": "110 Civil Lines, NH 24, Opposite Indian Oil Petrol Pump, Bareilly, Uttar Pradesh 243001, India",
    "VenueCode": "PRAA",
    "VenueName": "Prabha Theatre (Newly Renovated): Bareilly"
  },
  "PRDC": {
    "AvailableFormats": "2D",
    "City": "Dasuya",
    "Latitude": "31.8225",
    "Longitude": "75.6601",
    "RegionCode": "DASU",
    "State": "Punjab",
    "SubRegionCode": "DASU",
    "VenueAddress": "Adarsh Nagar, GT Road, Dasuya, Punjab 144205, India",
    "VenueCode": "PRDC",
    "VenueName": "President Cinema: Dasuya"
  },
  "PRMC": {
    "AvailableFormats": "2D",
    "City": "Kollam",
    "Latitude": "8.88456",
    "Longitude": "76.5948",
    "RegionCode": "KOLM",
    "State": "Kerala",
    "SubRegionCode": "KOLM",
    "VenueAddress": "Karbala, YMCA Road, Near Cantonment Post Office, Kollam, Kerala 691001, India",
    "VenueCode": "PRMC",
    "VenueName": "Pranavam A/C Cinemas 4K: Kollam"
  },
  "PRVN": {
    "AvailableFormats": "2D|3D",
    "City": "Nizamabad",
    "Latitude": "18.6692",
    "Longitude": "78.1053",
    "RegionCode": "NIZA",
    "State": "Telangana",
    "SubRegionCode": "NIZA",
    "VenueAddress": "3th Floor, VENU MALL H. NO. 5-6-661, Pragathi Nagar, Nizamabad, Telangana 503003, India",
    "VenueCode": "PRVN",
    "VenueName": "PVR: Venu Mall, Nizamabad"
  },