{
  "AACM": {
    "AvailableFormats": "2D",
    "City": "Raniganj",
    "Latitude": "23.6272",
    "Longitude": "87.1138",
    "RegionCode": "RNGJ",
    "State": "West Bengal",
    "SubRegionCode": "RNGJ",
    "VenueAddress": "N S B Road, P/O Raniganj, Raniganj, West Bengal 713347, India",
    "VenueCode": "AACM",
    "VenueName": "Anjana Chitra Mandir: Raniganj"
  },
  "AANS": {
    "AvailableFormats": "2D",
    "City": "Sawantwadi",
    "Latitude": "15.9241",
    "Longitude": "73.8362",
    "RegionCode": "ZARA",
    "State": "Maharashtra",
    "SubRegionCode": "ZAEA",
    "VenueAddress": "Survey No.45, 1A-14/15/16, Vengurla-Belgaum Road, Nirukhe, Kolgaon, Taluka Sawantwadi, District Sindudurga, Sawantwadi, Maharashtra 416510, India",
    "VenueCode": "AANS",
    "VenueName": "Arya Nova Cinemaz: Sawantwadi"
  },
  "ABCC": {
    "AvailableFormats": "2D",
    "City": "Chandrapur",
    "Latitude": "19.9469",
    "Longitude": "79.2949",
    "RegionCode": "CHAN",
    "State": "Maharashtra",
    "SubRegionCode": "CHAN",
    "VenueAddress": "Ekori Ward, Near Gandhi Chowk, Chandrapur, Maharashtra 442402, India",
    "VenueCode": "ABCC",
    "VenueName": "Cinejoy Cinema: Chandrapur"
  },
  "ABND": {
    "AvailableFormats": "2D",
    "City": "Nandyal",
    "Latitude": "15.4858",
    "Longitude": "78.4861",
    "RegionCode": "NADY",
    "State": "Andhra Pradesh",
    "SubRegionCode": "NADY",
    "VenueAddress": "Ramnath Cine Complex, Telugu Peta, Nandyal, Andhra Pradesh 518501, India",
    "VenueCode": "ABND",
    "VenueName": "Abhiram Theater: Nandyal"
  },
  "ACBD": {
    "AvailableFormats": "",
    "City": "Basantpur",
    "FirstTracked": "2026-07-14",
    "Latitude": "26.1698",
    "Longitude": "84.6684",
    "RegionCode": "BABA",
    "State": "Bihar",
    "SubRegionCode": "BABA",
    "VenueAddress": "Abhishek Cineplex, Basant Pur, Siwan, Basantpur, Bihar 841406, India",
    "VenueCode": "ACBD",
    "VenueName": "Abhishek Cineplex: Basantpur"
  },
  "ACHP": {
    "AvailableFormats": "2D",
    "City": "Pasighat",
    "Latitude": "28.0594",
    "Longitude": "95.3313",
    "RegionCode": "PSHG",
    "State": "Arunachal Pradesh",
    "SubRegionCode": "PSHG",
    "VenueAddress": "Aarun Tamuk Complex, Main Market Pasighat, Near Arunachal Pradesh Rural Bank,Pasighat, Arunachal Pradesh 791102, India",
    "VenueCode": "ACHP",
    "VenueName": "Abor Cinema Hall: Pasighat"
  },
  "ACKL": {
    "AvailableFormats": "2D",
    "City": "Khila",
    "Latitude": "22.6733",
    "Longitude": "88.0003",
    "RegionCode": "KHIL",
    "State": "West Bengal",
    "SubRegionCode": "KHIL",
    "VenueAddress": "Udaynarayanpur, Munshirhat Road, Khila, West Bengal 711410, India",
    "VenueCode": "ACKL",
    "VenueName": "Aparupa Cinema: Khila"
  },
  "ACNB": {
    "AvailableFormats": "2D|3D",
    "City": "Barasat",
    "Latitude": "22.7199",
    "Longitude": "88.4875",
    "RegionCode": "BSRT",
    "State": "West Bengal",
    "SubRegionCode": "BSRT",
    "VenueAddress": "Bus Stand, 125/1, Jessore Road, Champadali, Barasat, West Bengal 700124, India",
    "VenueCode": "ACNB",
    "VenueName": "SSR Cinemas, Suncity Mall: Barasat"
  },
  "ACRT": {
    "AvailableFormats": "2D",
    "City": "Haliya",
    "Latitude": "16.7799",
    "Longitude": "79.3224",
    "RegionCode": "HALI",
    "State": "Telangana",
    "SubRegionCode": "HALI",
    "VenueAddress": "NH 565, Near ICICI Bank ATM, Haliya, Telangana 508377, India",
    "VenueCode": "ACRT",
    "VenueName": "Acchi Reddy Theater A/c Dolby DTS: Haliya"
  },
  "ACVZ": {
    "AvailableFormats": "",
    "City": "Vizianagaram",
    "FirstTracked": "2026-07-14",
    "Latitude": "18.118046",
    "Longitude": "83.411736",
    "RegionCode": "JAMI",
    "State": "Andhra Pradesh",
    "SubRegionCode": "JAMI",
    "VenueAddress": "New Poorna Road, Park Gate Area, Near Two Town Police Station, Vizianagaram, Andhra Pradesh 535001, India",
    "VenueCode": "ACVZ",
    "VenueName": "Aditya Theatre A/c Dts: Vizianagaram"
  },
  "ADCU": {
    "AvailableFormats": "2D",
    "City": "Ujhani",
    "Latitude": "28.0031",
    "Longitude": "79.0155",
    "RegionCode": "UJHA",
    "State": "Uttar Pradesh",
    "SubRegionCode": "UJHA",
    "VenueAddress": "Mohalla Gaddi Tola Budaun Road, Near Krishna Colony, Ujhani, Uttar Pradesh 243639, India",
    "VenueCode": "ADCU",
    "VenueName": "ADS Cineplex: Ujhani"
  },
  "AEST": {
    "AvailableFormats": "2D",
    "City": "Satna",
    "Latitude": "24.5809",
    "Longitude": "80.7732",
    "RegionCode": "SATN",
    "State": "Madhya Pradesh",
    "SubRegionCode": "SATN",
    "VenueAddress": "Chandi Dai Temple Road Karhi, Satdhar, Near Bharat Petroleum, Satna, Madhya Pradesh 485441, India",
    "VenueCode": "AEST",
    "VenueName": "A - 4 Entertainment: Satna"
  },
  "AICF": {
    "AvailableFormats": "2D",
    "City": "Guwahati",
    "Latitude": "26.1322",
    "Longitude": "91.8207",
    "RegionCode": "GUW",
    "State": "Assam",
    "SubRegionCode": "GUW",
    "VenueAddress": "2nd Floor, Asffdc Limited, Shilpgram Road, Panjabari, Guwahati, Assam 781037, India",
    "VenueCode": "AICF",
    "VenueName": "Aideo Cinema Hall: ASFFDC, Panjabari, Guwahati"
  },
  "AKMD": {
    "AvailableFormats": "2D|3D",
    "City": "Chhindwara",
    "Latitude": "22.0607",
    "Longitude": "78.9455",
    "RegionCode": "CHIN",
    "State": "Madhya Pradesh",
    "SubRegionCode": "CHIN",
    "VenueAddress": "Alka Multiplex Alka Cinema Compound, Bus Stand to Station Road, Chhindwara, Madhya Pradesh 480001, India",
    "VenueCode": "AKMD",
    "VenueName": "Alka Multiplex: Chhindwara"
  },
  "ALAN": {
    "AvailableFormats": "",
    "City": "Gajendragarh",
    "FirstTracked": "2026-07-14",
    "Latitude": "15.735611",
    "Longitude": "75.96569",
    "RegionCode": "GJGH",
    "State": "Karnataka",
    "SubRegionCode": "GJGH",
    "VenueAddress": "SH 30, Near Shree Guru Sevalal Temple, Gajendragarh, Karnataka 582114, India",
    "VenueCode": "ALAN",
    "VenueName": "Alankar Theatre: Gajendragarh"
  },
  "ALUC": {
    "AvailableFormats": "2D",
    "City": "Hyderabad",
    "Latitude": "17.3896272",
    "Longitude": "78.3438856",
    "RegionCode": "HYD",
    "State": "Telangana",
    "SubRegionCode": "HYD",
    "VenueAddress": "Plot 20, Adjacent to Allu Studios, Power Welfare Society, Narsingi, Hyderabad, Telangana 500075, India",
    "VenueCode": "ALUC",
    "VenueName": "ALLU Cinemas: Kokapet"
  },
  "AMCJ": {
    "AvailableFormats": "",
    "City": "Jamnagar",
    "FirstTracked": "2026-07-14",
    "Latitude": "22.47459",
    "Longitude": "70.06799",
    "RegionCode": "JAM",
    "State": "Gujarat",
    "SubRegionCode": "JAM",
    "VenueAddress": "Near Modern Market, Pandit Nehru Road, Opposite Hotel Foliage, Jamnagar, Gujarat 361008, India",
    "VenueCode": "AMCJ",
    "VenueName": "Amber Cinema: Jamnagar"
  },
  "AMLC": {
    "AvailableFormats": "2D",
    "City": "Barrackpore",
    "Latitude": "22.7672",
    "Longitude": "88.3832",
    "RegionCode": "BARR",
    "State": "West Bengal",
    "SubRegionCode": "BARR",
    "VenueAddress": "82, Barrackpore - Barasat Road, Barrackpore, Barrackpore, West Bengal 700122, India",
    "VenueCode": "AMLC",
    "VenueName": "Amala Cinema: Barrackpore"
  },
  "AMST": {
    "AvailableFormats": "2D",
    "City": "Karimnagar",
    "Latitude": "18.4292",
    "Longitude": "79.1387",
    "RegionCode": "KARIM",
    "State": "Telangana",
    "SubRegionCode": "KARIM",
    "VenueAddress": "Srinivasa Theatre Road, Shasha Mahala, Ashoknagar, Near Kakatiya Techno School, Karimnagar, Telangana 505001, India",
    "VenueCode": "AMST",
    "VenueName": "Asian Mukta A2 Srinivasa Theatre: Karimnagar"
  },
  "ANCG": {
    "AvailableFormats": "2D",
    "City": "Gondal",
    "Latitude": "21.9615",
    "Longitude": "70.7716",
    "RegionCode": "GONA",
    "State": "Gujarat",
    "SubRegionCode": "GONA",
    "VenueAddress": "2nd Floor, Balaji Mall, Gundala Road, Gondal, Gujarat 360311, India",
    "VenueCode": "ANCG",
    "VenueName": "Auston Cinemas: Gondal"
  },
  "ANNK": {
    "AvailableFormats": "2D",
    "City": "Kothamangalam",
    "Latitude": "10.063",
    "Longitude": "76.6202",
    "RegionCode": "KTMM",
    "State": "Kerala",
    "SubRegionCode": "KTMM",
    "VenueAddress": "Dhanushkodi Rd, Kothamangalam, Near Kothamangalam Bus Stand, Kothamangalam, Kerala 686666, India",
    "VenueCode": "ANNK",
    "VenueName": "ANN Cinema Complex 4K 3D Dolby Atmos RGB LASER"
  },
  "ANTP": {
    "AvailableFormats": "2D",
    "City": "Ramachandrapuram",
    "Latitude": "16.83799",
    "Longitude": "82.02889",
    "RegionCode": "RCPR",
    "State": "Andhra Pradesh",
    "SubRegionCode": "RCPR",
    "VenueAddress": "Ramachandrapuram Road, Ramachandrapuram, Andhra Pradesh 533255, India",
    "VenueCode": "ANTP",
    "VenueName": "Annapurna A/C 2K Dolby 7.1 : Ramachandrapuram"
  },
  "APCO": {
    "AvailableFormats": "2D",
    "City": "Orai",
    "Latitude": "25.9978",
    "Longitude": "79.4623",
    "RegionCode": "ORAI",
    "State": "Uttar Pradesh",
    "SubRegionCode": "ORAI",
    "VenueAddress": "NH 25, New Patel Nagar, Near Busy Beans Cafe, Orai, Uttar Pradesh 285001, India",
    "VenueCode": "APCO",
    "VenueName": "Archana Palace Cinemall: Orai"
  },
  "APPZ": {
    "AvailableFormats": "2D",
    "City": "Vizag (Visakhapatnam)",
    "Latitude": "17.6638",
    "Longitude": "83.2051",
    "RegionCode": "VIZA",
    "State": "Andhra Pradesh",
    "SubRegionCode": "VIZA",
    "VenueAddress": "19-11-24-23, Pedagantyada, Vizag (Visakhapatnam), Andhra Pradesh 530044, India",
    "VenueCode": "APPZ",
    "VenueName": "Aruna Picture Palace 2K A/C PAM"
  },
  "APVE": {
    "AvailableFormats": "2D",
    "City": "Vellore",
    "Latitude": "12.911",
    "Longitude": "79.1317",
    "RegionCode": "RANI",
    "State": "Tamil Nadu",
    "SubRegionCode": "RANI",
    "VenueAddress": "Anna Salai, Vasantapuram, Kosapet, Vellore, Near Sri Vinayaga Temple, Vellore, Tamil Nadu 632001, India",
    "VenueCode": "APVE",
    "VenueName": "Apsara Cinemas 4K AC 7.1 Dolby: Vellore"
  },
  "ARDD": {
    "AvailableFormats": "2D",
    "City": "Veraval",
    "Latitude": "20.91",
    "Longitude": "70.3689",
    "RegionCode": "VRAL",
    "State": "Gujarat",
    "SubRegionCode": "VRAL",
    "VenueAddress": "Railway Station Area, Jobanpura, Near Aradhana Complex, Veraval, Gujarat 362265, India",
    "VenueCode": "ARDD",
    "VenueName": "FUN Cinemas Aradhana Cinema: Veraval"
  },
  "ARTS": {
    "AvailableFormats": "2D",
    "City": "Bengaluru",
    "Latitude": "12.9868",
    "Longitude": "77.5672",
    "RegionCode": "HOKT",
    "State": "Karnataka",
    "SubRegionCode": "HOKT",
    "VenueAddress": "98, Nagendra Gardens, Ramachandrapura, Srirampuram, Near R.R.R.Kalyana Mantapa, Bengaluru, Karnataka 560021, India",
    "VenueCode": "ARTS",
    "VenueName": "Aruna Theatre A/C 4K 7.1 Dolby 3D: Srirampuram"
  },
  "ASCX": {
    "AvailableFormats": "2D",
    "City": "Thiruvalla",
    "Latitude": "9.34101",
    "Longitude": "76.5341",
    "RegionCode": "THVL",
    "State": "Kerala",
    "SubRegionCode": "THVL",
    "VenueAddress": "Mall Grand, Thiruvalla Mavelikkara Road, Thiruvalla, Kerala 689621, India",
    "VenueCode": "ASCX",
    "VenueName": "Aashirvad Cineplexx: Kadappra"
  },
  "ASJY": {
    "AvailableFormats": "2D",
    "City": "Hyderabad",
    "Latitude": "17.5028",
    "Longitude": "78.3122",
    "RegionCode": "HYD",
    "State": "Telangana",
    "SubRegionCode": "HYD",
    "VenueAddress": "Jyothi Nagar, Ashok Nagar, Chanda Nagar, Opposite TVS Motors, Near Brilliant Junior College, Hyderabad, Telangana 502032, India",
    "VenueCode": "ASJY",
    "VenueName": "Asian Jyothi: RC Puram"
  },
  "ASNT": {
    "AvailableFormats": "2D",
    "City": "Adilabad",
    "Latitude": "19.6748",
    "Longitude": "78.5315",
    "RegionCode": "ADIL",
    "State": "Telangana",
    "SubRegionCode": "ADIL",
    "VenueAddress": "Bhuktapur, Near IDBI Bank, Near Hanuman Temple, Adilabad, Telangana 504001, India",
    "VenueCode": "ASNT",
    "VenueName": "Asian Nataraj: Adilabad"
  },
  "ASSR": {
    "AvailableFormats": "2D",
    "City": "Siddipet",
    "Latitude": "18.0987",
    "Longitude": "78.8522",
    "RegionCode": "SDDP",
    "State": "Telangana",
    "SubRegionCode": "SDDP",
    "VenueAddress": "Aphb Colony, Shivaji Nagar, Hyderabad Road, Siddipet, Telangana 502103, India",
    "VenueCode": "ASSR",
    "VenueName": "Asian Srinivasa Deluxe: Siddipet"
  },
  "ASWT": {
    "AvailableFormats": "2D",
    "City": "Peringamala",
    "Latitude": "8.4146",
    "Longitude": "77.0184",
    "RegionCode": "TRIV",
    "State": "Kerala",
    "SubRegionCode": "TRIV",
    "VenueAddress": "C279+R9J, Pallichal, Vizhinjam Road, Pullannimukku, Peringamala, Kerala 695523, India",
    "VenueCode": "ASWT",
    "VenueName": "Aswathy Cineplus: Peringamala"
  },
  "ATGN": {
    "AvailableFormats": "2D",
    "City": "Bengaluru",
    "Latitude": "12.9737",
    "Longitude": "77.5776",
    "RegionCode": "HOKT",
    "State": "Karnataka",
    "SubRegionCode": "HOKT",
    "VenueAddress": "B.V.K. Ayengar Road, Gandhi Nagar, Near TNB Bank, Bengaluru, Karnataka 560009, India",
    "VenueCode": "ATGN",
    "VenueName": "Abhinay Theatre 4K A/C: Gandhinagar"
  },
  "ATPK": {
    "AvailableFormats": "2D",
    "City": "Palakkad",
    "Latitude": "10.7772",
    "Longitude": "76.6532",
    "RegionCode": "PLKK",
    "State": "Kerala",
    "SubRegionCode": "PLKK",
    "VenueAddress": "Priyadarshini Road, Sultanpet, Near Apex Residence, Palakkad, Kerala 678001, India",
    "VenueCode": "ATPK",
    "VenueName": "Aroma Theatre: Palakkad"
  },
  "ATYY": {
    "AvailableFormats": "",
    "City": "Kottayam",
    "FirstTracked": "2026-07-14",
    "Latitude": "9.586128",
    "Longitude": "76.52411",
    "RegionCode": "KTYM",
    "State": "Kerala",
    "SubRegionCode": "KTYM",
    "VenueAddress": "TB Road, Eerayil Kadavu, Near Asha Theatre, Kottayam, Kerala 686001, India",
    "VenueCode": "ATYY",
    "VenueName": "Anand Theatre Triple Beam 3D: Kottayam"
  },
  "AVDM": {
    "AvailableFormats": "2D",
    "City": "Mahbubnagar",
    "Latitude": "16.7451",
    "Longitude": "77.9918",
    "RegionCode": "JADC",
    "State": "Telangana",
    "SubRegionCode": "JADC",
    "VenueAddress": "Shah Saheb Gutta, Boyapalle Rural, Near Sri Hanuman Temple, Mahbubnagar, Telangana 509001, India",
    "VenueCode": "AVDM",
    "VenueName": "AVD Cinemas: Mahbubnagar"
  },
  "AXMC": {
    "AvailableFormats": "2D",
    "City": "Muvattupuzha",
    "Latitude": "9.98175",
    "Longitude": "76.5787",
    "RegionCode": "MUVA",
    "State": "Kerala",
    "SubRegionCode": "MUVA",
    "VenueAddress": "3rd Floor Grand Centre Mall, Thottumkalpeedika, Muvattupuzha, Kerala 686661, India",
    "VenueCode": "AXMC",
    "VenueName": "Aashirvad Cineplexx, GrandCentreMall: Muvattupuzha"
  },
  "BACS": {
    "AvailableFormats": "2D",
    "City": "Surat",
    "Latitude": "21.214",
    "Longitude": "72.8219",
    "RegionCode": "SURT",
    "State": "Gujarat",
    "SubRegionCode": "SURT",
    "VenueAddress": "72-78, Ved Road, Opposite Ramji Nagar Society, Fatakdawadi, Pandol, Industrial Estate, Katargam, Surat, Gujarat 395004, India",
    "VenueCode": "BACS",
    "VenueName": "Bajrang Cinema: Surat"
  },
  "BATG": {
    "AvailableFormats": "2D",
    "City": "Pondicherry",
    "Latitude": "11.9378",
    "Longitude": "79.8199",
    "RegionCode": "AURV",
    "State": "Tamil Nadu",
    "SubRegionCode": "AURV",
    "VenueAddress": "118,Brindavanam, Kamaraj Salai, Near Thanthai Periyar Statue, Pondicherry, Tamil Nadu 605013, India",
    "VenueCode": "BATG",
    "VenueName": "Balaji Theatre 70MM: Pondicherry"
  },
  "BCBA": {
    "AvailableFormats": "2D",
    "City": "Berachampa",
    "Latitude": "22.6934",
    "Longitude": "88.7022",
    "RegionCode": "BRAC",
    "State": "West Bengal",
    "SubRegionCode": "BRAC",
    "VenueAddress": "Berachampa, Taki Road, 24 PGS (N), Berachampa, West Bengal 743424, India",
    "VenueCode": "BCBA",
    "VenueName": "Banirupa Cinema: Berachampa"
  },
  "BDRB": {
    "AvailableFormats": "2D",
    "City": "Bhuvanagiri",
    "Latitude": "17.5106",
    "Longitude": "78.8893",
    "RegionCode": "BHUV",
    "State": "Telangana",
    "SubRegionCode": "BHUV",
    "VenueAddress": "Bhuvanagiri - Nalgonda Road, Bharpet, Bhuvanagiri, Telangana 508116, India",
    "VenueCode": "BDRB",
    "VenueName": "Badradri Theatre: Bhuvanagiri"
  },
  "BHEL": {
    "AvailableFormats": "2D",
    "City": "Trichy",
    "Latitude": "10.7695",
    "Longitude": "78.7974",
    "RegionCode": "TRIC",
    "State": "Tamil Nadu",
    "SubRegionCode": "TRIC",
    "VenueAddress": "Kamarajapuram BHEL Township, BHEL Tiruchirappali Complex area,Thiruverumbur,Trichy, Near BHEL Training Center, Trichy, Tamil Nadu 620022, India",
    "VenueCode": "BHEL",
    "VenueName": "BHELEC Cinema A/C Dolby 7.1: Trichy"
  },
  "BINT": {
    "AvailableFormats": "2D",
    "City": "Dubrajpur",
    "Latitude": "23.797",
    "Longitude": "87.3776",
    "RegionCode": "DUBR",
    "State": "West Bengal",
    "SubRegionCode": "DUBR",
    "VenueAddress": "Bharat Mata Sangha Road, Birbhum, Near S.J Electronics, Dubrajpur, West Bengal 731132, India",
    "VenueCode": "BINT",
    "VenueName": "Binapani Talkies: Dubrajpur"
  },
  "BKMV": {
    "AvailableFormats": "",
    "City": "Hyderabad",
    "FirstTracked": "2026-07-14",
    "Latitude": "17.343603",
    "Longitude": "78.554214",
    "RegionCode": "AUSH",
    "State": "Telangana",
    "SubRegionCode": "AUSH",
    "VenueAddress": "Gunti Jangaiah Nagar, LB Nagar, Raghavendra Nagar Colony, Opposite Bank Of India, Hyderabad, Telangana 500074, India",
    "VenueCode": "BKMV",
    "VenueName": "BVK Multiplex Vijayalakshmi: LB Nagar"
  },
  "BLMX": {
    "AvailableFormats": "2D",
    "City": "Vadodara",
    "Latitude": "22.3035",
    "Longitude": "73.1383",
    "RegionCode": "ANKV",
    "State": "Gujarat",
    "SubRegionCode": "ANKV",
    "VenueAddress": "Bansal Mall,Gotri - Bhayli Rd, Nilamber Char Rasta,Near, Saiyed Vasna, Gotri, Vadodara, Gujarat 390021, India",
    "VenueCode": "BLMX",
    "VenueName": "Bansal Movieplex Gotri-Vasna Road: Vadodara"
  },
  "BMYK": {
    "AvailableFormats": "",
    "City": "Deralakatte",
    "FirstTracked": "2026-07-14",
    "Latitude": "12.809443",
    "Longitude": "74.884476",
    "RegionCode": "DERA",
    "State": "Karnataka",
    "SubRegionCode": "DERA",
    "VenueAddress": "2nd Floor, Bearys Turning Point, Mangalore University Road, Deralakatte, Ullal, Deralakatte, Karnataka 575022, India",
    "VenueCode": "BMYK",
    "VenueName": "Bharath Cinemas: Bearys Turning Point, Deralakatte"
  },
  "BRTP": {
    "AvailableFormats": "2D",
    "City": "Palasa",
    "Latitude": "18.7661",
    "Longitude": "84.4217",
    "RegionCode": "PALS",
    "State": "Andhra Pradesh",
    "SubRegionCode": "PALS",
    "VenueAddress": "Shivaji Nagar, Kasibugga, Near Mandala Parishat Office, Palasa, Andhra Pradesh 532222, India",
    "VenueCode": "BRTP",
    "VenueName": "Bhaskara Rama A/C Dts: Palasa"
  },
  "BSSO": {
    "AvailableFormats": "2D",
    "City": "Ahmedabad",
    "Latitude": "23.0415",
    "Longitude": "72.4983",
    "RegionCode": "AHD",
    "State": "Gujarat",
    "SubRegionCode": "AHD",
    "VenueAddress": "312-314-315, Times Square Grand, Sindhu Bhavan Marg, Thaltej, Ahmedabad, Gujarat 380059, India",
    "VenueCode": "BSSO",
    "VenueName": "Sanelite Cinemas (Banana Smartplex): SBR, Thaltej"
  },
  "BTKD": {
    "AvailableFormats": "2D",
    "City": "Ongole",
    "Latitude": "15.5466",
    "Longitude": "79.9397",
    "RegionCode": "ONGL",
    "State": "Andhra Pradesh",
    "SubRegionCode": "ONGL",
    "VenueAddress": "GWWQ+JVV, Santhanuthalapadu, Ongole, Andhra Pradesh 523225, India",
    "VenueCode": "BTKD",
    "VenueName": "Sai Balaji A/c Dolby Surround: Santhanutalapadu"
  },
  "CACG": {
    "AvailableFormats": "",
    "City": "Ghumarwin",
    "FirstTracked": "2026-07-14",
    "Latitude": "31.442915",
    "Longitude": "76.719",
    "RegionCode": "GHUM",
    "State": "Himachal Pradesh",
    "SubRegionCode": "GHUM",
    "VenueAddress": "M/s Kritika Enterprises (Citara Plex Pvt. Ltd ), Kuthera Road, Near Post Office, Ghumarwin, Himachal Pradesh 174021, India",
    "VenueCode": "CACG",
    "VenueName": "Citara Cinema: Ghumarwin"
  },
  "CBMU": {
    "AvailableFormats": "3D|2D",
    "City": "Udaipur",
    "Latitude": "24.6123",
    "Longitude": "73.7026",
    "RegionCode": "UDAI",
    "State": "Rajasthan",
    "SubRegionCode": "UDAI",
    "VenueAddress": "4th Floor, The Celebration Mall, Sundercha N.H.- 8, Bhuwana, Opposite Devendra Dham Bhuwan, Udaipur, Rajasthan 313001, India",
    "VenueCode": "CBMU",
    "VenueName": "PVR: Celebration Mall, Udaipur"
  },
  "CCBA": {
    "AvailableFormats": "2D",
    "City": "Bagbahara",
    "Latitude": "21.0506",
    "Longitude": "82.3793",
    "RegionCode": "BBHA",
    "State": "Chhattisgarh",
    "SubRegionCode": "BBHA",
    "VenueAddress": "NH59, Bhawanipatna Raipur Highway, Near Post office, Bagbahara, Chhattisgarh 493449, India",
    "VenueCode": "CCBA",
    "VenueName": "City Cinema: Bagbahara"
  },
  "CCHW": {
    "AvailableFormats": "",
    "City": "Handwara",
    "FirstTracked": "2026-07-14",
    "Latitude": "34.401604",
    "Longitude": "74.27998",
    "RegionCode": "HNDW",
    "State": "Jammu and Kashmir",
    "SubRegionCode": "HNDW",
    "VenueAddress": "Maqbool Abad Khanabal B, Muncipal Committee, Handwara, Jammu and Kashmir 193221, India",
    "VenueCode": "CCHW",
    "VenueName": "Citara Cinemas: Handwara"
  },
  "CCMF": {
    "AvailableFormats": "2D",
    "City": "Charkhi Dadri",
    "Latitude": "28.5937",
    "Longitude": "76.2574",
    "RegionCode": "CCDD",
    "State": "Haryana",
    "SubRegionCode": "CCDD",
    "VenueAddress": "Main Loharu Road, Rose Petals Hotel Restaurant, Charkhi Dadri, Haryana 127306, India",
    "VenueCode": "CCMF",
    "VenueName": "Chhotu Maharaj Cine Cafe: Charkhi Dadri"
  },
  "CCNL": {
    "AvailableFormats": "",
    "City": "Nalbari",
    "FirstTracked": "2026-07-14",
    "Latitude": "26.454315",
    "Longitude": "91.40943",
    "RegionCode": "NALB",
    "State": "Assam",
    "SubRegionCode": "NALB",
    "VenueAddress": "National Highway 31, 5th Floor, Barkura Banekuchi, Nalbari, Assam 781340, India",
    "VenueCode": "CCNL",
    "VenueName": "Chhotu Maharaj Cine Cafe: Nalbari"
  },
  "CCRN": {
    "AvailableFormats": "",
    "City": "Chandrapur",
    "FirstTracked": "2026-07-14",
    "Latitude": "19.7872",
    "Longitude": "79.3843",
    "RegionCode": "CHAN",
    "State": "Maharashtra",
    "SubRegionCode": "CHAN",
    "VenueAddress": "E-cube, Beside Lakshmi Godown Main Road Bamanwada, Taluka rajura, Chandrapur, Maharashtra 442905, India",
    "VenueCode": "CCRN",
    "VenueName": "Chhotu Maharaj: Rajura, Chandrapur"
  },
  "CCXR": {
    "AvailableFormats": "2D",
    "City": "Gurugram (Gurgaon)",
    "Latitude": "28.3933",
    "Longitude": "76.9769",
    "RegionCode": "NCR",
    "State": "NCR",
    "SubRegionCode": "GURG",
    "VenueAddress": "Entertainland Mall, Floreal Towers, Sector 83, Gurugram (Gurgaon), NCR 122012, India",
    "VenueCode": "CCXR",
    "VenueName": "Connplex Cinemas: Luxuriance, Gurgaon"
  },
  "CDWP": {
    "AvailableFormats": "",
    "City": "Surat",
    "FirstTracked": "2026-07-14",
    "Latitude": "21.1957",
    "Longitude": "72.8598",
    "RegionCode": "SURT",
    "State": "Gujarat",
    "SubRegionCode": "SURT",
    "VenueAddress": "4th Floor, DR World Mall, Aai Mata Road, Surat, Gujarat 395010, India",
    "VenueCode": "CDWP",
    "VenueName": "Coconut Cinema DR World Parvat Patiya: Surat"
  },
  "CFBS": {
    "AvailableFormats": "2D|IMAX 2D|4DX|3D",
    "City": "Bengaluru",
    "Latitude": "12.9894",
    "Longitude": "77.7279",
    "RegionCode": "HOKT",
    "State": "Karnataka",
    "SubRegionCode": "HOKT",
    "VenueAddress": "3rd Floor, Nexus Shantiniketan Mall, Opposite Manipal Hospital, ITPL Main Road, Whitefield, Bengaluru, Karnataka 560067, India",
    "VenueCode": "CFBS",
    "VenueName": "Cinepolis: Nexus Shantiniketan, Bengaluru"
  },
  "CGGM": {
    "AvailableFormats": "2D",
    "City": "Kozhikode",
    "Latitude": "11.2581",
    "Longitude": "75.7931",
    "RegionCode": "KOZH",
    "State": "Kerala",
    "SubRegionCode": "KOZH",
    "VenueAddress": "97, Mavoor Road, Arayidathupalam, Near Federal Tower, Kozhikode, Kerala 673016, India",
    "VenueCode": "CGGM",
    "VenueName": "Cinepolis: Gokulam Galleria Mall"
  },
  "CGTT": {
    "AvailableFormats": "",
    "City": "Guntakal",
    "FirstTracked": "2026-07-14",
    "Latitude": "15.166328",
    "Longitude": "77.382965",
    "RegionCode": "GUNL",
    "State": "Andhra Pradesh",
    "SubRegionCode": "GUNL",
    "VenueAddress": "B.S.S. Colony, Tilak Nagar, Guntakal, Andhra Pradesh 515801, India",
    "VenueCode": "CGTT",
    "VenueName": "Chaitanya Theater: Guntakal"
  },
  "CHTH": {
    "AvailableFormats": "2D",
    "City": "Bengaluru",
    "Latitude": "12.9356",
    "Longitude": "77.5616",
    "RegionCode": "HOKT",
    "State": "Karnataka",
    "SubRegionCode": "HOKT",
    "VenueAddress": "Vidyapeeta circle, Katriguppe Main Road, Hanumanthanagar, Near Parekhs Hospital, Bengaluru, Karnataka 560050, India",
    "VenueCode": "CHTH",
    "VenueName": "Chandrodaya Digital 4K Cinema: Vidyapeeta Circle"
  },
  "CICM": {
    "AvailableFormats": "2D",
    "City": "Math Chandipur",
    "Latitude": "22.0886",
    "Longitude": "87.8576",
    "RegionCode": "MPUR",
    "State": "West Bengal",
    "SubRegionCode": "MPUR",
    "VenueAddress": "Mayukh Gift Corner, Nandigram Road, Math Chandipur, West Bengal 721659, India",
    "VenueCode": "CICM",
    "VenueName": "Chitranjali Cinema: Math Chandipur"
  },
  "CIPS": {
    "AvailableFormats": "2D|3D|4DX",
    "City": "Delhi",
    "Latitude": "28.5283",
    "Longitude": "77.2176",
    "RegionCode": "NCR",
    "State": "NCR",
    "SubRegionCode": "DELHI",
    "VenueAddress": "DLF Avenue, Saket District Centre, Plot-A4, Near Marriot Hotel, Saket, Delhi, NCR 110017, India",
    "VenueCode": "CIPS",
    "VenueName": "Cinepolis: DLF Avenue, Saket"
  },
  "CKUA": {
    "AvailableFormats": "2D|3D",
    "City": "Ahmedabad",
    "Latitude": "22.9998",
    "Longitude": "72.658",
    "RegionCode": "AHD",
    "State": "Gujarat",
    "SubRegionCode": "AHD",
    "VenueAddress": "3rd Floor, Near Nirant Cross Road, Metro Station Vastral, Ahmedabad, Gujarat 382418, India",
    "VenueCode": "CKUA",
    "VenueName": "Cinepolis: Kankubag, Vastral, Ahmedabad"
  },
  "CLKP": {
    "AvailableFormats": "",
    "City": "Patna",
    "FirstTracked": "2026-07-14",
    "Latitude": "25.6025",
    "Longitude": "85.1453",
    "RegionCode": "PATN",
    "State": "Bihar",
    "SubRegionCode": "PATN",
    "VenueAddress": "Avnc lifestyles Nutan Complex, Kankarbagh, Near KKrish Hyundai, Patna, Bihar 800020, India",
    "VenueCode": "CLKP",
    "VenueName": "Connplex Cinemas Luxuriance: Kankarbagh, Patna"
  },
  "CMAU": {
    "AvailableFormats": "2D",
    "City": "Abu Road",
    "Latitude": "24.4982",
    "Longitude": "72.766",
    "RegionCode": "ABRD",
    "State": "Rajasthan",
    "SubRegionCode": "ABRD",
    "VenueAddress": "New Town Housing, Revdar Road, Manpur Rural, Abu Road, Rajasthan 307026, India",
    "VenueCode": "CMAU",
    "VenueName": "Cineplus Multiplex: Abu Road"
  },
  "CMHU": {
    "AvailableFormats": "2D",
    "City": "Unnao",
    "Latitude": "26.5391",
    "Longitude": "80.5025",
    "RegionCode": "UNNA",
    "State": "Uttar Pradesh",
    "SubRegionCode": "UNNA",
    "VenueAddress": "Fantasy Motels Pvt Ltd, Hussain Nagar Bypass Road, Unnao, Uttar Pradesh 209801, India",
    "VenueCode": "CMHU",
    "VenueName": "Chhotu Maharaj Cine Cafe:Unnao"
  },
  "CMMN": {
    "AvailableFormats": "",
    "City": "Erode",
    "FirstTracked": "2026-07-14",
    "Latitude": "11.310983",
    "Longitude": "77.66701",
    "RegionCode": "EROD",
    "State": "Tamil Nadu",
    "SubRegionCode": "EROD",
    "VenueAddress": "R.S No 325/3A, Patta No-364, Puthur, Puthuppalayam Village and Pichandampalayam Panchayat, Erode, Tamil Nadu 638112, India",
    "VenueCode": "CMMN",
    "VenueName": "Chhotu Maharaj Cine Cafe: Erode"
  },
  "CMSN": {
    "AvailableFormats": "",
    "City": "Agra",
    "FirstTracked": "2026-07-14",
    "Latitude": "27.2032",
    "Longitude": "77.9671",
    "RegionCode": "AGRA",
    "State": "Uttar Pradesh",
    "SubRegionCode": "AGRA",
    "VenueAddress": "2nd Floor Bhawna Dwarka Street ,Prop. No. Comm 7, Anthem Pocket A Sec, 15 Avas Vikas Sikandra Agra, Agra, Uttar Pradesh 282007, India",
    "VenueCode": "CMSN",
    "VenueName": "Chhotu Maharaj: Sikandra Agra, UP"
  },
  "CMVV": {
    "AvailableFormats": "2D",
    "City": "Varanasi",
    "Latitude": "25.3012",
    "Longitude": "82.9586",
    "RegionCode": "VAR",
    "State": "Uttar Pradesh",
    "SubRegionCode": "VAR",
    "VenueAddress": "Plot No. 237/3, Madauli, Near St.Johns School, Varanasi, Uttar Pradesh 221003, India",
    "VenueCode": "CMVV",
    "VenueName": "Chhotu Maharaj Cine Cafe: Varanasi"
  },
  "CNCS": {
    "AvailableFormats": "2D",
    "City": "Sangamner",
    "Latitude": "19.5948",
    "Longitude": "74.1942",
    "RegionCode": "SMNE",
    "State": "Maharashtra",
    "SubRegionCode": "SMNE",
    "VenueAddress": "2nd Floor, Malpani Multiplex Mall, Gunjalwadi, Sangamner, Maharashtra 422605, India",
    "VenueCode": "CNCS",
    "VenueName": "Connplex Cinemas: Sangamner"
  },
  "CNLP": {
    "AvailableFormats": "3D|2D",
    "City": "Ahmedabad",
    "Latitude": "23.1461",
    "Longitude": "72.5463",
    "RegionCode": "GNAGAR",
    "State": "Gujarat",
    "SubRegionCode": "GNAGAR",
    "VenueAddress": "1st Floor, Master Avenue, Gandhinagar, Near - Vaishnodevi Circle, Ahmedabad, Gujarat 382421, India",
    "VenueCode": "CNLP",
    "VenueName": "Connplex Cinemas (Luxuriance): Vaishnodevi"
  },
  "CNRM": {
    "AvailableFormats": "2D",
    "City": "Bengaluru",
    "Latitude": "12.8759",
    "Longitude": "77.5956",
    "RegionCode": "HOKT",
    "State": "Karnataka",
    "SubRegionCode": "HOKT",
    "VenueAddress": "Royal Meenakshi Mall, Bannerghatta Road, Bengaluru, Karnataka 560076, India",
    "VenueCode": "CNRM",
    "VenueName": "Cinepolis: Royal Meenakshi Mall"
  },
  "CNWJ": {
    "AvailableFormats": "2D|3D",
    "City": "Jaipur",
    "Latitude": "26.8532",
    "Longitude": "75.8048",
    "RegionCode": "JAIP",
    "State": "Rajasthan",
    "SubRegionCode": "JAIP",
    "VenueAddress": "D-Block, Sector 4, JLN Marg, Malviya Nagar, Jaipur, Rajasthan 302017, India",
    "VenueCode": "CNWJ",
    "VenueName": "Cinepolis: World Trade Park Mall, Jaipur"
  },
  "COPG": {
    "AvailableFormats": "2D",
    "City": "Gandhinagar",
    "Latitude": "23.1848",
    "Longitude": "72.6229",
    "RegionCode": "GNAGAR",
    "State": "Gujarat",
    "SubRegionCode": "GNAGAR",
    "VenueAddress": "301-308, Shreeji Signature, Sargasan, Near Reliance Crossroad, Gandhinagar, Gujarat 382028, India",
    "VenueCode": "COPG",
    "VenueName": "Connplex Cinemas (Signature): Gandhinagar"
  },
  "CPCN": {
    "AvailableFormats": "2D",
    "City": "Bijainagar",
    "Latitude": "25.9298",
    "Longitude": "74.6475",
    "RegionCode": "BINW",
    "State": "Rajasthan",
    "SubRegionCode": "BINW",
    "VenueAddress": "Bus Stand Road, Opposite Hotel N Chandra Palace, Bijainagar, Rajasthan 305624, India",
    "VenueCode": "CPCN",
    "VenueName": "Cineplus Cinema: Bijainagar"
  },
  "CPJI": {
    "AvailableFormats": "3D|2D",
    "City": "Jaipur",
    "Latitude": "26.857",
    "Longitude": "75.8051",
    "RegionCode": "JAIP",
    "State": "Rajasthan",
    "SubRegionCode": "JAIP",
    "VenueAddress": "Cinepolis Jewel of India Jaipur, 1st Floor, KH. No.180,181,184,186, Horizon Tower, Jawahar Lal Nehru Marg, Jaipur, Rajasthan 302018, India",
    "VenueCode": "CPJI",
    "VenueName": "Cinepolis: Jewel of India, Jaipur (Newly Opened)"
  },
  "CPLX": {
    "AvailableFormats": "2D",
    "City": "Jeypore",
    "Latitude": "18.8588",
    "Longitude": "82.5902",
    "RegionCode": "JEYP",
    "State": "Odisha",
    "SubRegionCode": "JEYP",
    "VenueAddress": "Industrial Estate, Jeypore Vizianagaram Road, Jeypore, Odisha 764001, India",
    "VenueCode": "CPLX",
    "VenueName": "Celebration Cineplex: Jeypore"
  },
  "CPNS": {
    "AvailableFormats": "2D|3D",
    "City": "Delhi",
    "Latitude": "28.6947",
    "Longitude": "77.1542",
    "RegionCode": "NCR",
    "State": "NCR",
    "SubRegionCode": "DELHI",
    "VenueAddress": "NSP Pacific Mall, NSP Metro Station, Pitampura, Delhi, NCR 110034, India",
    "VenueCode": "CPNS",
    "VenueName": "Cinepolis: Pacific NSP2, Delhi"
  },
  "CPSH": {
    "AvailableFormats": "2D|3D",
    "City": "Jamshedpur",
    "Latitude": "22.785",
    "Longitude": "86.181",
    "RegionCode": "JMDP",
    "State": "Jharkhand",
    "SubRegionCode": "JMDP",
    "VenueAddress": "P and M Hi-Tech City Centre Mall, Millenium Park, Bistupur, Outer Circle Road, Jamshedpur, Jharkhand 831001, India",
    "VenueCode": "CPSH",
    "VenueName": "PJP Cinepolis: Jamshedpur"
  },
  "CPVV": {
    "AvailableFormats": "2D|3D",
    "City": "Thane",
    "Latitude": "19.2085",
    "Longitude": "72.9713",
    "RegionCode": "MUMBAI",
    "State": "Maharashtra",
    "SubRegionCode": "THNE",
    "VenueAddress": "Viviana Mall, Eastern Express Highway, Laxmi Nagar, Thane (West), Beside Jupiter Hospital, Thane, Maharashtra 400606, India",
    "VenueCode": "CPVV",
    "VenueName": "Cinepolis: VIP Viviana Mall, Thane"
  },
  "CRXH": {
    "AvailableFormats": "2D",
    "City": "Halol",
    "Latitude": "22.4966",
    "Longitude": "73.4714",
    "RegionCode": "HALO",
    "State": "Gujarat",
    "SubRegionCode": "HALO",
    "VenueAddress": "Townsquare Mall, 3rd Floor Oppositie Fire Station, Halol, Gujarat 389350, India",
    "VenueCode": "CRXH",
    "VenueName": "Cinemera Multiplex: Halol"
  },
  "CSHM": {
    "AvailableFormats": "2D",
    "City": "Mehsana",
    "Latitude": "23.6178",
    "Longitude": "72.3471",
    "RegionCode": "MEHS",
    "State": "Gujarat",
    "SubRegionCode": "MEHS",
    "VenueAddress": "B110, 1st Floor, Trogon Two, D,Mart Circle, Near Mehsana Bypass Road, Mehsana, Gujarat 384002, India",
    "VenueCode": "CSHM",
    "VenueName": "Connplex Cinemas: D`Mart Circle, Mehsana"
  },
  "CSST": {
    "AvailableFormats": "2D",
    "City": "Ahmedabad",
    "Latitude": "23.0525",
    "Longitude": "72.4807",
    "RegionCode": "AHD",
    "State": "Gujarat",
    "SubRegionCode": "AHD",
    "VenueAddress": "2nd Floor, Shilp The Address,Shilaj Road, SP Ringoad, Thaltej, Ahmedabad, Gujarat 380059, India",
    "VenueCode": "CSST",
    "VenueName": "Connplex Cinemas: Shilaj"
  },
  "CTBG": {
    "AvailableFormats": "",
    "City": "Bagalkot",
    "FirstTracked": "2026-07-14",
    "Latitude": "16.158556",
    "Longitude": "75.65981",
    "RegionCode": "BAGA",
    "State": "Karnataka",
    "SubRegionCode": "BAGA",
    "VenueAddress": "Plot No. 80, 81, Sector 25, Nava Nagar, Behind StateBank of India, Bagalkot, Karnataka 587103, India",
    "VenueCode": "CTBG",
    "VenueName": "Chandan Theatre: Bagalkot"
  },
  "CTMK": {
    "AvailableFormats": "2D",
    "City": "Korba",
    "Latitude": "22.3424",
    "Longitude": "82.6987",
    "RegionCode": "KRBA",
    "State": "Chhattisgarh",
    "SubRegionCode": "KRBA",
    "VenueAddress": "Purani Basti, Rani Road, Near Hotel Satkar Deluxe, Korba, Chhattisgarh 495677, India",
    "VenueCode": "CTMK",
    "VenueName": "Chitra Cinema: Korba"
  },
  "CTRD": {
    "AvailableFormats": "2D",
    "City": "Pune",
    "Latitude": "18.5165",
    "Longitude": "73.8423",
    "RegionCode": "PUNE",
    "State": "Maharashtra",
    "SubRegionCode": "PUNE",
    "VenueAddress": "2nd Floor, R Deccan Mall, Jangli Maharaj Road, Opp Deccan Bus Stand, Pune, Maharashtra 411004, India",
    "VenueCode": "CTRD",
    "VenueName": "City Pride: R Deccan"
  },
  "CVCT": {
    "AvailableFormats": "2D",
    "City": "Trichy",
    "Latitude": "10.8088",
    "Longitude": "78.6955",
    "RegionCode": "TRIC",
    "State": "Tamil Nadu",
    "SubRegionCode": "TRIC",
    "VenueAddress": "Heber Road, Palakarai, Trichy, Near Corporation Park, Trichy, Tamil Nadu 620001, India",
    "VenueCode": "CVCT",
    "VenueName": "Cauvery Cinemas 4K RGB LASER: Trichy"
  },
  "CWSC": {
    "AvailableFormats": "2D",
    "City": "Kanker",
    "Latitude": "20.2632",
    "Longitude": "81.5017",
    "RegionCode": "KANK",
    "State": "Chhattisgarh",
    "SubRegionCode": "KANK",
    "VenueAddress": "3rd Floor, City Center Kanker, Near New Bus Stand, Kanker, Chhattisgarh 494334, India",
    "VenueCode": "CWSC",
    "VenueName": "Cineworld City Center: Kanker"
  },
  "CXMK": {
    "AvailableFormats": "",
    "City": "Kodad",
    "FirstTracked": "2026-07-14",
    "Latitude": "16.99669",
    "Longitude": "79.96993",
    "RegionCode": "KODA",
    "State": "Telangana",
    "SubRegionCode": "KODA",
    "VenueAddress": "2nd Floor, GHR Honda Complex, Nayanagar Main Road, Suryapet, Kodad, Telangana 508206, India",
    "VenueCode": "CXMK",
    "VenueName": "Connplex Cinemas: Kodad"
  },
  "DACA": {
    "AvailableFormats": "",
    "City": "Danapur",
    "Latitude": "25.6369",
    "Longitude": "85.0458",
    "RegionCode": "PATN",
    "State": "Bihar",
    "SubRegionCode": "PATN",
    "VenueAddress": "Diana Cinema Road, Danapur Main Road, Near Danapur Bus Stand Road, Danapur, Bihar 801503, India",
    "VenueCode": "DACA",
    "VenueName": "Diana Danapur AC with New Full Screen Projection"
  },
  "DCCP": {
    "AvailableFormats": "2D",
    "City": "Pune",
    "Latitude": "18.7516",
    "Longitude": "73.8353",
    "RegionCode": "KHED",
    "State": "Maharashtra",
    "SubRegionCode": "KHED",
    "VenueAddress": "City Plaza, Talegaon, Chakan Road, Pune, Maharashtra 410501, India",
    "VenueCode": "DCCP",
    "VenueName": "Dharmatma Cinemark: Chakan, Pune"
  },
  "DCKT": {
    "AvailableFormats": "",
    "City": "Kurukshetra",
    "FirstTracked": "2026-07-14",
    "Latitude": "29.974691",
    "Longitude": "76.86679",
    "RegionCode": "KURU",
    "State": "Haryana",
    "SubRegionCode": "KURU",
    "VenueAddress": "Divine Business Park, New Bus Stand ,Pipli Road, Opposite New Bus Stand, Kurukshetra, Haryana 136118, India",
    "VenueCode": "DCKT",
    "VenueName": "Divine Cineplex: Kurukshetra"
  },
  "DCVV": {
    "AvailableFormats": "2D",
    "City": "Vadakkencherry",
    "Latitude": "10.5902",
    "Longitude": "76.4763",
    "RegionCode": "VDCY",
    "State": "Kerala",
    "SubRegionCode": "VDCY",
    "VenueAddress": "Vadakkencherry Road, Next to Q7 Bakery, Vadakkencherry, Kerala 678683, India",
    "VenueCode": "DCVV",
    "VenueName": "Dreambig Thankam Theatre: Vadakkencherry"
  },
  "DEMP": {
    "AvailableFormats": "2D",
    "City": "Thrissur",
    "Latitude": "10.4243",
    "Longitude": "76.1315",
    "RegionCode": "MANR",
    "State": "Kerala",
    "SubRegionCode": "MANR",
    "VenueAddress": "Kanjany Peringottukara Rd, Peringottukara,Kerala, Near Kanadi Kavu Temple, Thrissur, Kerala 680565, India",
    "VenueCode": "DEMP",
    "VenueName": "Deva Cinemas 4K Dolby Full Atmos: Peringottukara"
  },
  "DGGC": {
    "AvailableFormats": "2D",
    "City": "Goalpara",
    "Latitude": "26.1698",
    "Longitude": "90.6235",
    "RegionCode": "GOAL",
    "State": "Assam",
    "SubRegionCode": "GOAL",
    "VenueAddress": "Above Trends, Pancharatna Road, Near Canara Bank, Goalpara, Assam 783101, India",
    "VenueCode": "DGGC",
    "VenueName": "Diamond Cinema: Goalpara"
  },
  "DKTI": {
    "AvailableFormats": "2D",
    "City": "Bengaluru",
    "Latitude": "12.7978",
    "Longitude": "77.3838",
    "RegionCode": "BANG",
    "State": "Karnataka",
    "SubRegionCode": "BANG",
    "VenueAddress": "Nelligudda Tank Road, Next to Karnataka Bank, Behind Bidadi Bus Stand, Ramanagar District, Bengaluru, Karnataka 562109, India",
    "VenueCode": "DKTI",
    "VenueName": "Deepak Talkies: Bidadi"
  },
  "DMCK": {
    "AvailableFormats": "2D",
    "City": "Kallachi",
    "Latitude": "11.6868",
    "Longitude": "75.6656",
    "RegionCode": "VDKR",
    "State": "Kerala",
    "SubRegionCode": "VDKR",
    "VenueAddress": "Met Collage Road, Nadapuram, Kallachi, Kerala 673506, India",
    "VenueCode": "DMCK",
    "VenueName": "Dream Cinema: Kallachi"
  },
  "DNNV": {
    "AvailableFormats": "2D",
    "City": "Vadodara",
    "Latitude": "22.3405",
    "Longitude": "73.1738",
    "RegionCode": "VAD",
    "State": "Gujarat",
    "SubRegionCode": "VAD",
    "VenueAddress": "Deep Cinemas, Deep Multiplex Pvt. Ltd, Behind Kiran Motors, Old Chhani Road, Chhani, Vadodara, Gujarat 390008, India",
    "VenueCode": "DNNV",
    "VenueName": "Deep Cinemas: Nizampura, Chhani Road"
  },
  "DRDR": {
    "AvailableFormats": "",
    "City": "Dudhi",
    "FirstTracked": "2026-07-14",
    "Latitude": "24.215506",
    "Longitude": "83.23522",
    "RegionCode": "DUDH",
    "State": "Uttar Pradesh",
    "SubRegionCode": "DUDH",
    "VenueAddress": "Ward No. 5, D R Market, Old Tara Chitra Mandir Building, Dudhi, Sonbhadra, Dudhi, Uttar Pradesh 231208, India",
    "VenueCode": "DRDR",
    "VenueName": "D.R. Cinema: Dudhi"
  },
  "DTCN": {
    "AvailableFormats": "2D",
    "City": "Nuzvid",
    "Latitude": "16.7875",
    "Longitude": "80.8501",
    "RegionCode": "NZVD",
    "State": "Andhra Pradesh",
    "SubRegionCode": "NZVD",
    "VenueAddress": "Hanuman Junction Road, Usha Bala Nagar, Near State Bank Of India, Nuzvid, Andhra Pradesh 521201, India",
    "VenueCode": "DTCN",
    "VenueName": "Dwaraka Cinemas 4k Dolby Atmos: Nuzvid"
  },
  "DUXR": {
    "AvailableFormats": "2D",
    "City": "Lakhimpur",
    "Latitude": "27.1791",
    "Longitude": "93.9722",
    "RegionCode": "DLBZ",
    "State": "Assam",
    "SubRegionCode": "DLBZ",
    "VenueAddress": "Kathal Pukhuri, No.2 Dolohat Myadipatta, Lakhimpur, Assam 787023, India",
    "VenueCode": "DUXR",
    "VenueName": "Dhurba Miniplex: Dolohat"
  },
  "DYPK": {
    "AvailableFormats": "3D|2D",
    "City": "Kolhapur",
    "Latitude": "16.7035",
    "Longitude": "74.2503",
    "RegionCode": "KOLH",
    "State": "Maharashtra",
    "SubRegionCode": "KOLH",
    "VenueAddress": "DYP City Mall, 3rd Floor, 2104/5, E-Ward, Near Opal Hotel, Kavala Naka, Kolhapur, Maharashtra 416003, India",
    "VenueCode": "DYPK",
    "VenueName": "PVR: DYP City, Kolhapur"
  },
  "ECRR": {
    "AvailableFormats": "2D",
    "City": "Ramgarh",
    "Latitude": "23.6398",
    "Longitude": "85.5119",
    "RegionCode": "GGHH",
    "State": "Jharkhand",
    "SubRegionCode": "GGHH",
    "VenueAddress": "Emvee Square, Opposite FBB, Near Balaji Bazar, Ramgarh Cantonment, Ramgarh, Jharkhand 829122, India",
    "VenueCode": "ECRR",
    "VenueName": "Eylex Cinemas: Ramgarh"
  },
  "ELKC": {
    "AvailableFormats": "2D",
    "City": "Koderma",
    "Latitude": "24.4367",
    "Longitude": "85.5349",
    "RegionCode": "KODZ",
    "State": "Jharkhand",
    "SubRegionCode": "KODZ",
    "VenueAddress": "Eylex Cinemas, Jhumri Telaiya, Ujala complex, Ranchi Patna Road, Koderma, Jharkhand 825409, India",
    "VenueCode": "ELKC",
    "VenueName": "Eylex Cinemas: Jhumri Telaiya, Koderma"
  },
  "EMPS": {
    "AvailableFormats": "2D|3D",
    "City": "Gurugram (Gurgaon)",
    "Latitude": "28.4157",
    "Longitude": "76.963",
    "RegionCode": "NCR",
    "State": "NCR",
    "SubRegionCode": "GURG",
    "VenueAddress": "3rd Floor, Elan Miracle, Dwarka Expressway, Sector 84, Gurugram (Gurgaon), NCR 122004, India",
    "VenueCode": "EMPS",
    "VenueName": "PVR: Elan Miracle, Sec 84, Gurugram"
  },
  "ESBW": {
    "AvailableFormats": "2D|3D",
    "City": "Pune",
    "Latitude": "18.5471",
    "Longitude": "73.9294",
    "RegionCode": "PUNE",
    "State": "Maharashtra",
    "SubRegionCode": "PUNE",
    "VenueAddress": "Old Mundhwa Road, Sector Number 3, Maruti Nagar, Kharadi, Wadgaon Sheri Bypass, Pune, Maharashtra 411014, India",
    "VenueCode": "ESBW",
    "VenueName": "Bollywood Multiplex: Kharadi"
  },
  "ESYL": {
    "AvailableFormats": "",
    "City": "Latur",
    "FirstTracked": "2026-07-14",
    "Latitude": "18.40879",
    "Longitude": "76.56909",
    "RegionCode": "LAT",
    "State": "Maharashtra",
    "SubRegionCode": "LAT",
    "VenueAddress": "Papvinash Mandir Road, Vyankatesh Nagar, Sawe Wadi, Near Old Renapur Naka, Latur, Maharashtra 413512, India",
    "VenueCode": "ESYL",
    "VenueName": "E-SQUARE Yashoda: Latur"
  },
  "EXCA": {
    "AvailableFormats": "2D",
    "City": "Ahilyanagar (Ahmednagar)",
    "Latitude": "19.3845",
    "Longitude": "74.7821",
    "RegionCode": "AHMED",
    "State": "Maharashtra",
    "SubRegionCode": "AHMED",
    "VenueAddress": "Kalyanam Lawns, A/P: Wanjarwadi Sonai, Tal: Nevasa, Ahilyanagar (Ahmednagar), Maharashtra 414105, India",
    "VenueCode": "EXCA",
    "VenueName": "Eylex Cinema: Sonai"
  },
  "FCLK": {
    "AvailableFormats": "2D",
    "City": "Lakhimpur Kheri",
    "Latitude": "27.9286",
    "Longitude": "80.7807",
    "RegionCode": "LKPK",
    "State": "Uttar Pradesh",
    "SubRegionCode": "LKPK",
    "VenueAddress": "Maharaj Nagar, LRP Road, Fun Mall, Lakhimpur Kheri, Uttar Pradesh 262701, India",
    "VenueCode": "FCLK",
    "VenueName": "Fun Cinemas: Lakhimpur Kheri"
  },
  "FDDH": {
    "AvailableFormats": "2D",
    "City": "Etawah",
    "Latitude": "26.7709",
    "Longitude": "79.0256",
    "RegionCode": "ETWH",
    "State": "Uttar Pradesh",
    "SubRegionCode": "ETWH",
    "VenueAddress": "Ram Lila Road, Anand Nagar, Lalpura, Etawah, Uttar Pradesh 206001, India",
    "VenueCode": "FDDH",
    "VenueName": "Fun DD Cinema: Etawah"
  },
  "FMJP": {
    "AvailableFormats": "3D|2D",
    "City": "Pune",
    "Latitude": "18.6486",
    "Longitude": "73.7847",
    "RegionCode": "PUNE",
    "State": "Maharashtra",
    "SubRegionCode": "PUNE",
    "VenueAddress": "Jai Ganesh Vision Mall, Akurdi Chowk, Ganga Nagar, Behind Greaves Cotton Company, Pune, Maharashtra 411035, India",
    "VenueCode": "FMJP",
    "VenueName": "INOX: Jai Ganesh, Akurdi"
  },
  "FNAM": {
    "AvailableFormats": "2D|3D",
    "City": "Ambala",
    "Latitude": "30.3743",
    "Longitude": "76.7822",
    "RegionCode": "AMB",
    "State": "Haryana",
    "SubRegionCode": "AMB",
    "VenueAddress": "Sector-7, Opposite Police Lines, Ambala, Haryana 134003, India",
    "VenueCode": "FNAM",
    "VenueName": "Fun Cinemas: Galaxy Mall, Ambala"
  },
  "FNDB": {
    "AvailableFormats": "2D|3D",
    "City": "Dibrugarh",
    "Latitude": "27.4801",
    "Longitude": "94.9053",
    "RegionCode": "DIB",
    "State": "Assam",
    "SubRegionCode": "DIB",
    "VenueAddress": "RKB, RKB Path, Sohum Mal, Dibrugarh, Assam 786001, India",
    "VenueCode": "FNDB",
    "VenueName": "Galleria Cinema: Junction Mall, Dibrugarh"
  },
  "FPKA": {
    "AvailableFormats": "2D",
    "City": "Kotkapura",
    "Latitude": "30.592",
    "Longitude": "74.8582",
    "RegionCode": "KOTK",
    "State": "Punjab",
    "SubRegionCode": "KOTK",
    "VenueAddress": "Moga Road, Kotkapura HO, Kotkapura, Punjab 151204, India",
    "VenueCode": "FPKA",
    "VenueName": "Fun Plaza: Kotkapura"
  },
  "FSCW": {
    "AvailableFormats": "2D",
    "City": "Pune",
    "Latitude": "18.5125",
    "Longitude": "73.6747",
    "RegionCode": "PUNE",
    "State": "Maharashtra",
    "SubRegionCode": "PUNE",
    "VenueAddress": "Ghotawade Phata, Pirangut, Pune, Maharashtra 412115, India",
    "VenueCode": "FSCW",
    "VenueName": "Funsquare Cinema: Ghotawade Phata"
  },
  "GABA": {
    "AvailableFormats": "2D",
    "City": "Babra",
    "Latitude": "21.8448",
    "Longitude": "71.3052",
    "RegionCode": "BABT",
    "State": "Gujarat",
    "SubRegionCode": "BABT",
    "VenueAddress": "City Survey No. 2791, Patidar Complex, Bhavnagar Road, Kalal Chowk Babra Amreli, Babra, Gujarat 365421, India",
    "VenueCode": "GABA",
    "VenueName": "Galaxy Cinema: Babra"
  },
  "GATH": {
    "AvailableFormats": "2D",
    "City": "Athagarh",
    "Latitude": "20.5146",
    "Longitude": "85.622",
    "RegionCode": "ATHG",
    "State": "Odisha",
    "SubRegionCode": "ATHG",
    "VenueAddress": "Near Lord Shiva Temple, Dorada Road, Athagarh, Odisha 754029, India",
    "VenueCode": "GATH",
    "VenueName": "Ganesh Talkies: Athagarh"
  },
  "GCAK": {
    "AvailableFormats": "2D",
    "City": "Kothamangalam",
    "Latitude": "10.0634",
    "Longitude": "76.6279",
    "RegionCode": "KTMM",
    "State": "Kerala",
    "SubRegionCode": "KTMM",
    "VenueAddress": "Hotel Kavery Road, Kothamangalam, Near State Bank Of India Kothamangalam Branch, Kothamangalam, Kerala 686666, India",
    "VenueCode": "GCAK",
    "VenueName": "G Cinemas: Kothamangalam 4K 3D Dolby Atmos"
  },
  "GCDM": {
    "AvailableFormats": "2D|3D",
    "City": "Mumbai",
    "Latitude": "19.2229",
    "Longitude": "73.0853",
    "RegionCode": "MUMBAI",
    "State": "Maharashtra",
    "SubRegionCode": "MCENT",
    "VenueAddress": "Vishnu Nagar, Nana Shanker Seth Road, Dombivali West, Near Fish Market, Mumbai, Maharashtra 421202, India",
    "VenueCode": "GCDM",
    "VenueName": "Gopi Cinema: Dombivali"
  },
  "GCGP": {
    "AvailableFormats": "2D|3D",
    "City": "Silchar",
    "Latitude": "24.8229",
    "Longitude": "92.8001",
    "RegionCode": "SIL",
    "State": "Assam",
    "SubRegionCode": "SIL",
    "VenueAddress": "Gold Digital Cinema, Goldighi Municipal Mall, Nazirpatty, Silchar, Assam 788001, India",
    "VenueCode": "GCGP",
    "VenueName": "Gold Cinema: Goldighi Municipal Mall, Silchar"
  },
  "GCMI": {
    "AvailableFormats": "2D",
    "City": "Mangaldoi",
    "Latitude": "26.4506",
    "Longitude": "92.0291",
    "RegionCode": "MANG",
    "State": "Assam",
    "SubRegionCode": "MANG",
    "VenueAddress": "Mangaldai Bhutiachang Road, No.1 Bezpara, Opposite Maa Bhandar, Mangaldoi, Assam 784125, India",
    "VenueCode": "GCMI",
    "VenueName": "Gold Cinema: Mangaldoi"
  },
  "GCSE": {
    "AvailableFormats": "2D",
    "City": "Hooghly",
    "Latitude": "22.7538",
    "Longitude": "88.3401",
    "RegionCode": "CHDD",
    "State": "West Bengal",
    "SubRegionCode": "CHDD",
    "VenueAddress": "180 N.S. Avenue, 3rd Floor Manasi Bazar, Near Bawarchi Biryani, Hooghly, West Bengal 712201, India",
    "VenueCode": "GCSE",
    "VenueName": "Goodwin Cineplex: Serampore"
  },
  "GDAW": {
    "AvailableFormats": "2D",
    "City": "Alwar",
    "Latitude": "27.5806",
    "Longitude": "76.6156",
    "RegionCode": "ALWR",
    "State": "Rajasthan",
    "SubRegionCode": "ALWR",
    "VenueAddress": "Near, Jail Circle, Cross Point Mall, Alwar, Rajasthan 301001, India",
    "VenueCode": "GDAW",
    "VenueName": "Gold Cinema: Alwar Crosspoint Mall"
  },
  "GDCV": {
    "AvailableFormats": "2D",
    "City": "Vidisha",
    "Latitude": "23.5086",
    "Longitude": "77.7824",
    "RegionCode": "VIDI",
    "State": "Madhya Pradesh",
    "SubRegionCode": "VIDI",
    "VenueAddress": "Sanchi Road, Rangai, Karaiya Haweli, Vidisha, Madhya Pradesh 464001, India",
    "VenueCode": "GDCV",
    "VenueName": "Gold Cinema: Vidisha"
  },
  "GDTY": {
    "AvailableFormats": "2D",
    "City": "Bengaluru",
    "Latitude": "13.0216",
    "Longitude": "77.5513",
    "RegionCode": "BANG",
    "State": "Karnataka",
    "SubRegionCode": "BANG",
    "VenueAddress": "46/2, Industrial Surab, Tumkur Road, Yeshwanthpur, Near Yeshwantpur Railway Station, Bengaluru, Karnataka 560022, India",
    "VenueCode": "GDTY",
    "VenueName": "Goverdhan Theatre: Yeshwantpur"
  },
  "GGCV": {
    "AvailableFormats": "2D",
    "City": "Vapi",
    "Latitude": "20.3756",
    "Longitude": "72.9212",
    "RegionCode": "VAPI",
    "State": "Gujarat",
    "SubRegionCode": "VAPI",
    "VenueAddress": "CM O No 11, Geet Cinema, Gunjan Road, GIDC, Vapi, Gujarat 396195, India",
    "VenueCode": "GGCV",
    "VenueName": "Gunjan Geet Cinema: Vapi"
  },
  "GIBH": {
    "AvailableFormats": "2D",
    "City": "Bharuch",
    "Latitude": "21.701",
    "Longitude": "72.9914",
    "RegionCode": "BHAR",
    "State": "Gujarat",
    "SubRegionCode": "BHAR",
    "VenueAddress": "2nd Floor,Shalimar Mall, Railway Station Road, Bharuch, Gujarat 392001, India",
    "VenueCode": "GIBH",
    "VenueName": "Gold Cinema, Shalimar: Bharuch"
  },
  "GLCA": {
    "AvailableFormats": "2D",
    "City": "Agra",
    "Latitude": "27.2009",
    "Longitude": "78.0089",
    "RegionCode": "AGRA",
    "State": "Uttar Pradesh",
    "SubRegionCode": "AGRA",
    "VenueAddress": "7th Floor, Ashok Cosmos Mall, 119/8-120/8, Sanjay Place, Wazirpura Road, Agra, Uttar Pradesh 282002, India",
    "VenueCode": "GLCA",
    "VenueName": "Gold Cinema: Agra"
  },
  "GMKU": {
    "AvailableFormats": "2D",
    "City": "Kollam",
    "Latitude": "8.88947",
    "Longitude": "76.5868",
    "RegionCode": "KOLM",
    "State": "Kerala",
    "SubRegionCode": "KOLM",
    "VenueAddress": "Poilakada Road, Parmeswar Nagar, Kollam, Kerala 691001, India",
    "VenueCode": "GMKU",
    "VenueName": "Gmax 4k Utsav Aradhana Complex"
  },
  "GOLC": {
    "AvailableFormats": "",
    "City": "Jaipur",
    "FirstTracked": "2026-07-14",
    "Latitude": "26.917025",
    "Longitude": "75.82133",
    "RegionCode": "JAIP",
    "State": "Rajasthan",
    "SubRegionCode": "JAIP",
    "VenueAddress": "New Gate, SMS Highway, Bapu Bazar, Chaura Rasta, Jaipur, Rajasthan 302003, India",
    "VenueCode": "GOLC",
    "VenueName": "Golcha Cinema: Jaipur"
  },
  "GPMF": {
    "AvailableFormats": "2D",
    "City": "Faridkot",
    "Latitude": "30.6768",
    "Longitude": "74.7611",
    "RegionCode": "DKOT",
    "State": "Punjab",
    "SubRegionCode": "DKOT",
    "VenueAddress": "Gills Palace, Circular Road, Balbir Basti, Faridkot, Punjab 151203, India",
    "VenueCode": "GPMF",
    "VenueName": "Gill Plaza Multiplex: Faridkot"
  },
  "GRGA": {
    "AvailableFormats": "3D|2D",
    "City": "Guwahati",
    "Latitude": "26.1288",
    "Longitude": "91.811",
    "RegionCode": "GUW",
    "State": "Assam",
    "SubRegionCode": "GUW",
    "VenueAddress": "6th Floor, NRB City Mall, GS Raod, Sixmile, Khanapara, Guwahati, Assam 781022, India",
    "VenueCode": "GRGA",
    "VenueName": "Grand Royal Cines, Sixmile: Guwahati"
  },
  "GTAD": {
    "AvailableFormats": "2D",
    "City": "Yerragondapalem",
    "Latitude": "16.04",
    "Longitude": "79.3096",
    "RegionCode": "YERA",
    "State": "Andhra Pradesh",
    "SubRegionCode": "YERA",
    "VenueAddress": "28R5+2V6, Yerragondapalem, Yerragondapalem, Andhra Pradesh 523327, India",
    "VenueCode": "GTAD",
    "VenueName": "Gayathri Theater 2K Dolby: Yerragondapalem"
  },
  "GTEM": {
    "AvailableFormats": "2D",
    "City": "Mandya",
    "Latitude": "12.5279",
    "Longitude": "76.8884",
    "RegionCode": "MND",
    "State": "Karnataka",
    "SubRegionCode": "MND",
    "VenueAddress": "National Highway 275, BM Road, Mandya, Karnataka 571401, India",
    "VenueCode": "GTEM",
    "VenueName": "Theatre Gurushree 2K: Mandya"
  },
  "GTTT": {
    "AvailableFormats": "2D",
    "City": "Ooty",
    "Latitude": "11.406",
    "Longitude": "76.701",
    "RegionCode": "OOTY",
    "State": "Tamil Nadu",
    "SubRegionCode": "OOTY",
    "VenueAddress": "Ganapathy Theatre Road, Upper Bazar, Ooty, Tamil Nadu 643001, India",
    "VenueCode": "GTTT",
    "VenueName": "Ganapathy Theatre: Ooty"
  },
  "GXYN": {
    "AvailableFormats": "2D",
    "City": "Nawapara",
    "Latitude": "20.9732",
    "Longitude": "81.8549",
    "RegionCode": "NAWA",
    "State": "Chhattisgarh",
    "SubRegionCode": "NAWA",
    "VenueAddress": "Nawapara Nagar, Abhanpur-Rajim Road, Near HP Petrol Pump, Nawapara, Chhattisgarh 493881, India",
    "VenueCode": "GXYN",
    "VenueName": "Galaxy Cinema: Nawapara"
  },
  "HCAD": {
    "AvailableFormats": "2D",
    "City": "Vadodara",
    "Latitude": "22.2669",
    "Longitude": "73.2225",
    "RegionCode": "VAD",
    "State": "Gujarat",
    "SubRegionCode": "VAD",
    "VenueAddress": "4th Floor, Siddharth Magnum Plus, Tarsali Danteshwar Ring Road, Beside Bansal Mall, Tarsali, Vadodara, Gujarat 390009, India",
    "VenueCode": "HCAD",
    "VenueName": "Havelock Cineflix: Tarsali, Vadodara"
  },
  "HFSV": {
    "AvailableFormats": "2D",
    "City": "Vasco Da Gama",
    "Latitude": "15.4",
    "Longitude": "73.8143",
    "RegionCode": "GOA",
    "State": "Goa",
    "SubRegionCode": "VAGG",
    "VenueAddress": "Vaddem, New Vaddem, FL  Gomes Road, Near Corporation Bank, Vasco Da Gama, Goa 403802, India",
    "VenueCode": "HFSV",
    "VenueName": "Z Square Cine Shivam: Vasco Da Gama"
  },
  "HMHD": {
    "AvailableFormats": "2D|3D",
    "City": "Hyderabad",
    "Latitude": "17.4445",
    "Longitude": "78.3882",
    "RegionCode": "HYD",
    "State": "Telangana",
    "SubRegionCode": "HYD",
    "VenueAddress": "Hitech City Road, Sri Sai Nagar, Madhapur, Near State Bank Of India, Hyderabad, Telangana 500034, India",
    "VenueCode": "HMHD",
    "VenueName": "BR Hitech 70mm: Madhapur"
  },
  "HTBY": {
    "AvailableFormats": "2D",
    "City": "Bareilly",
    "Latitude": "28.3538",
    "Longitude": "79.4186",
    "RegionCode": "BARE",
    "State": "Uttar Pradesh",
    "SubRegionCode": "BARE",
    "VenueAddress": "Church Road, Civil Lines, Bareilly, Uttar Pradesh 243001, India",
    "VenueCode": "HTBY",
    "VenueName": "New Hind Talkies: Bareilly"
  },
  "ICTP": {
    "AvailableFormats": "2D|3D",
    "City": "Tezpur",
    "Latitude": "26.622",
    "Longitude": "92.7964",
    "RegionCode": "TEZP",
    "State": "Assam",
    "SubRegionCode": "TEZP",
    "VenueAddress": "Imperial Parijat Building, Tezpur Main Road, Near D.T.O, Tezpur, Assam 784001, India",
    "VenueCode": "ICTP",
    "VenueName": "Imp Cinemas: Tezpur"
  },
  "IGMH": {
    "AvailableFormats": "2D|3D",
    "City": "Hyderabad",
    "Latitude": "17.4964",
    "Longitude": "78.3357",
    "RegionCode": "HYD",
    "State": "Telangana",
    "SubRegionCode": "HYD",
    "VenueAddress": "INOX Leisure Ltd, 4th floor, GSM Mall, Miyapur Main Road, Madinaguda, Hyderabad, Telangana 500049, India",
    "VenueCode": "IGMH",
    "VenueName": "INOX: GSM Mall, Hyderabad"
  },
  "IMJN": {
    "AvailableFormats": "2D|3D",
    "City": "Kolkata",
    "Latitude": "22.5645",
    "Longitude": "88.3516",
    "RegionCode": "KOLK",
    "State": "West Bengal",
    "SubRegionCode": "KOLK",
    "VenueAddress": "INOX Leisure Ltd., 5, Jawaharlal Nehru Road, 4th Floor, Kolkata, West Bengal 700013, India",
    "VenueCode": "IMJN",
    "VenueName": "INOX: Metro, Jawaharlal Nehru Road"
  },
  "INAA": {
    "AvailableFormats": "2D",
    "City": "Nadiad",
    "Latitude": "22.6912",
    "Longitude": "72.8653",
    "RegionCode": "NADI",
    "State": "Gujarat",
    "SubRegionCode": "NADI",
    "VenueAddress": "Inox Leisure Ltd, 3rd Floor, Opal One Mall, College Road, Nadiad, Gujarat 387001, India",
    "VenueCode": "INAA",
    "VenueName": "INOX: Opal One Mall, Nadiad"
  },
  "INBJ": {
    "AvailableFormats": "2D",
    "City": "Bengaluru",
    "Latitude": "12.9292",
    "Longitude": "77.5912",
    "RegionCode": "HOKT",
    "State": "Karnataka",
    "SubRegionCode": "HOKT",
    "VenueAddress": "4th Floor, Shree Garuda Swagath, Tilak Nagar Main Road, Jayanagar, Near Tilak Nagar Police Station, Bengaluru, Karnataka 560041, India",
    "VenueCode": "INBJ",
    "VenueName": "INOX: Garuda Swagath Mall, Jayanagar"
  },
  "INCR": {
    "AvailableFormats": "2D|3D",
    "City": "Raipur",
    "Latitude": "21.2764",
    "Longitude": "81.6873",
    "RegionCode": "RAIPUR",
    "State": "Chhattisgarh",
    "SubRegionCode": "RAIPUR",
    "VenueAddress": "1st Floor, Ambuja City Centre Mall, Vishan Sabha Road, Mowa, Near Saddu Nala, Raipur, Chhattisgarh 492007, India",
    "VenueCode": "INCR",
    "VenueName": "INOX: Ambuja City Centre, Raipur"
  },
  "INGO": {
    "AvailableFormats": "2D|3D",
    "City": "Goa",
    "Latitude": "15.4991",
    "Longitude": "73.8212",
    "RegionCode": "PANA",
    "State": "Goa",
    "SubRegionCode": "PANA",
    "VenueAddress": "Dayanand Bandodkar Marg, Old GMC Heritage Precinct, D.B.Road, General Bernardo Guedes Road, Goa, Goa 403001, India",
    "VenueCode": "INGO",
    "VenueName": "INOX: Old GMC, DB Road, Panaji"
  },
  "INKO": {
    "AvailableFormats": "3D|2D",
    "City": "Thane",
    "Latitude": "19.2032",
    "Longitude": "72.9649",
    "RegionCode": "MUMBAI",
    "State": "Maharashtra",
    "SubRegionCode": "THNE",
    "VenueAddress": "3rd Floor, Korum Mall, Mangal Pandey Road Thane West, Off Eastern Express Highway, Thane, Maharashtra 400606, India",
    "VenueCode": "INKO",
    "VenueName": "INOX: Korum Mall, Eastern Express Highway, Thane"
  },
  "INNS": {
    "AvailableFormats": "2D|3D",
    "City": "Bhubaneswar",
    "Latitude": "20.323",
    "Longitude": "85.8817",
    "RegionCode": "BHUB",
    "State": "Odisha",
    "SubRegionCode": "BHUB",
    "VenueAddress": "Plot No.149 Rudrapur NH16, Near Reliance Trends, Bhubaneswar, Odisha 752101, India",
    "VenueCode": "INNS",
    "VenueName": "INOX: Symphony Mall"
  },
  "INPR": {
    "AvailableFormats": "2D|3D|IMAX 2D",
    "City": "Chennai",
    "Latitude": "12.9921",
    "Longitude": "80.2172",
    "RegionCode": "CHEN",
    "State": "Tamil Nadu",
    "SubRegionCode": "CHEN",
    "VenueAddress": "Formerly Jazz Cinemas, 2nd Floor, Phoenix Market City, Velachery Main Road, Velachery, Chennai, Tamil Nadu 600042, India",
    "VenueCode": "INPR",
    "VenueName": "INOX: LUXE Phoenix Market City, Velachery"
  },
  "INRP": {
    "AvailableFormats": "3D|2D",
    "City": "Raipur",
    "Latitude": "21.2364",
    "Longitude": "81.6856",
    "RegionCode": "RAIPUR",
    "State": "Chhattisgarh",
    "SubRegionCode": "RAIPUR",
    "VenueAddress": "3rd Floor, City Mall 36, Great Eastern Road, NH-6, Vishal Nagar, Raipur, Chhattisgarh 492001, India",
    "VenueCode": "INRP",
    "VenueName": "INOX: City Mall 36, G E Road"
  },
  "INSR": {
    "AvailableFormats": "2D|3D",
    "City": "Siliguri",
    "Latitude": "26.725",
    "Longitude": "88.3954",
    "RegionCode": "SILI",
    "State": "West Bengal",
    "SubRegionCode": "SILI",
    "VenueAddress": "2nd floor, City Centre Mall, Matigara, Siliguri, West Bengal 734010, India",
    "VenueCode": "INSR",
    "VenueName": "INOX: City Centre, Siliguri"
  },
  "INVD": {
    "AvailableFormats": "2D|3D",
    "City": "Vadodara",
    "Latitude": "22.3131",
    "Longitude": "73.1579",
    "RegionCode": "VAD",
    "State": "Gujarat",
    "SubRegionCode": "VAD",
    "VenueAddress": "Race Course Road, Gopal Baug, Ellora Park, Vadodara, Gujarat 390007, India",
    "VenueCode": "INVD",
    "VenueName": "INOX: Race Course Circle"
  },
  "INXR": {
    "AvailableFormats": "2D",
    "City": "Surat",
    "Latitude": "21.2293",
    "Longitude": "72.8967",
    "RegionCode": "SURT",
    "State": "Gujarat",
    "SubRegionCode": "SURT",
    "VenueAddress": "RAJ Imperial, 3rd Floor, Deepkamal Mall And Multiplex, Varachha Road, Sarthana Jakat Naka, Near Sarthana Zoo, Surat, Gujarat 395006, India",
    "VenueCode": "INXR",
    "VenueName": "Raj Imperial, INOX: Varachha Road, Surat"
  },
  "IOTG": {
    "AvailableFormats": "3D|2D",
    "City": "Ghaziabad",
    "Latitude": "28.6539",
    "Longitude": "77.4373",
    "RegionCode": "MRDG",
    "State": "NCR",
    "SubRegionCode": "MRDG",
    "VenueAddress": "The Opulent Mall, Grand Trunk Road, New Gandhi Nagar, Nehru Nagar III, Ghaziabad, NCR 201001, India",
    "VenueCode": "IOTG",
    "VenueName": "PVR: Opulent, Ghaziabad"
  },
  "IPSG": {
    "AvailableFormats": "2D",
    "City": "Varanasi",
    "Latitude": "25.3167",
    "Longitude": "82.9901",
    "RegionCode": "VAR",
    "State": "Uttar Pradesh",
    "SubRegionCode": "VAR",
    "VenueAddress": "IP SIGRA Shopping Mall, Vidyapeeth Road, Sigra, Shastri Nagar, Guru Nanak Nagar Colony, IP Mall, Varanasi, Uttar Pradesh 221002, India",
    "VenueCode": "IPSG",
    "VenueName": "IP Cinemas: IP Sigra Mall, Varanasi"
  },
  "ISRM": {
    "AvailableFormats": "2D",
    "City": "Surat",
    "Latitude": "21.1817",
    "Longitude": "72.8313",
    "RegionCode": "SURT",
    "State": "Gujarat",
    "SubRegionCode": "SURT",
    "VenueAddress": "4th Floor, Reliance Mega Mall, Udhna, Nearby Reliance Smart, Surat, Gujarat 395002, India",
    "VenueCode": "ISRM",
    "VenueName": "INOX: Reliance Mall, Surat"
  },
  "JAAD": {
    "AvailableFormats": "",
    "City": "Rajapalayam",
    "FirstTracked": "2026-07-14",
    "Latitude": "9.44257",
    "Longitude": "77.55871",
    "RegionCode": "RAYM",
    "State": "Tamil Nadu",
    "SubRegionCode": "RAYM",
    "VenueAddress": "Vembakottai Road, PSK Nagar, Srirengapalayam, Near Muthu Medicals, Rajapalayam, Tamil Nadu 626117, India",
    "VenueCode": "JAAD",
    "VenueName": "Jeya Anand Theatre Dolby Atmos: Rajapalayam"
  },
  "JBTT": {
    "AvailableFormats": "2D",
    "City": "Tumakuru (Tumkur)",
    "Latitude": "13.345",
    "Longitude": "77.0969",
    "RegionCode": "TUMK",
    "State": "Karnataka",
    "SubRegionCode": "TUMK",
    "VenueAddress": "Mandipet Main Road, Opposite Church Road, New Mandipet, Tumakuru (Tumkur), Karnataka 572101, India",
    "VenueCode": "JBTT",
    "VenueName": "Jai Bharath Theater 4K Atmos: Tumkur"
  },
  "JCNM": {
    "AvailableFormats": "2D",
    "City": "Dindigul",
    "Latitude": "10.288",
    "Longitude": "77.9201",
    "RegionCode": "DIND",
    "State": "Tamil Nadu",
    "SubRegionCode": "DIND",
    "VenueAddress": "Balasubramanian Street, Keelakottai, Chinnalapatti, Dindigul, Tamil Nadu 624301, India",
    "VenueCode": "JCNM",
    "VenueName": "J Cinemas A/C 7.1 Laser Projector: Chinnalapatti"
  },
  "JETP": {
    "AvailableFormats": "2D",
    "City": "Pala",
    "Latitude": "9.71532",
    "Longitude": "76.6894",
    "RegionCode": "PALL",
    "State": "Kerala",
    "SubRegionCode": "PALL",
    "VenueAddress": "State Highway 32, Chakkampuzha Road, Near KSRTC Bus Stand, Pala, Kerala 686575, India",
    "VenueCode": "JETP",
    "VenueName": "Jo`s A/c 2k3D 7.1 Dolby Sound: Pala"
  },
  "JJDA": {
    "AvailableFormats": "2D",
    "City": "Pathapatnam",
    "Latitude": "18.7523",
    "Longitude": "84.0947",
    "RegionCode": "PRKM",
    "State": "Andhra Pradesh",
    "SubRegionCode": "PRKM",
    "VenueAddress": "Jagatha Janani Theatre, Near St.Ann`s School, Srikakulam District, Pathapatnam, Andhra Pradesh 532213, India",
    "VenueCode": "JJDA",
    "VenueName": "J &J Cinemas A/C Dolby Atmos: Pathapatnam"
  },
  "JMBA": {
    "AvailableFormats": "2D",
    "City": "Buchireddypalem",
    "Latitude": "14.5351",
    "Longitude": "79.8773",
    "RegionCode": "BCHR",
    "State": "Andhra Pradesh",
    "SubRegionCode": "BCHR",
    "VenueAddress": "Buchi Old, Bus stand, SH 57, Nagamambapuram, Buchireddypalem, Andhra Pradesh 524305, India",
    "VenueCode": "JMBA",
    "VenueName": "Jameela Mahal: Buchireddypalem"
  },
  "JPCC": {
    "AvailableFormats": "2D",
    "City": "Chhatarpur",
    "Latitude": "24.9439",
    "Longitude": "79.564",
    "RegionCode": "CHHT",
    "State": "Madhya Pradesh",
    "SubRegionCode": "CHHT",
    "VenueAddress": "JP Paradise, Peptech Town, Nowgong Road, National Highway 39, Chhatarpur, Madhya Pradesh 471001, India",
    "VenueCode": "JPCC",
    "VenueName": "JP Cinemas: Chhatarpur"
  },
  "JTAB": {
    "AvailableFormats": "",
    "City": "Peddapalli",
    "FirstTracked": "2026-07-14",
    "Latitude": "18.61074",
    "Longitude": "79.38101",
    "RegionCode": "PEDA",
    "State": "Telangana",
    "SubRegionCode": "PEDA",
    "VenueAddress": "Hyderabad - Ramagundam Road, Near Sharanya Hospital, Peddapalli, Telangana 505172, India",
    "VenueCode": "JTAB",
    "VenueName": "Srinivasa 70MM AC Delux: Peddapalli"
  },
  "JTGT": {
    "AvailableFormats": "2D",
    "City": "Payakaraopeta",
    "Latitude": "17.3622",
    "Longitude": "82.5493",
    "RegionCode": "PATE",
    "State": "Andhra Pradesh",
    "SubRegionCode": "PATE",
    "VenueAddress": "Tuni, Payakaraopeta Town Road, Near Panduranga Swamy Temple, Payakaraopeta, Andhra Pradesh 531126, India",
    "VenueCode": "JTGT",
    "VenueName": "Gautham Theatre: Payakaraopeta"
  },
  "JTMT": {
    "AvailableFormats": "",
    "City": "Adilabad",
    "FirstTracked": "2026-07-14",
    "Latitude": "19.67155",
    "Longitude": "78.534355",
    "RegionCode": "ADIL",
    "State": "Telangana",
    "SubRegionCode": "ADIL",
    "VenueAddress": "Mahalaxmiwada, Near Devi Maa Temple, Adilabad, Telangana 504001, India",
    "VenueCode": "JTMT",
    "VenueName": "Maheshwari Theatre: Adilabad"
  },
  "JTPT": {
    "AvailableFormats": "2D",
    "City": "Tenali",
    "Latitude": "16.2406",
    "Longitude": "80.6425",
    "RegionCode": "TENA",
    "State": "Andhra Pradesh",
    "SubRegionCode": "TENA",
    "VenueAddress": "D.No.8-10-1, TS No 20, Ward No.7, Block No.3, Giri Road, Morrispet, Balajirao Pet, Near Railway Station, Tenali, Andhra Pradesh 522202, India",
    "VenueCode": "JTPT",
    "VenueName": "Priya Sri Priya Complex: Tenali"
  },
  "JTST": {
    "AvailableFormats": "2D",
    "City": "Kovur (Nellore)",
    "Latitude": "14.5019",
    "Longitude": "79.986",
    "RegionCode": "KOVR",
    "State": "Andhra Pradesh",
    "SubRegionCode": "KOVR",
    "VenueAddress": "Chinnapadugupadu, Srinivasa Theatre Road, Near State Bank ATM, Kovur (Nellore), Andhra Pradesh 524137, India",
    "VenueCode": "JTST",
    "VenueName": "Srinivas Theatre: Kovur"
  },
  "JVCM": {
    "AvailableFormats": "",
    "City": "Mathura",
    "FirstTracked": "2026-07-14",
    "Latitude": "27.383",
    "Longitude": "77.6911",
    "RegionCode": "MATH",
    "State": "Uttar Pradesh",
    "SubRegionCode": "MATH",
    "VenueAddress": "Site-B, Plot no. C-1 B, CITY HUB MALL, Opposite Refinery Mathura Industrial Area Site-A, Mathura, Uttar Pradesh 281004, India",
    "VenueCode": "JVCM",
    "VenueName": "JV Cinemas: Mathura Refinery"
  },
  "JYOT": {
    "AvailableFormats": "",
    "City": "Sadasivpet",
    "FirstTracked": "2026-07-14",
    "Latitude": "17.615894",
    "Longitude": "77.95759",
    "RegionCode": "SADA",
    "State": "Telangana",
    "SubRegionCode": "SADA",
    "VenueAddress": "NH 65, Main Road, Mumbai Highway, Near SBI, Sadasivpet, Telangana 502291, India",
    "VenueCode": "JYOT",
    "VenueName": "Jyothi 70MM: Sadasivpet"
  },
  "KAMP": {
    "AvailableFormats": "2D|3D",
    "City": "Jabalpur",
    "Latitude": "23.1652",
    "Longitude": "79.935",
    "RegionCode": "JABL",
    "State": "Madhya Pradesh",
    "SubRegionCode": "JABL",
    "VenueAddress": "4th floor, KA Mall, Jyoti talkies, Naudra Bridge, Jabalpur, Madhya Pradesh 482002, India",
    "VenueCode": "KAMP",
    "VenueName": "PVR: KA Mall, Jabalpur"
  },
  "KAYA": {
    "AvailableFormats": "2D",
    "City": "Kanchipuram",
    "Latitude": "12.8375",
    "Longitude": "79.7031",
    "RegionCode": "KNPM",
    "State": "Tamil Nadu",
    "SubRegionCode": "KNPM",
    "VenueAddress": "27, Annai Indira Gandhi Salai, Bavaji Nagar, Nellukara Street, Kanchipuram, Tamil Nadu 631502, India",
    "VenueCode": "KAYA",
    "VenueName": "Karthikeyan Cinemas A/C: Kanchipuram"
  },
  "KCKA": {
    "AvailableFormats": "2D",
    "City": "Korutla",
    "Latitude": "18.8262",
    "Longitude": "78.7134",
    "RegionCode": "KCKA",
    "State": "Telangana",
    "SubRegionCode": "KCKA",
    "VenueAddress": "Nizamabad - Mancherial Road, NH 63, Near LIC of India Satellite Ofc, Korutla, Telangana 505326, India",
    "VenueCode": "KCKA",
    "VenueName": "Kinnera Deluxe Theatre: Korutla"
  },
  "KCPM": {
    "AvailableFormats": "2D",
    "City": "Pattambi",
    "Latitude": "10.8016",
    "Longitude": "76.1664",
    "RegionCode": "PTMB",
    "State": "Kerala",
    "SubRegionCode": "PTMB",
    "VenueAddress": "Puthiya Gate, Koppam - Muthuthala Road, Perumudiyur P.O, Pattambi, Kerala 679303, India",
    "VenueCode": "KCPM",
    "VenueName": "Krishna Cineplex: 4K RGB Laser 3D Dolby Atmos"
  },
  "KDCN": {
    "AvailableFormats": "",
    "City": "Vadakkencherry",
    "FirstTracked": "2026-07-14",
    "Latitude": "10.589787",
    "Longitude": "76.47631",
    "RegionCode": "VDCY",
    "State": "Kerala",
    "SubRegionCode": "VDCY",
    "VenueAddress": "Main Road, Near Sree Krishna Temple, Vadakkencherry, Kerala 678683, India",
    "VenueCode": "KDCN",
    "VenueName": "Kadankavil Cinemas 2K Laser: Vadakkenchery"
  },
  "KGCM": {
    "AvailableFormats": "2D",
    "City": "Coimbatore",
    "Latitude": "11.0001",
    "Longitude": "76.9721",
    "RegionCode": "COIM",
    "State": "Tamil Nadu",
    "SubRegionCode": "COIM",
    "VenueAddress": "No.3, Bungalow Road, Race Course, Near K G Hospital, Coimbatore, Tamil Nadu 641018, India",
    "VenueCode": "KGCM",
    "VenueName": "KG Cinemas: Coimbatore"
  },
  "KKCI": {
    "AvailableFormats": "2D|3D",
    "City": "Imphal",
    "Latitude": "24.7699",
    "Longitude": "93.9367",
    "RegionCode": "IMPH",
    "State": "Manipur",
    "SubRegionCode": "IMPH",
    "VenueAddress": "Kumecs Infratech, Kumecs City Centre, Kakwa, Imphal West, Imphal, Manipur 795008, India",
    "VenueCode": "KKCI",
    "VenueName": "Kumecs Cinema: Imphal"
  },
  "KLJL": {
    "AvailableFormats": "2D",
    "City": "Yellandu",
    "Latitude": "17.5843",
    "Longitude": "80.329",
    "RegionCode": "YRLL",
    "State": "Telangana",
    "SubRegionCode": "YRLL",
    "VenueAddress": "Bhagya Nagar, Thanda, Yellandu, Telangana 507123, India",
    "VenueCode": "KLJL",
    "VenueName": "Kalanjali Theater: Yellandu"
  },
  "KMMV": {
    "AvailableFormats": "2D|3D",
    "City": "Mumbai",
    "Latitude": "19.3708",
    "Longitude": "72.8137",
    "RegionCode": "MUMBAI",
    "State": "Maharashtra",
    "SubRegionCode": "MWEST",
    "VenueAddress": "Kauls Mall, Agarwal Complex, Bhabola Chulna Road, Kaul Heritage City, Vasai (West), Mumbai, Maharashtra 401202, India",
    "VenueCode": "KMMV",
    "VenueName": "K Movie Star Multiplex: Vasai (W)"
  },
  "KOMS": {
    "AvailableFormats": "2D",
    "City": "Sahjanwa",
    "Latitude": "26.7594",
    "Longitude": "83.2154",
    "RegionCode": "GRKP",
    "State": "Uttar Pradesh",
    "SubRegionCode": "GRKP",
    "VenueAddress": "Sanichar Bazaar, Mandi Road, Sahjanwa, Uttar Pradesh 273209, India",
    "VenueCode": "KOMS",
    "VenueName": "Hari Om Multiplex: Sahjanwa"
  },
  "KRCD": {
    "AvailableFormats": "",
    "City": "Vadodara",
    "FirstTracked": "2026-07-14",
    "Latitude": "22.13212",
    "Longitude": "73.40637",
    "RegionCode": "VAD",
    "State": "Gujarat",
    "SubRegionCode": "VAD",
    "VenueAddress": "Sarita Nagar Society, College Road, Vadodara, Gujarat 391110, India",
    "VenueCode": "KRCD",
    "VenueName": "Krishna Cinema: Dabhoi"
  },
  "KRTA": {
    "AvailableFormats": "2D",
    "City": "Kazhakkoottam",
    "Latitude": "8.5664",
    "Longitude": "76.875",
    "RegionCode": "TRIV",
    "State": "Kerala",
    "SubRegionCode": "TRIV",
    "VenueAddress": "NH 47, Bypass Road, Near Bhima Theatre, Kazhakkoottam, Kerala 695582, India",
    "VenueCode": "KRTA",
    "VenueName": "Krishna Theatre: Kazhakkoottam"
  },
  "KSGK": {
    "AvailableFormats": "2D",
    "City": "Vizag (Visakhapatnam)",
    "Latitude": "17.6864",
    "Longitude": "83.208",
    "RegionCode": "SABB",
    "State": "Andhra Pradesh",
    "SubRegionCode": "SABB",
    "VenueAddress": "Main Road, Old Gajuwaka, Near Mamata Hospital, Vizag (Visakhapatnam), Andhra Pradesh 530026, India",
    "VenueCode": "KSGK",
    "VenueName": "Sree Kanya Cinemas: Gajuwaka"
  },
  "KSTN": {
    "AvailableFormats": "",
    "City": "Nagaon",
    "FirstTracked": "2026-07-14",
    "Latitude": "26.351933",
    "Longitude": "92.68961",
    "RegionCode": "NAAM",
    "State": "Assam",
    "SubRegionCode": "NAAM",
    "VenueAddress": "Professors Colony, M.G. Road, Nagaon GPO, Near The Professional Couriers, Nagaon, Assam 782001, India",
    "VenueCode": "KSTN",
    "VenueName": "Krishna Talkies: Nagaon"
  },
  "KTJG": {
    "AvailableFormats": "",
    "City": "Jaggampeta",
    "FirstTracked": "2026-07-14",
    "Latitude": "17.1752",
    "Longitude": "82.0621",
    "RegionCode": "JAGG",
    "State": "Andhra Pradesh",
    "SubRegionCode": "JAGG",
    "VenueAddress": "Jaggampeta-Ramavaram Road, Near Bank of Baroda, Jaggampeta, Andhra Pradesh 533435, India",
    "VenueCode": "KTJG",
    "VenueName": "Krishnaveni Theatre: Jaggampeta"
  },
  "KURL": {
    "AvailableFormats": "2D",
    "City": "Mumbai",
    "Latitude": "19.0669",
    "Longitude": "72.8773",
    "RegionCode": "MUMBAI",
    "State": "Maharashtra",
    "SubRegionCode": "MCENT",
    "VenueAddress": "Station Road, Kurla West, Mumbai, Maharashtra 400070, India",
    "VenueCode": "KURL",
    "VenueName": "Bharat Cineplex: Kurla (W)"
  },
  "LACT": {
    "AvailableFormats": "",
    "City": "Thuraiyur",
    "FirstTracked": "2026-07-14",
    "Latitude": "11.150786",
    "Longitude": "78.593605",
    "RegionCode": "THYR",
    "State": "Tamil Nadu",
    "SubRegionCode": "THYR",
    "VenueAddress": "3A, South Car Street, Senappanallur Road, Near HDFC Bank, Thuraiyur, Tamil Nadu 621010, India",
    "VenueCode": "LACT",
    "VenueName": "LA Cinemas Dolby Atmos: Thuraiyur"
  },
  "LATG": {
    "AvailableFormats": "",
    "City": "Trichy",
    "FirstTracked": "2026-07-14",
    "Latitude": "10.827378",
    "Longitude": "78.68944",
    "RegionCode": "TRIC",
    "State": "Tamil Nadu",
    "SubRegionCode": "TRIC",
    "VenueAddress": "Maris Theater Complex, Fort Station Road, Trichy, Tamil Nadu 620002, India",
    "VenueCode": "LATG",
    "VenueName": "LA CINEMA MARIS COMPLEX RGB LASER: TRICHY"
  },
  "LCNS": {
    "AvailableFormats": "2D",
    "City": "Nagpur",
    "Latitude": "21.1576",
    "Longitude": "79.0798",
    "RegionCode": "NAGP",
    "State": "Maharashtra",
    "SubRegionCode": "NAGP",
    "VenueAddress": "Besides Hotel Tuli Residency Road, Bazar Road Sadar Bazar Liberty Chowk, Mangalwari Bazar, Nagpur, Maharashtra 440001, India",
    "VenueCode": "LCNS",
    "VenueName": "Liberty Cinema: Sadar"
  },
  "LETK": {
    "AvailableFormats": "",
    "City": "Kallakurichi",
    "FirstTracked": "2026-07-14",
    "Latitude": "11.7347",
    "Longitude": "78.9634",
    "RegionCode": "ATTR",
    "State": "Tamil Nadu",
    "SubRegionCode": "ATTR",
    "VenueAddress": "State Highway 6, Raja Nagar, Kallakurichi, Near Lakshmi Vilas Bank, Kallakurichi, Tamil Nadu 606213, India",
    "VenueCode": "LETK",
    "VenueName": "LENA CINE SPACE A/C 4K RGB LASER DOLBY ATMOS"
  },
  "LKCT": {
    "AvailableFormats": "2D",
    "City": "Tanuku",
    "Latitude": "16.7493",
    "Longitude": "81.6831",
    "RegionCode": "TADP",
    "State": "Andhra Pradesh",
    "SubRegionCode": "TADP",
    "VenueAddress": "Lakshmi Complex, Velpur Road,Venkiatrayapuram, Near Kadharawara Sweet Shop, Tanuku, Andhra Pradesh 534211, India",
    "VenueCode": "LKCT",
    "VenueName": "Lakshmi Complex: Tanuku"
  },
  "LLCH": {
    "AvailableFormats": "2D",
    "City": "Haldwani",
    "Latitude": "29.2121",
    "Longitude": "79.5275",
    "RegionCode": "HALD",
    "State": "Uttarakhand",
    "SubRegionCode": "HALD",
    "VenueAddress": "Sindhi Chaurah, Rampur Road, Nainital, Haldwani, Uttarakhand 263139, India",
    "VenueCode": "LLCH",
    "VenueName": "Laxmi Cineplex: Haldwani"
  },
  "LPCH": {
    "AvailableFormats": "2D|3D",
    "City": "Hubballi (Hubli)",
    "Latitude": "15.3485",
    "Longitude": "75.1443",
    "RegionCode": "HUBL",
    "State": "Karnataka",
    "SubRegionCode": "HUBL",
    "VenueAddress": "3rd Floor, Laxmi Mall, Coen Road, Shree Shakti Road, J C Nagar, New Hubli, Hubballi (Hubli), Karnataka 580020, India",
    "VenueCode": "LPCH",
    "VenueName": "Laxmi Citypride Multiplex: Laxmi Mall, Hubli"
  },
  "LTRM": {
    "AvailableFormats": "2D",
    "City": "Ratlam",
    "Latitude": "23.3291",
    "Longitude": "75.0381",
    "RegionCode": "KHCU",
    "State": "Madhya Pradesh",
    "SubRegionCode": "KHCU",
    "VenueAddress": "Lokendra Talkies Road, Sahar Sarai, Laxman Pura, Katju Nagar, Near Getwell Hospital and Research Center, Ratlam, Madhya Pradesh 457001, India",
    "VenueCode": "LTRM",
    "VenueName": "Shri Lokendra Talkies (Laser Projector): Ratlam"
  },
  "LXTK": {
    "AvailableFormats": "2D",
    "City": "Kakinada",
    "Latitude": "16.9442",
    "Longitude": "82.2361",
    "RegionCode": "KAKI",
    "State": "Andhra Pradesh",
    "SubRegionCode": "KAKI",
    "VenueAddress": "D No. 42-1-11, Vallabhai Street, Cinema Road, Suryanarayana Puram, Kakinada, Andhra Pradesh 533001, India",
    "VenueCode": "LXTK",
    "VenueName": "Laxmi  A/C  Dts 2K: Kakinada"
  },
  "MABI": {
    "AvailableFormats": "2D|3D",
    "City": "Bhilai",
    "Latitude": "21.2125",
    "Longitude": "81.4321",
    "RegionCode": "BHILAI",
    "State": "Chhattisgarh",
    "SubRegionCode": "BHILAI",
    "VenueAddress": "Nagar Palika Road, Shanti Nagar, Charoda, Near Jila Sahakari Kendriya Bank Maryadit Bank, Bhilai, Chhattisgarh 490021, India",
    "VenueCode": "MABI",
    "VenueName": "Mukta A2 Cinema, Babyloon (Bhilai 3): Bhilai"
  },
  "MADC": {
    "AvailableFormats": "2D",
    "City": "Badnagar",
    "Latitude": "23.0591",
    "Longitude": "75.3722",
    "RegionCode": "BADA",
    "State": "Madhya Pradesh",
    "SubRegionCode": "BADA",
    "VenueAddress": "Swastik Enterprises, Diversion Road, Court Choraha, Badnagar, Madhya Pradesh 456771, India",
    "VenueCode": "MADC",
    "VenueName": "Madhuram Cineplex (The Box) Badnagar: Ujjain"
  },
  "MAJT": {
    "AvailableFormats": "2D",
    "City": "Kochi",
    "Latitude": "10.0448",
    "Longitude": "76.2176",
    "RegionCode": "PALY",
    "State": "Kerala",
    "SubRegionCode": "PALY",
    "VenueAddress": "Vypin - Pallipuram Road, Narakkal, Njarackal Ernakulam, Near Narakkal Gramapanchayath Karyalayam, Kochi, Kerala 682505, India",
    "VenueCode": "MAJT",
    "VenueName": "Majestic Multiplex 4K RGB Laser: Narakkal"
  },
  "MAPM": {
    "AvailableFormats": "2D|3D",
    "City": "Bhopal",
    "Latitude": "23.3045",
    "Longitude": "77.4219",
    "RegionCode": "BHOP",
    "State": "Madhya Pradesh",
    "SubRegionCode": "BHOP",
    "VenueAddress": "1st Floor, Peoples Mall, Peoples Campus, Bhanpur, Bhopal, Madhya Pradesh 462037, India",
    "VenueCode": "MAPM",
    "VenueName": "Mukta A2 Cinemas: Peoples Mall, Bhopal"
  },
  "MAVT": {
    "AvailableFormats": "",
    "City": "Punganur",
    "FirstTracked": "2026-07-14",
    "Latitude": "13.36582",
    "Longitude": "78.57048",
    "RegionCode": "PGNR",
    "State": "Andhra Pradesh",
    "SubRegionCode": "PGNR",
    "VenueAddress": "Tatimakula palem road, Near Hotel SRI Restaurant, Punganur, Andhra Pradesh 517247, India",
    "VenueCode": "MAVT",
    "VenueName": "Sri Venkateshwara Mahal A/C Dolby Atmos 2K"
  },
  "MBDC": {
    "AvailableFormats": "2D",
    "City": "Kozhikode",
    "Latitude": "11.2599",
    "Longitude": "75.787",
    "RegionCode": "KOZH",
    "State": "Kerala",
    "SubRegionCode": "KOZH",
    "VenueAddress": "3rd Floor, Mavoor Road, Near Mofussil Bus Stand, Kozhikode, Kerala 673004, India",
    "VenueCode": "MBDC",
    "VenueName": "Miraj Cinemas: Blue Diamond Mall, Calicut"
  },
  "MCAZ": {
    "AvailableFormats": "",
    "City": "Delhi",
    "Latitude": "28.7099",
    "Longitude": "77.1782",
    "RegionCode": "NCR",
    "State": "NCR",
    "SubRegionCode": "DELHI",
    "VenueAddress": "Aakash Cinema Complex, 2nd Floor, Naniwala Bagh, Azadpur, Delhi, NCR 110033, India",
    "VenueCode": "MCAZ",
    "VenueName": "Miraj Cinemas: Aakash, Azadpur"
  },
  "MCCZ": {
    "AvailableFormats": "2D",
    "City": "Ambajogai",
    "Latitude": "18.7313",
    "Longitude": "76.391",
    "RegionCode": "AMBG",
    "State": "Maharashtra",
    "SubRegionCode": "AMBG",
    "VenueAddress": "Prashant Nagar, Dr. B.R Ambedkar Road, Ambajogai, Maharashtra 431517, India",
    "VenueCode": "MCCZ",
    "VenueName": "Mohan Cinemark: Ambajogai"
  },
  "MCFS": {
    "AvailableFormats": "",
    "City": "Tirur",
    "FirstTracked": "2026-07-14",
    "Latitude": "10.90895",
    "Longitude": "75.919014",
    "RegionCode": "TRUR",
    "State": "Kerala",
    "SubRegionCode": "TRUR",
    "VenueAddress": "Paravanna Road, Poongotukulam, Tirur, Kerala 676101, India",
    "VenueCode": "MCFS",
    "VenueName": "Magic Frames Khayaam 4k Dolby Atmos 3D: Tirur"
  },
  "MCHR": {
    "AvailableFormats": "",
    "City": "Hisar",
    "FirstTracked": "2026-07-14",
    "Latitude": "29.15723",
    "Longitude": "75.72142",
    "RegionCode": "HISR",
    "State": "Haryana",
    "SubRegionCode": "HISR",
    "VenueAddress": "3rd Floor, Eminent Mall - Red Square Market, Delhi Road, Hisar, Haryana 125001, India",
    "VenueCode": "MCHR",
    "VenueName": "Miraj Cinemas: Hisar"
  },
  "MCKP": {
    "AvailableFormats": "",
    "City": "Abohar",
    "Latitude": "30.1284",
    "Longitude": "74.2053",
    "RegionCode": "ABOR",
    "State": "Punjab",
    "SubRegionCode": "ABOR",
    "VenueAddress": "Abohar - Hanumangarh Road, Hanumangarh, Abohar, Punjab 152116, India",
    "VenueCode": "MCKP",
    "VenueName": "Miraj Cinemas: Kundan Palace, Abohar"
  },
  "MCNA": {
    "AvailableFormats": "2D|3D",
    "City": "Ahmedabad",
    "Latitude": "23.082",
    "Longitude": "72.6727",
    "RegionCode": "AHD",
    "State": "Gujarat",
    "SubRegionCode": "AHD",
    "VenueAddress": "5th floor, Vitthal Plaza, Naroda Dahegam Road, New Naroda, Opp GEB, Ahmedabad, Gujarat 382330, India",
    "VenueCode": "MCNA",
    "VenueName": "Miraj Cinemas: Vitthal Plaza, New Naroda"
  },
  "MCRM": {
    "AvailableFormats": "3D|2D",
    "City": "Mumbai",
    "Latitude": "19.1841",
    "Longitude": "72.9524",
    "RegionCode": "MUMBAI",
    "State": "Maharashtra",
    "SubRegionCode": "MCENT",
    "VenueAddress": "3rd Floor, R Mall, L.B.S Marg, Near Mulund Check Naka and Kamgar Colony, Mulund West, Mumbai, Maharashtra 400080, India",
    "VenueCode": "MCRM",
    "VenueName": "Miraj Cinemas: R Mall, Mulund"
  },
  "MCSS": {
    "AvailableFormats": "",
    "City": "Hyderabad",
    "Latitude": "17.3678",
    "Longitude": "78.5363",
    "RegionCode": "HYD",
    "State": "Telangana",
    "SubRegionCode": "HYD",
    "VenueAddress": "Opposite Kothapet Fruit Market, Beside Reddy Bar and Restaurant, Kothapet Near Induss Hospital, Hyderabad, Telangana 500036, India",
    "VenueCode": "MCSS",
    "VenueName": "Miraj Cinemas: Shalini Shivani, Kothapet"
  },
  "MCVM": {
    "AvailableFormats": "",
    "City": "Delhi",
    "Latitude": "28.6123",
    "Longitude": "77.3111",
    "RegionCode": "NCR",
    "State": "NCR",
    "SubRegionCode": "DELHI",
    "VenueAddress": "Chand Cinema Building, Trilokpuri, Mayur Vihar Phase 1, Near Sanjay Lake Trilokpuri Metro Station, New Delhi, Delhi, NCR 110091, India",
    "VenueCode": "MCVM",
    "VenueName": "Miraj Cinemas: Chand, Mayur Vihar Phase 1"
  },
  "MDIT": {
    "AvailableFormats": "2D",
    "City": "Trichy",
    "Latitude": "10.7464",
    "Longitude": "78.59",
    "RegionCode": "TRIC",
    "State": "Tamil Nadu",
    "SubRegionCode": "TRIC",
    "VenueAddress": "484 Navalurkottapattu, Dindigul High Road, Trichy, Tamil Nadu 620009, India",
    "VenueCode": "MDIT",
    "VenueName": "A-Moorthys Drive-In Theatre: Trichy"
  },
  "MELD": {
    "AvailableFormats": "2D",
    "City": "Vizag (Visakhapatnam)",
    "Latitude": "17.7113",
    "Longitude": "83.3005",
    "RegionCode": "SABB",
    "State": "Andhra Pradesh",
    "SubRegionCode": "SABB",
    "VenueAddress": "Suryabagh, Jagadamba Junction, V Max Theatre, Vizag, Andhra Pradesh 530020, India",
    "VenueCode": "MELD",
    "VenueName": "Sri Melody HDR Dolby Atmos: Vizag"
  },
  "METH": {
    "AvailableFormats": "2D|3D",
    "City": "Ahmedabad",
    "Latitude": "23.1027",
    "Longitude": "72.5952",
    "RegionCode": "AHD",
    "State": "Gujarat",
    "SubRegionCode": "AHD",
    "VenueAddress": "4D Square Mall, Visat - Gandhinagar Highway, Ahmedabad, Gujarat 380005, India",
    "VenueCode": "METH",
    "VenueName": "PVR: Motera, Ahmedabad"
  },
  "MHFF": {
    "AvailableFormats": "3D|2D",
    "City": "Yavatmal",
    "Latitude": "20.4011",
    "Longitude": "78.1302",
    "RegionCode": "YAVA",
    "State": "Maharashtra",
    "SubRegionCode": "YAVA",
    "VenueAddress": "Bombaywala Compound, C/o Zuber Imdad Ali Bombaywala, Plot No.6 Wanjari Fail SBI Road, Opposite Khoja Colony, Yavatmal, Maharashtra 445001, India",
    "VenueCode": "MHFF",
    "VenueName": "MH29 Fun N Food Miniplex: Yavatmal"
  },
  "MINL": {
    "AvailableFormats": "2D",
    "City": "Sangli",
    "Latitude": "17.094",
    "Longitude": "74.459",
    "RegionCode": "ASMA",
    "State": "Maharashtra",
    "SubRegionCode": "ASMA",
    "VenueAddress": "Karad Tasgaon Road, Near Old S T Stand, Sangli, Maharashtra 416310, India",
    "VenueCode": "MINL",
    "VenueName": "Minakshi Cinema: Palus"
  },
  "MJMJ": {
    "AvailableFormats": "2D|3D",
    "City": "Jabalpur",
    "Latitude": "23.1241",
    "Longitude": "79.9273",
    "RegionCode": "JABL",
    "State": "Madhya Pradesh",
    "SubRegionCode": "JABL",
    "VenueAddress": "2nd Floor, South Avenue Mall, Narmada Road, Polipather, Jabalpur, Madhya Pradesh 482008, India",
    "VenueCode": "MJMJ",
    "VenueName": "Movie Magic (SAM): Jabalpur"
  },
  "MKNS": {
    "AvailableFormats": "",
    "City": "Aligarh",
    "FirstTracked": "2026-07-14",
    "Latitude": "27.886385",
    "Longitude": "78.07768",
    "RegionCode": "ALI",
    "State": "Uttar Pradesh",
    "SubRegionCode": "ALI",
    "VenueAddress": "Ramghat Road, Shyam Nagar, Aligarh, Uttar Pradesh 202001, India",
    "VenueCode": "MKNS",
    "VenueName": "Meenakshi Cinema: Aligarh"
  },
  "MLDT": {
    "AvailableFormats": "2D",
    "City": "Bengaluru",
    "Latitude": "12.9987",
    "Longitude": "77.5035",
    "RegionCode": "HOKT",
    "State": "Karnataka",
    "SubRegionCode": "HOKT",
    "VenueAddress": "Magadi Main Road, Near Hegganahalli Cross, Sunkadakatte, Bengaluru, Karnataka 560091, India",
    "VenueCode": "MLDT",
    "VenueName": "Mohan Cinema Barco 4K A/C 7.1: Sunkadakatte"
  },
  "MMCK": {
    "AvailableFormats": "2D",
    "City": "Katghora",
    "Latitude": "22.4996",
    "Longitude": "82.5419",
    "RegionCode": "KATG",
    "State": "Chhattisgarh",
    "SubRegionCode": "KATG",
    "VenueAddress": "Murli Metro Cinema, Near Gopal Petro Pump, Bilaspur - Katghora Highway, Katghora, Chhattisgarh 495445, India",
    "VenueCode": "MMCK",
    "VenueName": "Murli Metro Cinema: Katghora"
  },
  "MMKJ": {
    "AvailableFormats": "",
    "City": "Selu",
    "FirstTracked": "2026-07-14",
    "Latitude": "19.460514",
    "Longitude": "76.43564",
    "RegionCode": "SELU",
    "State": "Maharashtra",
    "SubRegionCode": "SELU",
    "VenueAddress": "Swami Vivekanand Nagar, Maulana Azad Nagar, College Road Roadseludegaon, Phata Road, Sailu, Selu, Maharashtra 431503, India",
    "VenueCode": "MMKJ",
    "VenueName": "Meenakshi Cinemark: Selu"
  },
  "MMOM": {
    "AvailableFormats": "",
    "City": "Patiala",
    "FirstTracked": "2026-07-14",
    "Latitude": "30.337278",
    "Longitude": "76.39434",
    "RegionCode": "PATI",
    "State": "Punjab",
    "SubRegionCode": "PATI",
    "VenueAddress": "MovieMax, 2nd Floor, Omaxe Mall, Near Kali Mata Mandir, Patiala, Punjab 147001, India",
    "VenueCode": "MMOM",
    "VenueName": "MovieMax: Omaxe Mall, Patiala (SRS Earlier)"
  },
  "MMTZ": {
    "AvailableFormats": "",
    "City": "Nashik",
    "FirstTracked": "2026-07-14",
    "Latitude": "20.005316",
    "Longitude": "73.76628",
    "RegionCode": "NASK",
    "State": "Maharashtra",
    "SubRegionCode": "NASK",
    "VenueAddress": "MovieMax, Above Big Bazaar, College Road, Near Vitthal Mandir, Nashik, Maharashtra 422005, India",
    "VenueCode": "MMTZ",
    "VenueName": "MovieMaX: The Zone, College Road, Nashik"
  },
  "MMZP": {
    "AvailableFormats": "2D",
    "City": "Ponda",
    "Latitude": "15.4001",
    "Longitude": "74.0185",
    "RegionCode": "GOA",
    "State": "Goa",
    "SubRegionCode": "PONA",
    "VenueAddress": "Upper Bazar Road, Prabhu Nagar, Ponda, Goa 403401, India",
    "VenueCode": "MMZP",
    "VenueName": "Magic Moviez: Ponda"
  },
  "MNSC": {
    "AvailableFormats": "",
    "City": "Jajpur Road",
    "FirstTracked": "2026-07-14",
    "Latitude": "20.93864",
    "Longitude": "86.15278",
    "RegionCode": "JAJP",
    "State": "Odisha",
    "SubRegionCode": "JAJP",
    "VenueAddress": "Vyasanagar, Panikoili Road, Jajpur Road, Odisha 755019, India",
    "VenueCode": "MNSC",
    "VenueName": "Mission Shakti Cinema: Jajpur Road"
  },
  "MRAA": {
    "AvailableFormats": "2D|3D",
    "City": "Hyderabad",
    "Latitude": "17.4824",
    "Longitude": "78.4487",
    "RegionCode": "HYD",
    "State": "Telangana",
    "SubRegionCode": "HYD",
    "VenueAddress": "A2A Central Mall, 4th Floor, Adarsh Nagar, Hyderabad, Telangana 500037, India",
    "VenueCode": "MRAA",
    "VenueName": "Miraj Cinemas: A2A Central Mall, Balanagar"
  },
  "MRHT": {
    "AvailableFormats": "",
    "City": "Kothagudem",
    "Latitude": "17.5638",
    "Longitude": "80.623",
    "RegionCode": "KTGM",
    "State": "Telangana",
    "SubRegionCode": "KTGM",
    "VenueAddress": "9-60 Behind Rajya Laxmi Motors Laxmidevipally, Srinagar, Laxmidevipalle Rural, Near Axis Bank, Kothagudem, Telangana 507101, India",
    "VenueCode": "MRHT",
    "VenueName": "Maheshwari 2K Dolby Atmos: Kothagudem"
  },
  "MRTE": {
    "AvailableFormats": "2D",
    "City": "Mandya",
    "Latitude": "12.5275",
    "Longitude": "76.8955",
    "RegionCode": "MND",
    "State": "Karnataka",
    "SubRegionCode": "MND",
    "VenueAddress": "Bangalore Mysore Highway, M.C. Road, Ashok Nagar, Mandya, Karnataka 571401, India",
    "VenueCode": "MRTE",
    "VenueName": "Mahaveer Theatre: Mandya"
  },
  "MSKT": {
    "AvailableFormats": "2D",
    "City": "Deoria",
    "Latitude": "26.5923",
    "Longitude": "83.6668",
    "RegionCode": "DEEO",
    "State": "Uttar Pradesh",
    "SubRegionCode": "DEEO",
    "VenueAddress": "Paragna-Silhat Panankunda, Tappa Indupur, Near Gauri Bazar Tehsil, Deoria, Uttar Pradesh 274202, India",
    "VenueCode": "MSKT",
    "VenueName": "Krishna Talkies: Gauri Bazar, Deoria"
  },
  "MTBG": {
    "AvailableFormats": "",
    "City": "Bhuj",
    "FirstTracked": "2026-07-14",
    "Latitude": "23.25014",
    "Longitude": "69.67019",
    "RegionCode": "BHUJ",
    "State": "Gujarat",
    "SubRegionCode": "BHUJ",
    "VenueAddress": "Near, Bus Station Road, Old Dhatia Falia, Bhuj, Gujarat 370001, India",
    "VenueCode": "MTBG",
    "VenueName": "Modern Cinema: Bhuj"
  },
  "MTDK": {
    "AvailableFormats": "2D|3D",
    "City": "Davanagere",
    "Latitude": "14.4551",
    "Longitude": "75.9056",
    "RegionCode": "DAVA",
    "State": "Karnataka",
    "SubRegionCode": "DAVA",
    "VenueAddress": "3rd Floor, SS Gardenia Mall, SS Layout, A Block, Shamanur Road, Near Lakshmi Flour Mill, Davanagere, Karnataka 577004, India",
    "VenueCode": "MTDK",
    "VenueName": "Movietime Cinemas: Davanagere"
  },
  "MTKV": {
    "AvailableFormats": "",
    "City": "Kavali",
    "FirstTracked": "2026-07-14",
    "Latitude": "14.9202",
    "Longitude": "79.9899",
    "RegionCode": "KVLI",
    "State": "Andhra Pradesh",
    "SubRegionCode": "KVLI",
    "VenueAddress": "Vaddi Palem, Theatre Road, Kavali, Andhra Pradesh 524201, India",
    "VenueCode": "MTKV",
    "VenueName": "Manasa Cinemas 4k Dolby Atmos: Kavali,Nellore"
  },
  "MTRA": {
    "AvailableFormats": "2D",
    "City": "Mylavaram",
    "Latitude": "16.7576",
    "Longitude": "80.6416",
    "RegionCode": "MYLA",
    "State": "Andhra Pradesh",
    "SubRegionCode": "MYLA",
    "VenueAddress": "Badrachalam Road, Near Shriram City Union Finance, Mylavaram, Andhra Pradesh 521230, India",
    "VenueCode": "MTRA",
    "VenueName": "Sangamithra Theater A/C 2K Dolby: Mylavaram"
  },
  "MUCH": {
    "AvailableFormats": "2D",
    "City": "Champa",
    "Latitude": "22.0317",
    "Longitude": "82.6428",
    "RegionCode": "CHAM",
    "State": "Chhattisgarh",
    "SubRegionCode": "CHAM",
    "VenueAddress": "Near Post Office, Anicut Road, Champa Basti, Champa, Chhattisgarh 495671, India",
    "VenueCode": "MUCH",
    "VenueName": "Mukund`s Multiplex: Champa"
  },
  "MVKH": {
    "AvailableFormats": "2D",
    "City": "Pollachi",
    "Latitude": "10.6558",
    "Longitude": "77.0055",
    "RegionCode": "POLL",
    "State": "Tamil Nadu",
    "SubRegionCode": "POLL",
    "VenueAddress": "19/1, Market Road, Theppakulam St, Vinayagar Kovil, Pollachi, Tamil Nadu 642001, India",
    "VenueCode": "MVKH",
    "VenueName": "Murukalaya & Vishal Cinema 4K Dolby Atmos:Pollachi"
  },
  "MXCK": {
    "AvailableFormats": "2D",
    "City": "Mumbai",
    "Latitude": "19.2123",
    "Longitude": "72.8716",
    "RegionCode": "MUMBAI",
    "State": "Maharashtra",
    "SubRegionCode": "MWEST",
    "VenueAddress": "4th Floor, Vishnu Shivam Mall, Dattani Park, Thakur Village, Kandivali East, Mumbai, Maharashtra 400101, India",
    "VenueCode": "MXCK",
    "VenueName": "Maxus Cinemas: Kandivali (E) Newly Opened"
  },
  "MYCR": {
    "AvailableFormats": "2D",
    "City": "Kariyad",
    "Latitude": "10.1616",
    "Longitude": "76.3648",
    "RegionCode": "ANGA",
    "State": "Kerala",
    "SubRegionCode": "ANGA",
    "VenueAddress": "National Highway 47, Nedumbassery, Near Cochin Airport, Kariyad, Kerala 683589, India",
    "VenueCode": "MYCR",
    "VenueName": "MY Cinemas RedCarpet: Kariyad"
  },
  "MZHA": {
    "AvailableFormats": "2D",
    "City": "Haldwani",
    "Latitude": "29.1085",
    "Longitude": "79.5245",
    "RegionCode": "HALD",
    "State": "Uttarakhand",
    "SubRegionCode": "HALD",
    "VenueAddress": "Keshav Plaza Gola Road, Naya Bazar, Haldwani, Uttarakhand 263139, India",
    "VenueCode": "MZHA",
    "VenueName": "Movie Zone Cinema: Haldwani Halduchour Lalkuan"
  },
  "NATP": {
    "AvailableFormats": "2D",
    "City": "Palakkad",
    "Latitude": "10.7774",
    "Longitude": "76.6533",
    "RegionCode": "PLKK",
    "State": "Kerala",
    "SubRegionCode": "PLKK",
    "VenueAddress": "Priyadarshini Road, Sultanpet, Near Apex Residence, Palakkad, Kerala 678001, India",
    "VenueCode": "NATP",
    "VenueName": "New Aroma Theatre: Palakkad"
  },
  "NCIL": {
    "AvailableFormats": "2D|3D",
    "City": "Lucknow",
    "Latitude": "26.848",
    "Longitude": "80.9394",
    "RegionCode": "LUCK",
    "State": "Uttar Pradesh",
    "SubRegionCode": "LUCK",
    "VenueAddress": "Lalbagh Crossing, Near Dhyanidhan Park Road, Lucknow, Uttar Pradesh 226001, India",
    "VenueCode": "NCIL",
    "VenueName": "Novelty MGS Cinemas Dolby Atmos: Lalbagh"
  },
  "NCSQ": {
    "AvailableFormats": "3D|2D",
    "City": "Guwahati",
    "Latitude": "26.1584",
    "Longitude": "91.6804",
    "RegionCode": "GUW",
    "State": "Assam",
    "SubRegionCode": "GUW",
    "VenueAddress": "PVR Limited, NCS Square Mall, A.T Road, Adabari, Guwahati, Assam 781012, India",
    "VenueCode": "NCSQ",
    "VenueName": "INOX: NCS Square, Guwahati"
  },
  "NEEB": {
    "AvailableFormats": "",
    "City": "Balotra",
    "FirstTracked": "2026-07-14",
    "Latitude": "25.833633",
    "Longitude": "72.24896",
    "RegionCode": "BALO",
    "State": "Rajasthan",
    "SubRegionCode": "BALO",
    "VenueAddress": "Gobra Nawapara, Jhanwar-Balotra Road, Balotra Urban Co-operative Bank, Balotra, Rajasthan 344022, India",
    "VenueCode": "NEEB",
    "VenueName": "Neelam Cinema: Balotra"
  },
  "NJCT": {
    "AvailableFormats": "",
    "City": "Thiruvalla",
    "FirstTracked": "2026-07-14",
    "Latitude": "9.376705",
    "Longitude": "76.55658",
    "RegionCode": "THVL",
    "State": "Kerala",
    "SubRegionCode": "THVL",
    "VenueAddress": "State Highway 12, Manipuzha Peringara Road, Near Kavumbhagom Municipality Complex, Thiruvalla, Kerala 689102, India",
    "VenueCode": "NJCT",
    "VenueName": "New Jacobs Cinemas Enhanced 4K: Thiruvalla"
  },