{
  "AACM": {
    "AvailableFormats": "2D",
    "City": "Raniganj",
    "Latitude": "23.6272",
    "Longitude": "87.1138",
    "RegionCode": "RNGJ",
    "State": "West Bengal",
    "SubRegionCode": "RNGJ",
    "VenueAddress": "N S B Road, P/O Raniganj, Raniganj, West Bengal 713347, India",
    "VenueCode": "AACM",
    "VenueName": "Anjana Chitra Mandir: Raniganj"
  },
  "AANS": {
    "AvailableFormats": "2D",
    "City": "Sawantwadi",
    "Latitude": "15.9241",
    "Longitude": "73.8362",
    "RegionCode": "ZARA",
    "State": "Maharashtra",
    "SubRegionCode": "ZAEA",
    "VenueAddress": "Survey No.45, 1A-14/15/16, Vengurla-Belgaum Road, Nirukhe, Kolgaon, Taluka Sawantwadi, District Sindudurga, Sawantwadi, Maharashtra 416510, India",
    "VenueCode": "AANS",
    "VenueName": "Arya Nova Cinemaz: Sawantwadi"
  },
  "ABCC": {
    "AvailableFormats": "2D",
    "City": "Chandrapur",
    "Latitude": "19.9469",
    "Longitude": "79.2949",
    "RegionCode": "CHAN",
    "State": "Maharashtra",
    "SubRegionCode": "CHAN",
    "VenueAddress": "Ekori Ward, Near Gandhi Chowk, Chandrapur, Maharashtra 442402, India",
    "VenueCode": "ABCC",
    "VenueName": "Cinejoy Cinema: Chandrapur"
  },
  "ABND": {
    "AvailableFormats": "2D",
    "City": "Nandyal",
    "Latitude": "15.4858",
    "Longitude": "78.4861",
    "RegionCode": "NADY",
    "State": "Andhra Pradesh",
    "SubRegionCode": "NADY",
    "VenueAddress": "Ramnath Cine Complex, Telugu Peta, Nandyal, Andhra Pradesh 518501, India",
    "VenueCode": "ABND",
    "VenueName": "Abhiram Theater: Nandyal"
  },
  "ACBD": {
    "AvailableFormats": "",
    "City": "Basantpur",
    "FirstTracked": "2026-07-14",
    "Latitude": "26.1698",
    "Longitude": "84.6684",
    "RegionCode": "BABA",
    "State": "Bihar",
    "SubRegionCode": "BABA",
    "VenueAddress": "Abhishek Cineplex, Basant Pur, Siwan, Basantpur, Bihar 841406, India",
    "VenueCode": "ACBD",
    "VenueName": "Abhishek Cineplex: Basantpur"
  },
  "ACHP": {
    "AvailableFormats": "2D",
    "City": "Pasighat",
    "Latitude": "28.0594",
    "Longitude": "95.3313",
    "RegionCode": "PSHG",
    "State": "Arunachal Pradesh",
    "SubRegionCode": "PSHG",
    "VenueAddress": "Aarun Tamuk Complex, Main Market Pasighat, Near Arunachal Pradesh Rural Bank,Pasighat, Arunachal Pradesh 791102, India",
    "VenueCode": "ACHP",
    "VenueName": "Abor Cinema Hall: Pasighat"
  },
  "ACKL": {
    "AvailableFormats": "2D",
    "City": "Khila",
    "Latitude": "22.6733",
    "Longitude": "88.0003",
    "RegionCode": "KHIL",
    "State": "West Bengal",
    "SubRegionCode": "KHIL",
    "VenueAddress": "Udaynarayanpur, Munshirhat Road, Khila, West Bengal 711410, India",
    "VenueCode": "ACKL",
    "VenueName": "Aparupa Cinema: Khila"
  },
  "ACNB": {
    "AvailableFormats": "2D|3D",
    "City": "Barasat",
    "Latitude": "22.7199",
    "Longitude": "88.4875",
    "RegionCode": "BSRT",
    "State": "West Bengal",
    "SubRegionCode": "BSRT",
    "VenueAddress": "Bus Stand, 125/1, Jessore Road, Champadali, Barasat, West Bengal 700124, India",
    "VenueCode": "ACNB",
    "VenueName": "SSR Cinemas, Suncity Mall: Barasat"
  },
  "ACRT": {
    "AvailableFormats": "2D",
    "City": "Haliya",
    "Latitude": "16.7799",
    "Longitude": "79.3224",
    "RegionCode": "HALI",
    "State": "Telangana",
    "SubRegionCode": "HALI",
    "VenueAddress": "NH 565, Near ICICI Bank ATM, Haliya, Telangana 508377, India",
    "VenueCode": "ACRT",
    "VenueName": "Acchi Reddy Theater A/c Dolby DTS: Haliya"
  },
  "ACVZ": {
    "AvailableFormats": "",
    "City": "Vizianagaram",
    "FirstTracked": "2026-07-14",
    "Latitude": "18.118046",
    "Longitude": "83.411736",
    "RegionCode": "JAMI",
    "State": "Andhra Pradesh",
    "SubRegionCode": "JAMI",
    "VenueAddress": "New Poorna Road, Park Gate Area, Near Two Town Police Station, Vizianagaram, Andhra Pradesh 535001, India",
    "VenueCode": "ACVZ",
    "VenueName": "Aditya Theatre A/c Dts: Vizianagaram"
  },
  "ADCU": {
    "AvailableFormats": "2D",
    "City": "Ujhani",
    "Latitude": "28.0031",
    "Longitude": "79.0155",
    "RegionCode": "UJHA",
    "State": "Uttar Pradesh",
    "SubRegionCode": "UJHA",
    "VenueAddress": "Mohalla Gaddi Tola Budaun Road, Near Krishna Colony, Ujhani, Uttar Pradesh 243639, India",
    "VenueCode": "ADCU",
    "VenueName": "ADS Cineplex: Ujhani"
  },
  "AEST": {
    "AvailableFormats": "2D",
    "City": "Satna",
    "Latitude": "24.5809",
    "Longitude": "80.7732",
    "RegionCode": "SATN",
    "State": "Madhya Pradesh",
    "SubRegionCode": "SATN",
    "VenueAddress": "Chandi Dai Temple Road Karhi, Satdhar, Near Bharat Petroleum, Satna, Madhya Pradesh 485441, India",
    "VenueCode": "AEST",
    "VenueName": "A - 4 Entertainment: Satna"
  },
  "AICF": {
    "AvailableFormats": "2D",
    "City": "Guwahati",
    "Latitude": "26.1322",
    "Longitude": "91.8207",
    "RegionCode": "GUW",
    "State": "Assam",
    "SubRegionCode": "GUW",
    "VenueAddress": "2nd Floor, Asffdc Limited, Shilpgram Road, Panjabari, Guwahati, Assam 781037, India",
    "VenueCode": "AICF",
    "VenueName": "Aideo Cinema Hall: ASFFDC, Panjabari, Guwahati"
  },
  "AKMD": {
    "AvailableFormats": "2D|3D",
    "City": "Chhindwara",
    "Latitude": "22.0607",
    "Longitude": "78.9455",
    "RegionCode": "CHIN",
    "State": "Madhya Pradesh",
    "SubRegionCode": "CHIN",
    "VenueAddress": "Alka Multiplex Alka Cinema Compound, Bus Stand to Station Road, Chhindwara, Madhya Pradesh 480001, India",
    "VenueCode": "AKMD",
    "VenueName": "Alka Multiplex: Chhindwara"
  },
  "ALAN": {
    "AvailableFormats": "",
    "City": "Gajendragarh",
    "FirstTracked": "2026-07-14",
    "Latitude": "15.735611",
    "Longitude": "75.96569",
    "RegionCode": "GJGH",
    "State": "Karnataka",
    "SubRegionCode": "GJGH",
    "VenueAddress": "SH 30, Near Shree Guru Sevalal Temple, Gajendragarh, Karnataka 582114, India",
    "VenueCode": "ALAN",
    "VenueName": "Alankar Theatre: Gajendragarh"
  },
  "ALUC": {
    "AvailableFormats": "2D",
    "City": "Hyderabad",
    "Latitude": "17.3896272",
    "Longitude": "78.3438856",
    "RegionCode": "HYD",
    "State": "Telangana",
    "SubRegionCode": "HYD",
    "VenueAddress": "Plot 20, Adjacent to Allu Studios, Power Welfare Society, Narsingi, Hyderabad, Telangana 500075, India",
    "VenueCode": "ALUC",
    "VenueName": "ALLU Cinemas: Kokapet"
  },
  "AMCJ": {
    "AvailableFormats": "",
    "City": "Jamnagar",
    "FirstTracked": "2026-07-14",
    "Latitude": "22.47459",
    "Longitude": "70.06799",
    "RegionCode": "JAM",
    "State": "Gujarat",
    "SubRegionCode": "JAM",
    "VenueAddress": "Near Modern Market, Pandit Nehru Road, Opposite Hotel Foliage, Jamnagar, Gujarat 361008, India",
    "VenueCode": "AMCJ",
    "VenueName": "Amber Cinema: Jamnagar"
  },
  "AMLC": {
    "AvailableFormats": "2D",
    "City": "Barrackpore",
    "Latitude": "22.7672",
    "Longitude": "88.3832",
    "RegionCode": "BARR",
    "State": "West Bengal",
    "SubRegionCode": "BARR",
    "VenueAddress": "82, Barrackpore - Barasat Road, Barrackpore, Barrackpore, West Bengal 700122, India",
    "VenueCode": "AMLC",
    "VenueName": "Amala Cinema: Barrackpore"
  },
  "AMST": {
    "AvailableFormats": "2D",
    "City": "Karimnagar",
    "Latitude": "18.4292",
    "Longitude": "79.1387",
    "RegionCode": "KARIM",
    "State": "Telangana",
    "SubRegionCode": "KARIM",
    "VenueAddress": "Srinivasa Theatre Road, Shasha Mahala, Ashoknagar, Near Kakatiya Techno School, Karimnagar, Telangana 505001, India",
    "VenueCode": "AMST",
    "VenueName": "Asian Mukta A2 Srinivasa Theatre: Karimnagar"
  },
  "ANCG": {
    "AvailableFormats": "2D",
    "City": "Gondal",
    "Latitude": "21.9615",
    "Longitude": "70.7716",
    "RegionCode": "GONA",
    "State": "Gujarat",
    "SubRegionCode": "GONA",
    "VenueAddress": "2nd Floor, Balaji Mall, Gundala Road, Gondal, Gujarat 360311, India",
    "VenueCode": "ANCG",
    "VenueName": "Auston Cinemas: Gondal"
  },
  "ANNK": {
    "AvailableFormats": "2D",
    "City": "Kothamangalam",
    "Latitude": "10.063",
    "Longitude": "76.6202",
    "RegionCode": "KTMM",
    "State": "Kerala",
    "SubRegionCode": "KTMM",
    "VenueAddress": "Dhanushkodi Rd, Kothamangalam, Near Kothamangalam Bus Stand, Kothamangalam, Kerala 686666, India",
    "VenueCode": "ANNK",
    "VenueName": "ANN Cinema Complex 4K 3D Dolby Atmos RGB LASER"
  },
  "ANTP": {
    "AvailableFormats": "2D",
    "City": "Ramachandrapuram",
    "Latitude": "16.83799",
    "Longitude": "82.02889",
    "RegionCode": "RCPR",
    "State": "Andhra Pradesh",
    "SubRegionCode": "RCPR",
    "VenueAddress": "Ramachandrapuram Road, Ramachandrapuram, Andhra Pradesh 533255, India",
    "VenueCode": "ANTP",
    "VenueName": "Annapurna A/C 2K Dolby 7.1 : Ramachandrapuram"
  },
  "APCO": {
    "AvailableFormats": "2D",
    "City": "Orai",
    "Latitude": "25.9978",
    "Longitude": "79.4623",
    "RegionCode": "ORAI",
    "State": "Uttar Pradesh",
    "SubRegionCode": "ORAI",
    "VenueAddress": "NH 25, New Patel Nagar, Near Busy Beans Cafe, Orai, Uttar Pradesh 285001, India",
    "VenueCode": "APCO",
    "VenueName": "Archana Palace Cinemall: Orai"
  },
  "APPZ": {
    "AvailableFormats": "2D",
    "City": "Vizag (Visakhapatnam)",
    "Latitude": "17.6638",
    "Longitude": "83.2051",
    "RegionCode": "VIZA",
    "State": "Andhra Pradesh",
    "SubRegionCode": "VIZA",
    "VenueAddress": "19-11-24-23, Pedagantyada, Vizag (Visakhapatnam), Andhra Pradesh 530044, India",
    "VenueCode": "APPZ",
    "VenueName": "Aruna Picture Palace 2K A/C PAM"
  },
  "APVE": {
    "AvailableFormats": "2D",
    "City": "Vellore",
    "Latitude": "12.911",
    "Longitude": "79.1317",
    "RegionCode": "RANI",
    "State": "Tamil Nadu",
    "SubRegionCode": "RANI",
    "VenueAddress": "Anna Salai, Vasantapuram, Kosapet, Vellore, Near Sri Vinayaga Temple, Vellore, Tamil Nadu 632001, India",
    "VenueCode": "APVE",
    "VenueName": "Apsara Cinemas 4K AC 7.1 Dolby: Vellore"
  },
  "ARDD": {
    "AvailableFormats": "2D",
    "City": "Veraval",
    "Latitude": "20.91",
    "Longitude": "70.3689",
    "RegionCode": "VRAL",
    "State": "Gujarat",
    "SubRegionCode": "VRAL",
    "VenueAddress": "Railway Station Area, Jobanpura, Near Aradhana Complex, Veraval, Gujarat 362265, India",
    "VenueCode": "ARDD",
    "VenueName": "FUN Cinemas Aradhana Cinema: Veraval"
  },
  "ARTS": {
    "AvailableFormats": "2D",
    "City": "Bengaluru",
    "Latitude": "12.9868",
    "Longitude": "77.5672",
    "RegionCode": "HOKT",
    "State": "Karnataka",
    "SubRegionCode": "HOKT",
    "VenueAddress": "98, Nagendra Gardens, Ramachandrapura, Srirampuram, Near R.R.R.Kalyana Mantapa, Bengaluru, Karnataka 560021, India",
    "VenueCode": "ARTS",
    "VenueName": "Aruna Theatre A/C 4K 7.1 Dolby 3D: Srirampuram"
  },
  "ASCX": {
    "AvailableFormats": "2D",
    "City": "Thiruvalla",
    "Latitude": "9.34101",
    "Longitude": "76.5341",
    "RegionCode": "THVL",
    "State": "Kerala",
    "SubRegionCode": "THVL",
    "VenueAddress": "Mall Grand, Thiruvalla Mavelikkara Road, Thiruvalla, Kerala 689621, India",
    "VenueCode": "ASCX",
    "VenueName": "Aashirvad Cineplexx: Kadappra"
  },
  "ASKO": {
    "AvailableFormats": "3D|2D",
    "City": "Kolkata",
    "Latitude": "22.4937",
    "Longitude": "88.3166",
    "RegionCode": "KOLK",
    "State": "West Bengal",
    "SubRegionCode": "KOLK",
    "VenueAddress": "No. 905/2, Diamond Harbour Road, Arcadia, Behala, Kolkata, West Bengal 700034, India",
    "VenueCode": "ASKO",
    "VenueName": "Asoka Cinema: Behala"
  },
  "ASPD": {
    "AvailableFormats": "2D",
    "City": "Palakkad",
    "Latitude": "10.7774",
    "Longitude": "76.6533",
    "RegionCode": "PLKK",
    "State": "Kerala",
    "SubRegionCode": "PLKK",
    "VenueAddress": "Priyadarshini Road, Sultanpet, Near Apex Residence, Palakkad, Kerala 678001, India",
    "VenueCode": "ASPD",
    "VenueName": "Aroma Screen 2: Palakkad"
  },
  "ASST": {
    "AvailableFormats": "",
    "City": "Thorrur",
    "FirstTracked": "2026-07-14",
    "Latitude": "17.578054",
    "Longitude": "79.66545",
    "RegionCode": "THOR",
    "State": "Telangana",
    "SubRegionCode": "THOR",
    "VenueAddress": "Kodad - Khammam Road, Rayapatnam, Thorrur, Telangana 506163, India",
    "VenueCode": "ASST",
    "VenueName": "Ashwini Theatre: Thorrur"
  },
  "ATAG": {
    "AvailableFormats": "2D",
    "City": "Angul",
    "Latitude": "20.8411",
    "Longitude": "85.2256",
    "RegionCode": "ANGL",
    "State": "Odisha",
    "SubRegionCode": "ANGL",
    "VenueAddress": "Nuahata, Banarpal, Near Tata Steel, Near SBI ATM, Angul, Odisha 759128, India",
    "VenueCode": "ATAG",
    "VenueName": "Asha Cine Palace: Banarpal"
  },
  "ATHG": {
    "AvailableFormats": "",
    "City": "Gooty",
    "FirstTracked": "2026-07-14",
    "Latitude": "15.116565",
    "Longitude": "77.63751",
    "RegionCode": "GOOT",
    "State": "Andhra Pradesh",
    "SubRegionCode": "GOOT",
    "VenueAddress": "Amruth Talkies Complex, Karnam Street, Gooty, Andhra Pradesh 515401, India",
    "VenueCode": "ATHG",
    "VenueName": "Amruth Theater: Gooty"
  },
  "ATRD": {
    "AvailableFormats": "2D",
    "City": "Erode",
    "Latitude": "11.3451",
    "Longitude": "77.7087",
    "RegionCode": "EROD",
    "State": "Tamil Nadu",
    "SubRegionCode": "EROD",
    "VenueAddress": "Manikampalayam Housing Unit, Erode, Tamil Nadu, Near SSPE Cotton Mills, Erode, Tamil Nadu 638011, India",
    "VenueCode": "ATRD",
    "VenueName": "Anna Theatre A/C: Erode"
  },
  "AUBB": {
    "AvailableFormats": "2D",
    "City": "Bhadrachalam",
    "Latitude": "17.6735",
    "Longitude": "80.8891",
    "RegionCode": "BHDR",
    "State": "Telangana",
    "SubRegionCode": "BHDR",
    "VenueAddress": "NH30, Bhadrachalam Rd, Ashok Nagar Colony, Bhadrachalam, Telangana 507111, India",
    "VenueCode": "AUBB",
    "VenueName": "Asian Uday Bhaskar: Bhadrachalam"
  },
  "AVMT": {
    "AvailableFormats": "",
    "City": "Chennai",
    "FirstTracked": "2026-07-14",
    "Latitude": "13.3341",
    "Longitude": "79.8884",
    "RegionCode": "CHEN",
    "State": "Tamil Nadu",
    "SubRegionCode": "CHEN",
    "VenueAddress": "Tirupati Road, Uthukkottai, Near Andhra Bank, Chennai, Tamil Nadu 602026, India",
    "VenueCode": "AVMT",
    "VenueName": "AVM Cinemas: Uthukkottai"
  },
  "AXMP": {
    "AvailableFormats": "2D",
    "City": "Pattambi",
    "Latitude": "10.8064",
    "Longitude": "76.1899",
    "RegionCode": "PTMB",
    "State": "Kerala",
    "SubRegionCode": "PTMB",
    "VenueAddress": "Alex Theatre, Kaithali Temple Road, Near ICICI Bank Pattambi, Pattambi, Kerala 679303, India",
    "VenueCode": "AXMP",
    "VenueName": "Alex Movies: Christe Rbe Laser Pattambi"
  },
  "BAHS": {
    "AvailableFormats": "2D",
    "City": "Basti",
    "Latitude": "26.7995",
    "Longitude": "82.7341",
    "RegionCode": "BAST",
    "State": "Uttar Pradesh",
    "SubRegionCode": "BAST",
    "VenueAddress": "Baadshah Tower, Malviya Road, Bhatolowa, Basti, Uttar Pradesh 272001, India",
    "VenueCode": "BAHS",
    "VenueName": "Baadshah Multiplex: Basti"
  },
  "BATK": {
    "AvailableFormats": "2D",
    "City": "Kanchipuram",
    "Latitude": "12.8294",
    "Longitude": "79.7001",
    "RegionCode": "MMNR",
    "State": "Tamil Nadu",
    "SubRegionCode": "MMNR",
    "VenueAddress": "Madam Thottam Street Madam, Pillaiyarpalayam, Kanchipuram, Tamil Nadu 631501, India",
    "VenueCode": "BATK",
    "VenueName": "Babu Cinemas - RGB Laser: Kanchipuram"
  },
  "BCBP": {
    "AvailableFormats": "2D",
    "City": "Bhopal",
    "Latitude": "23.2601",
    "Longitude": "77.4104",
    "RegionCode": "BHOP",
    "State": "Madhya Pradesh",
    "SubRegionCode": "BHOP",
    "VenueAddress": "Near Shakir Ali Khan Hospital, Opposite Capital Hotel, Hamidia Road, Near Shakir Ali Khan Hospital, Bhopal, Madhya Pradesh 462001, India",
    "VenueCode": "BCBP",
    "VenueName": "Bharat Cineplex: Bhopal"
  },
  "BEMR": {
    "AvailableFormats": "2D",
    "City": "Malur",
    "Latitude": "13.0176",
    "Longitude": "77.938",
    "RegionCode": "MLLR",
    "State": "Karnataka",
    "SubRegionCode": "MLLR",
    "VenueAddress": "Harohalli Road, Malur Taluk, Kolar District, Malur, Karnataka 563130, India",
    "VenueCode": "BEMR",
    "VenueName": "Benaka Theatre: Malur"
  },
  "BHKN": {
    "AvailableFormats": "",
    "City": "Bichkunda",
    "FirstTracked": "2026-07-14",
    "Latitude": "18.402649",
    "Longitude": "77.69941",
    "RegionCode": "BHCK",
    "State": "Telangana",
    "SubRegionCode": "BHCK",
    "VenueAddress": "Main Road, Near Masjid, Bichkunda, Telangana 503306, India",
    "VenueCode": "BHKN",
    "VenueName": "Parameswari Theatre: Bichkunda"
  },
  "BISW": {
    "AvailableFormats": "2D",
    "City": "Siliguri",
    "Latitude": "26.7286",
    "Longitude": "88.4139",
    "RegionCode": "SILI",
    "State": "West Bengal",
    "SubRegionCode": "SILI",
    "VenueAddress": "Hill Cart Road, Ward 2,  Sevoke Road, Pradhan Nagar, Siliguri, West Bengal 734001, India",
    "VenueCode": "BISW",
    "VenueName": "Biswadeep Talkies: Siliguri"
  },
  "BKTL": {
    "AvailableFormats": "",
    "City": "Cherukupalli",
    "FirstTracked": "2026-07-14",
    "Latitude": "16.0529",
    "Longitude": "80.6789",
    "RegionCode": "EHRK",
    "State": "Andhra Pradesh",
    "SubRegionCode": "EHRK",
    "VenueAddress": "3M3H+4GX, NTR Nagar, Cherukupalli, Andhra Pradesh 522309, India",
    "VenueCode": "BKTL",
    "VenueName": "Bhaskar Theater: Cherukupalli"
  },
  "BMBK": {
    "AvailableFormats": "2D",
    "City": "Bhawanipatna",
    "Latitude": "19.9065",
    "Longitude": "83.1421",
    "RegionCode": "BHAW",
    "State": "Odisha",
    "SubRegionCode": "BHAW",
    "VenueAddress": "Bhagirathi Mall, Sambhunagar Pada, Bhawanipatna, Odisha 766002, India",
    "VenueCode": "BMBK",
    "VenueName": "Bhagirathi Multiplex: Bhawanipatna"
  },
  "BNBA": {
    "AvailableFormats": "2D",
    "City": "Dehradun",
    "Latitude": "30.3329",
    "Longitude": "78.054",
    "RegionCode": "DEH",
    "State": "Uttarakhand",
    "SubRegionCode": "DEH",
    "VenueAddress": "1 Old Survey Road, Crossroads Mall, Dehradun, Uttarakhand 248001, India",
    "VenueCode": "BNBA",
    "VenueName": "Movie Lounge: Crossroads Mall, Dehradun"
  },
  "BRUN": {
    "AvailableFormats": "2D|3D",
    "City": "Cuttack",
    "Latitude": "20.465",
    "Longitude": "85.8852",
    "RegionCode": "CUTT",
    "State": "Odisha",
    "SubRegionCode": "CUTT",
    "VenueAddress": "Bajrakabati Road, Siba Bazar, Near Bank Of India, Cuttack, Odisha 753001, India",
    "VenueCode": "BRUN",
    "VenueName": "Brundaban (4k, Dolby Atmos 64 Channel Sounds)"
  },
  "BSVK": {
    "AvailableFormats": "2D",
    "City": "Krishnarajpete (K.R.Pete)",
    "Latitude": "12.6644",
    "Longitude": "76.4876",
    "RegionCode": "KEKE",
    "State": "Karnataka",
    "SubRegionCode": "KEKE",
    "VenueAddress": "No 1231/1142/A, Old Kikkeri Road, BasaveshwaraNagar, Krishnarajpete (K.R.Pete), Karnataka 571426, India",
    "VenueCode": "BSVK",
    "VenueName": "Sri Basaveshwara Cinemas: K.R. Pete"
  },
  "BTLR": {
    "AvailableFormats": "2D",
    "City": "Lakhimpur",
    "Latitude": "27.2365",
    "Longitude": "94.1042",
    "RegionCode": "LAHA",
    "State": "Assam",
    "SubRegionCode": "LAHA",
    "VenueAddress": "Biswa Talkies, NH 15, North Lakhimpur, Lakhimpur, Assam 787001, India",
    "VenueCode": "BTLR",
    "VenueName": "Biswa Talkies: Lakhimpur"
  },
  "CACN": {
    "AvailableFormats": "2D",
    "City": "Mahuva",
    "Latitude": "21.1266",
    "Longitude": "71.7984",
    "RegionCode": "MAHV",
    "State": "Gujarat",
    "SubRegionCode": "MAHV",
    "VenueAddress": "City Mall Opposite Reliance Petrol Pump, Next to Vibrant Dehydration, At. Bhadrod, Mahuva, Mahuva, Gujarat 364290, India",
    "VenueCode": "CACN",
    "VenueName": "Cine Arc Multiplex: Mahuva"
  },
  "CBPB": {
    "AvailableFormats": "2D|3D",
    "City": "Bhopal",
    "Latitude": "23.2199",
    "Longitude": "77.4395",
    "RegionCode": "BHOP",
    "State": "Madhya Pradesh",
    "SubRegionCode": "BHOP",
    "VenueAddress": "4th Floor, Bansal Plaza, Rani Kamplapati Railway Station, Bhopal, Madhya Pradesh 462023, India",
    "VenueCode": "CBPB",
    "VenueName": "Cinepolis: Bansal Plaza, Bhopal"
  },
  "CCBT": {
    "AvailableFormats": "2D|3D",
    "City": "Guwahati",
    "Latitude": "26.1202",
    "Longitude": "91.7981",
    "RegionCode": "GUW",
    "State": "Assam",
    "SubRegionCode": "GUW",
    "VenueAddress": "Beltola-Basistha Road, Beltola, Opposite Shankardeva Netralaya, Lakhi Mandir,Guwahati, Assam 781028, India",
    "VenueCode": "CCBT",
    "VenueName": "Matrix Cinemas: Matrix Mall, Beltola, Guwahati"
  },
  "CCIA": {
    "AvailableFormats": "2D",
    "City": "Agra",
    "Latitude": "27.1911",
    "Longitude": "78.0085",
    "RegionCode": "AGRA",
    "State": "Uttar Pradesh",
    "SubRegionCode": "AGRA",
    "VenueAddress": "Near Bagh Muzaffar Khan, Mantola, Opposite Guru Nanak Sweet House, Agra, Uttar Pradesh 282001, India",
    "VenueCode": "CCIA",
    "VenueName": "Chitra Cinema: Agra"
  },
  "CCMG": {
    "AvailableFormats": "2D|3D",
    "City": "Guwahati",
    "Latitude": "26.1571",
    "Longitude": "91.7778",
    "RegionCode": "GUW",
    "State": "Assam",
    "SubRegionCode": "GUW",
    "VenueAddress": "4th Floor, Central Mall, GS Road, Christian Basti, Near Income Tax Office, Guwahati, Assam 781005, India",
    "VenueCode": "CCMG",
    "VenueName": "Cinepolis: Central Mall, Guwahati"
  },
  "CCOA": {
    "AvailableFormats": "",
    "City": "Asika",
    "FirstTracked": "2026-07-14",
    "Latitude": "19.61157",
    "Longitude": "84.6632",
    "RegionCode": "ASIK",
    "State": "Odisha",
    "SubRegionCode": "ASIK",
    "VenueAddress": "Old Ashoka Cinema Hall, Near Hatpada, Near Hanuman Temple, Asika, Odisha 761110, India",
    "VenueCode": "CCOA",
    "VenueName": "Cine Caarnival: Asika"
  },
  "CCRP": {
    "AvailableFormats": "2D",
    "City": "Raipur",
    "Latitude": "21.2173",
    "Longitude": "81.6566",
    "RegionCode": "RAIPUR",
    "State": "Chhattisgarh",
    "SubRegionCode": "RAIPUR",
    "VenueAddress": "Colors Cinema, 3rd floor, Colors Mall, Pachpedi Naka, NH 43, Raipur, Chhattisgarh 492001, India",
    "VenueCode": "CCRP",
    "VenueName": "Colors Cinemas: Colors Mall, Raipur"
  },
  "CCZC": {
    "AvailableFormats": "2D",
    "City": "Chikhli",
    "Latitude": "20.3177",
    "Longitude": "76.2555",
    "RegionCode": "CHIH",
    "State": "Maharashtra",
    "SubRegionCode": "CHIH",
    "VenueAddress": "Jalna Road, Plot No: 12, Survey No 190 Chikhli, District Buldana, Chikhli, Maharashtra 443201, India",
    "VenueCode": "CCZC",
    "VenueName": "Cine Magic Cinema: Chikhli"
  },
  "CECB": {
    "AvailableFormats": "2D|3D",
    "City": "Bardoli",
    "Latitude": "21.118",
    "Longitude": "73.0958",
    "RegionCode": "BRDL",
    "State": "Gujarat",
    "SubRegionCode": "BRDL",
    "VenueAddress": "1st Floor Cineverse Complex, Bardoli Road, Near Vimal Agro Industries, Bardoli, Gujarat 394601, India",
    "VenueCode": "CECB",
    "VenueName": "Cineverse Cinema: Bardoli"
  },
  "CFEA": {
    "AvailableFormats": "",
    "City": "Rourkela",
    "FirstTracked": "2026-07-14",
    "Latitude": "22.253101",
    "Longitude": "84.86569",
    "RegionCode": "RKOR",
    "State": "Odisha",
    "SubRegionCode": "RKOR",
    "VenueAddress": "Fe2 Arcade Mall, Sector 5, Aambagan, Rourkela, Odisha 769002, India",
    "VenueCode": "CFEA",
    "VenueName": "Cinepolis Fe2 Arcade: Rourkela"
  },
  "CGHH": {
    "AvailableFormats": "2D",
    "City": "Kakinada",
    "Latitude": "16.9573",
    "Longitude": "82.2365",
    "RegionCode": "KAKI",
    "State": "Andhra Pradesh",
    "SubRegionCode": "KAKI",
    "VenueAddress": "Cinema Hall Road, Surya Rao Peta, Opposite Municipal Office, Kakinada, Andhra Pradesh 533001, India",
    "VenueCode": "CGHH",
    "VenueName": "Chandra Guptha Complex Screen 2: Kakinada"
  },
  "CGVA": {
    "AvailableFormats": "",
    "City": "Ahmedabad",
    "FirstTracked": "2026-07-14",
    "Latitude": "22.988194",
    "Longitude": "72.66375",
    "RegionCode": "AHD",
    "State": "Gujarat",
    "SubRegionCode": "AHD",
    "VenueAddress": "Sur No./757/758 TP No.114, FP-1, Near - Ramol Toll Tax Vastral, Opposite -  RAF Campus, Ahmedabad, Gujarat 382418, India",
    "VenueCode": "CGVA",
    "VenueName": "City Gold: Vastral, Ahmedabad"
  },
  "CHTI": {
    "AvailableFormats": "2D",
    "City": "Poovar",
    "Latitude": "8.31976",
    "Longitude": "77.0743",
    "RegionCode": "TRIV",
    "State": "Kerala",
    "SubRegionCode": "TRIV",
    "VenueAddress": "Cine Cafe Restaurant and Cineplex, Bridge Road, Opposite To Thuruthil Granite, Poovar, Kerala 695525, India",
    "VenueCode": "CHTI",
    "VenueName": "Chhotu Maharaj Cine Cafe: Poovar, Kerala"
  },
  "CIGK": {
    "AvailableFormats": "3D|2D",
    "City": "Delhi",
    "Latitude": "28.5416",
    "Longitude": "77.2402",
    "RegionCode": "NCR",
    "State": "NCR",
    "SubRegionCode": "DELHI",
    "VenueAddress": "Greater Kailash, Part 2, Outer Ring Road, Block E, Near Bank Of India, Delhi, NCR 110048, India",
    "VenueCode": "CIGK",
    "VenueName": "Cinepolis: Savitri Complex GK2"
  },
  "CITD": {
    "AvailableFormats": "2D|3D",
    "City": "Shivamogga",
    "Latitude": "13.9304",
    "Longitude": "75.5733",
    "RegionCode": "SHIA",
    "State": "Karnataka",
    "SubRegionCode": "SHIA",
    "VenueAddress": "Bharath Cinemas, Bearys City Center, BH Road, Shivamogga, Karnataka 577201, India",
    "VenueCode": "CITD",
    "VenueName": "Bharath Cinemas: Shivamogga"
  },
  "CLBC": {
    "AvailableFormats": "",
    "City": "Muzaffarpur",
    "FirstTracked": "2026-07-14",
    "Latitude": "26.1112",
    "Longitude": "85.3656",
    "RegionCode": "MUZA",
    "State": "Bihar",
    "SubRegionCode": "MUZA",
    "VenueAddress": "5th Floor, Dwarka City Center Mall, Opposite MPS Science College, NH22 Muzaffarpur, Muzaffarpur, Bihar 843146, India",
    "VenueCode": "CLBC",
    "VenueName": "Connplex Cinemas Luxuriance: Muzaffarpur"
  },
  "CLLB": {
    "AvailableFormats": "2D",
    "City": "Bhagalpur",
    "Latitude": "25.2483",
    "Longitude": "86.9764",
    "RegionCode": "BHAG",
    "State": "Bihar",
    "SubRegionCode": "BHAG",
    "VenueAddress": "4th floor, H L Tower, DN Singh Road, Near Hari Om Laxmi Narayan Jewellers, Kharmanchak, PS, Jogsar, Adampur, Bhagalpur, Bihar 812002, India",
    "VenueCode": "CLLB",
    "VenueName": "Connplex Cinemas (Luxuriance): Bhagalpur"
  },
  "CMBE": {
    "AvailableFormats": "2D",
    "City": "Begusarai",
    "Latitude": "25.4371",
    "Longitude": "86.1382",
    "RegionCode": "BEGS",
    "State": "Bihar",
    "SubRegionCode": "BEGS",
    "VenueAddress": "Panhas Garden and Resort, Near Krishi Bazar Samiti,Sh -55, Begusarai, Bihar 851101, India",
    "VenueCode": "CMBE",
    "VenueName": "Chhotu Maharaj Cine Cafe: Begusarai"
  },
  "CMJM": {
    "AvailableFormats": "",
    "City": "Moradabad",
    "FirstTracked": "2026-07-14",
    "Latitude": "28.82498",
    "Longitude": "78.69148",
    "RegionCode": "MORA",
    "State": "Uttar Pradesh",
    "SubRegionCode": "MORA",
    "VenueAddress": "Sector 12A-C/96/05 Sector 12A, Naya Moradabad, Moradabad Tehsil, Moradabad, Uttar Pradesh 244001, India",
    "VenueCode": "CMJM",
    "VenueName": "Chhotu Maharaj CineCafe: Moradabad, UP"
  },
  "CMMP": {
    "AvailableFormats": "2D",
    "City": "Rampur",
    "Latitude": "28.7516",
    "Longitude": "79.0545",
    "RegionCode": "RAMU",
    "State": "Uttar Pradesh",
    "SubRegionCode": "RAMU",
    "VenueAddress": "Modi Mall, Modipur, Faizulla Nagar, Nh-24, Bareilly Road, Rampur, Uttar Pradesh 244901, India",
    "VenueCode": "CMMP",
    "VenueName": "Cinepolis: Modi Mall, Rampur"
  },
  "CMTT": {
    "AvailableFormats": "2D",
    "City": "Trivandrum",
    "Latitude": "8.48693",
    "Longitude": "76.9263",
    "RegionCode": "TRIV",
    "State": "Kerala",
    "SubRegionCode": "TRIV",
    "VenueAddress": "2nd floor, Mall of Travancore, International Airport Road, Next to Ananthapuri Hospital, Eanchakkal, Trivandrum, Kerala 695024, India",
    "VenueCode": "CMTT",
    "VenueName": "Cinepolis: MOT, Trivandrum"
  },
  "CMXM": {
    "AvailableFormats": "2D",
    "City": "Mehkar",
    "Latitude": "20.1661",
    "Longitude": "76.61",
    "RegionCode": "MEHK",
    "State": "Maharashtra",
    "SubRegionCode": "MEHK",
    "VenueAddress": "Shop No 2, Main Road, Near Khanadala, Mehkar, Maharashtra 443301, India",
    "VenueCode": "CMXM",
    "VenueName": "Cinemark Multiplex: Mehkar"
  },
  "CNCT": {
    "AvailableFormats": "2D",
    "City": "Taliparamba",
    "Latitude": "12.0345",
    "Longitude": "75.3627",
    "RegionCode": "TALI",
    "State": "Kerala",
    "SubRegionCode": "TALI",
    "VenueAddress": "Trichambaram Temple Road, Trichambaram, Near State Bank of India, Taliparamba, Kerala 670141, India",
    "VenueCode": "CNCT",
    "VenueName": "Crown Cinema 2K Dolby: Taliparamba"
  },
  "CNMS": {
    "AvailableFormats": "2D",
    "City": "Surat",
    "Latitude": "21.2299",
    "Longitude": "72.7786",
    "RegionCode": "SURT",
    "State": "Gujarat",
    "SubRegionCode": "SURT",
    "VenueAddress": "Prabhudarshan Society, Jahangirabad, Sima Nagar, Near DMart, Surat, Gujarat 395005, India",
    "VenueCode": "CNMS",
    "VenueName": "Cinezza Multiplex: Jahangirpura, Surat"
  },
  "CNRY": {
    "AvailableFormats": "",
    "City": "Jangareddy Gudem",
    "FirstTracked": "2026-07-14",
    "Latitude": "17.127705",
    "Longitude": "81.293495",
    "RegionCode": "JANG",
    "State": "Andhra Pradesh",
    "SubRegionCode": "JANG",
    "VenueAddress": "47HV+79P, Government College Road, Near Classic Automotives, Jangareddy Gudem, Andhra Pradesh 534447, India",
    "VenueCode": "CNRY",
    "VenueName": "CNR Mall: Y Screens, Jangareddy Gudem"
  },
  "COAC": {
    "AvailableFormats": "3D|2D",
    "City": "Lucknow",
    "Latitude": "26.8624",
    "Longitude": "81.0105",
    "RegionCode": "LUCK",
    "State": "Uttar Pradesh",
    "SubRegionCode": "LUCK",
    "VenueAddress": "Plot No 384, Vibhuti Khand, Gomti Nagar, Gomti Nagar Road, Lucknow, Uttar Pradesh 226010, India",
    "VenueCode": "COAC",
    "VenueName": "Cinepolis: One Awadh Centre, Lucknow"
  },
  "COSM": {
    "AvailableFormats": "2D",
    "City": "Rajkot",
    "Latitude": "22.271",
    "Longitude": "70.7418",
    "RegionCode": "RAJK",
    "State": "Gujarat",
    "SubRegionCode": "RAJK",
    "VenueAddress": "Mota Mauva Road, Kalawad Road, Near Rangoli Park Restaurant, Rajkot, Gujarat 360001, India",
    "VenueCode": "COSM",
    "VenueName": "Cosmoplex Multiplex: Rajkot"
  },
  "CPEB": {
    "AvailableFormats": "2D",
    "City": "Bengaluru",
    "Latitude": "12.9676",
    "Longitude": "77.5584",
    "RegionCode": "HOKT",
    "State": "Karnataka",
    "SubRegionCode": "HOKT",
    "VenueAddress": "ETA Namma Mall, Binneypet, Magadi Road, Bengaluru, Karnataka 560023, India",
    "VenueCode": "CPEB",
    "VenueName": "Cinepolis: Binnypet Mall"
  },
  "CPJR": {
    "AvailableFormats": "2D",
    "City": "Bengaluru",
    "Latitude": "12.8915",
    "Longitude": "77.598",
    "RegionCode": "HOKT",
    "State": "Karnataka",
    "SubRegionCode": "HOKT",
    "VenueAddress": "SJR Spectrum Mall, Near Arkere Gate Signal, Bengaluru, Karnataka 560076, India",
    "VenueCode": "CPJR",
    "VenueName": "Cinepolis: SJR (Central Mall) Arekere, Bannergatta"
  },
  "CPMF": {
    "AvailableFormats": "",
    "City": "Faridabad",
    "FirstTracked": "2026-07-14",
    "Latitude": "28.3874",
    "Longitude": "77.312",
    "RegionCode": "NCR",
    "State": "NCR",
    "SubRegionCode": "FARI",
    "VenueAddress": "Second Floor, Plot No. 05, Sector 20B, Near Radisson Blue Hotel, Faridabad, NCR 121001, India",
    "VenueCode": "CPMF",
    "VenueName": "Cinepolis: Pacific Mall, Faridabad"
  },
  "CPOE": {
    "AvailableFormats": "2D",
    "City": "Bengaluru",
    "Latitude": "13.0018",
    "Longitude": "77.6329",
    "RegionCode": "BANG",
    "State": "Karnataka",
    "SubRegionCode": "BANG",
    "VenueAddress": "3rd floor, Orion Avenue Mall, Banasawadi Main Road, Maruti Seva Nagar, Bengaluru, Karnataka 560033, India",
    "VenueCode": "CPOE",
    "VenueName": "Cinepolis: Orion Avenue Mall, Banaswadi"
  },
  "CPSK": {
    "AvailableFormats": "2D",
    "City": "Kochi",
    "Latitude": "9.97799",
    "Longitude": "76.2833",
    "RegionCode": "KOCH",
    "State": "Kerala",
    "SubRegionCode": "KOCH",
    "VenueAddress": "6th Floor, M.G.Rroad, Ernakulam, Near Abad Plaza Hotel, Kochi, Kerala 682035, India",
    "VenueCode": "CPSK",
    "VenueName": "Cinepolis: VIP Centre Square Mall, Kochi"
  },
  "CRCM": {
    "AvailableFormats": "2D",
    "City": "Moga",
    "Latitude": "30.8188",
    "Longitude": "75.2186",
    "RegionCode": "MOGA",
    "State": "Punjab",
    "SubRegionCode": "MOGA",
    "VenueAddress": "Barnala-Amritsar Bypass Road, Bugipura Chowk, Moga, Punjab 142001, India",
    "VenueCode": "CRCM",
    "VenueName": "Cineroyale Cinemas: Chokha Empire, Moga"
  },
  "CSAN": {
    "AvailableFormats": "",
    "City": "Ahmedabad",
    "FirstTracked": "2026-07-14",
    "Latitude": "22.9638",
    "Longitude": "72.5911",
    "RegionCode": "AHD",
    "State": "Gujarat",
    "SubRegionCode": "AHD",
    "VenueAddress": "4th Floor, Arbuda Trade Center, Survey 243/1/1, Vatva Cross Road, Narol, Opposite Swaminarayan Complex, Ahmedabad, Gujarat 382405, India",
    "VenueCode": "CSAN",
    "VenueName": "Connplex Cinemas (Signature): Narol"
  },
  "CSMD": {
    "AvailableFormats": "2D",
    "City": "Dhrangadhra",
    "Latitude": "23.0008",
    "Longitude": "71.4156",
    "RegionCode": "DHRN",
    "State": "Gujarat",
    "SubRegionCode": "DHRN",
    "VenueAddress": "Ahmedabad, Kutch Highway, Dhrangadhra, Gujarat 363310, India",
    "VenueCode": "CSMD",
    "VenueName": "Connplex Cinemas: Sir Jadeja, Dhrangadhra"
  },
  "CSTE": {
    "AvailableFormats": "2D",
    "City": "Ahmedabad",
    "Latitude": "23.1067",
    "Longitude": "72.5418",
    "RegionCode": "AHD",
    "State": "Gujarat",
    "SubRegionCode": "AHD",
    "VenueAddress": "RCC ROAD, 1st Floor, The Link, 100 FT, Krishna Hardware Road, Near JLR Showroom, Ahmedabad, Gujarat 382481, India",
    "VenueCode": "CSTE",
    "VenueName": "Connplex Cinemas (Signature): Gota"
  },
  "CTBJ": {
    "AvailableFormats": "",
    "City": "Bokaro",
    "FirstTracked": "2026-07-14",
    "Latitude": "23.634192",
    "Longitude": "86.17827",
    "RegionCode": "BOKA",
    "State": "Jharkhand",
    "SubRegionCode": "BOKA",
    "VenueAddress": "Bihar Colony, Main Road, Chas, Bokaro, Jharkhand 827013, India",
    "VenueCode": "CTBJ",
    "VenueName": "Chandra Talkies: Bokaro"
  },
  "CTML": {
    "AvailableFormats": "2D|3D",
    "City": "Bilaspur",
    "Latitude": "22.0942",
    "Longitude": "82.1257",
    "RegionCode": "BILA",
    "State": "Chhattisgarh",
    "SubRegionCode": "BILA",
    "VenueAddress": "36 City Mall, Mungeli Road, Near Mangala Chowk, Bilaspur, Chhattisgarh 495001, India",
    "VenueCode": "CTML",
    "VenueName": "City36 Cinemas: Bilaspur"
  },
  "CTRR": {
    "AvailableFormats": "3D|2D",
    "City": "Mumbai",
    "Latitude": "19.0134",
    "Longitude": "72.8439",
    "RegionCode": "MUMBAI",
    "State": "Maharashtra",
    "SubRegionCode": "MCENT",
    "VenueAddress": "198, Dr. Baba Saheb Ambedkar Road, Dadar East, Mumbai, Maharashtra 400014, India",
    "VenueCode": "CTRR",
    "VenueName": "Chitra Cinema: Dadar (Newly Renovated)"
  },
  "CVCT": {
    "AvailableFormats": "2D",
    "City": "Trichy",
    "Latitude": "10.8088",
    "Longitude": "78.6955",
    "RegionCode": "TRIC",
    "State": "Tamil Nadu",
    "SubRegionCode": "TRIC",
    "VenueAddress": "Heber Road, Palakarai, Trichy, Near Corporation Park, Trichy, Tamil Nadu 620001, India",
    "VenueCode": "CVCT",
    "VenueName": "Cauvery Cinemas 4K RGB LASER: Trichy"
  },
  "CWSC": {
    "AvailableFormats": "2D",
    "City": "Kanker",
    "Latitude": "20.2632",
    "Longitude": "81.5017",
    "RegionCode": "KANK",
    "State": "Chhattisgarh",
    "SubRegionCode": "KANK",
    "VenueAddress": "3rd Floor, City Center Kanker, Near New Bus Stand, Kanker, Chhattisgarh 494334, India",
    "VenueCode": "CWSC",
    "VenueName": "Cineworld City Center: Kanker"
  },
  "CXMK": {
    "AvailableFormats": "",
    "City": "Kodad",
    "FirstTracked": "2026-07-14",
    "Latitude": "16.99669",
    "Longitude": "79.96993",
    "RegionCode": "KODA",
    "State": "Telangana",
    "SubRegionCode": "KODA",
    "VenueAddress": "2nd Floor, GHR Honda Complex, Nayanagar Main Road, Suryapet, Kodad, Telangana 508206, India",
    "VenueCode": "CXMK",
    "VenueName": "Connplex Cinemas: Kodad"
  },
  "DACA": {
    "AvailableFormats": "",
    "City": "Danapur",
    "Latitude": "25.6369",
    "Longitude": "85.0458",
    "RegionCode": "PATN",
    "State": "Bihar",
    "SubRegionCode": "PATN",
    "VenueAddress": "Diana Cinema Road, Danapur Main Road, Near Danapur Bus Stand Road, Danapur, Bihar 801503, India",
    "VenueCode": "DACA",
    "VenueName": "Diana Danapur AC with New Full Screen Projection"
  },
  "DCCP": {
    "AvailableFormats": "2D",
    "City": "Pune",
    "Latitude": "18.7516",
    "Longitude": "73.8353",
    "RegionCode": "KHED",
    "State": "Maharashtra",
    "SubRegionCode": "KHED",
    "VenueAddress": "City Plaza, Talegaon, Chakan Road, Pune, Maharashtra 410501, India",
    "VenueCode": "DCCP",
    "VenueName": "Dharmatma Cinemark: Chakan, Pune"
  },
  "DCKT": {
    "AvailableFormats": "",
    "City": "Kurukshetra",
    "FirstTracked": "2026-07-14",
    "Latitude": "29.974691",
    "Longitude": "76.86679",
    "RegionCode": "KURU",
    "State": "Haryana",
    "SubRegionCode": "KURU",
    "VenueAddress": "Divine Business Park, New Bus Stand ,Pipli Road, Opposite New Bus Stand, Kurukshetra, Haryana 136118, India",
    "VenueCode": "DCKT",
    "VenueName": "Divine Cineplex: Kurukshetra"
  },
  "DCVV": {
    "AvailableFormats": "2D",
    "City": "Vadakkencherry",
    "Latitude": "10.5902",
    "Longitude": "76.4763",
    "RegionCode": "VDCY",
    "State": "Kerala",
    "SubRegionCode": "VDCY",
    "VenueAddress": "Vadakkencherry Road, Next to Q7 Bakery, Vadakkencherry, Kerala 678683, India",
    "VenueCode": "DCVV",
    "VenueName": "Dreambig Thankam Theatre: Vadakkencherry"
  },
  "DEMP": {
    "AvailableFormats": "2D",
    "City": "Thrissur",
    "Latitude": "10.4243",
    "Longitude": "76.1315",
    "RegionCode": "MANR",
    "State": "Kerala",
    "SubRegionCode": "MANR",
    "VenueAddress": "Kanjany Peringottukara Rd, Peringottukara,Kerala, Near Kanadi Kavu Temple, Thrissur, Kerala 680565, India",
    "VenueCode": "DEMP",
    "VenueName": "Deva Cinemas 4K Dolby Full Atmos: Peringottukara"
  },
  "DGGC": {
    "AvailableFormats": "2D",
    "City": "Goalpara",
    "Latitude": "26.1698",
    "Longitude": "90.6235",
    "RegionCode": "GOAL",
    "State": "Assam",
    "SubRegionCode": "GOAL",
    "VenueAddress": "Above Trends, Pancharatna Road, Near Canara Bank, Goalpara, Assam 783101, India",
    "VenueCode": "DGGC",
    "VenueName": "Diamond Cinema: Goalpara"
  },
  "DKTI": {
    "AvailableFormats": "2D",
    "City": "Bengaluru",
    "Latitude": "12.7978",
    "Longitude": "77.3838",
    "RegionCode": "BANG",
    "State": "Karnataka",
    "SubRegionCode": "BANG",
    "VenueAddress": "Nelligudda Tank Road, Next to Karnataka Bank, Behind Bidadi Bus Stand, Ramanagar District, Bengaluru, Karnataka 562109, India",
    "VenueCode": "DKTI",
    "VenueName": "Deepak Talkies: Bidadi"
  },
  "DMCK": {
    "AvailableFormats": "2D",
    "City": "Kallachi",
    "Latitude": "11.6868",
    "Longitude": "75.6656",
    "RegionCode": "VDKR",
    "State": "Kerala",
    "SubRegionCode": "VDKR",
    "VenueAddress": "Met Collage Road, Nadapuram, Kallachi, Kerala 673506, India",
    "VenueCode": "DMCK",
    "VenueName": "Dream Cinema: Kallachi"
  },
  "DNNV": {
    "AvailableFormats": "2D",
    "City": "Vadodara",
    "Latitude": "22.3405",
    "Longitude": "73.1738",
    "RegionCode": "VAD",
    "State": "Gujarat",
    "SubRegionCode": "VAD",
    "VenueAddress": "Deep Cinemas, Deep Multiplex Pvt. Ltd, Behind Kiran Motors, Old Chhani Road, Chhani, Vadodara, Gujarat 390008, India",
    "VenueCode": "DNNV",
    "VenueName": "Deep Cinemas: Nizampura, Chhani Road"
  },
  "DRDR": {
    "AvailableFormats": "",
    "City": "Dudhi",
    "FirstTracked": "2026-07-14",
    "Latitude": "24.215506",
    "Longitude": "83.23522",
    "RegionCode": "DUDH",
    "State": "Uttar Pradesh",
    "SubRegionCode": "DUDH",
    "VenueAddress": "Ward No. 5, D R Market, Old Tara Chitra Mandir Building, Dudhi, Sonbhadra, Dudhi, Uttar Pradesh 231208, India",
    "VenueCode": "DRDR",
    "VenueName": "D.R. Cinema: Dudhi"
  },
  "DTCN": {
    "AvailableFormats": "2D",
    "City": "Nuzvid",
    "Latitude": "16.7875",
    "Longitude": "80.8501",
    "RegionCode": "NZVD",
    "State": "Andhra Pradesh",
    "SubRegionCode": "NZVD",
    "VenueAddress": "Hanuman Junction Road, Usha Bala Nagar, Near State Bank Of India, Nuzvid, Andhra Pradesh 521201, India",
    "VenueCode": "DTCN",
    "VenueName": "Dwaraka Cinemas 4k Dolby Atmos: Nuzvid"
  },
  "DUXR": {
    "AvailableFormats": "2D",
    "City": "Lakhimpur",
    "Latitude": "27.1791",
    "Longitude": "93.9722",
    "RegionCode": "DLBZ",
    "State": "Assam",
    "SubRegionCode": "DLBZ",
    "VenueAddress": "Kathal Pukhuri, No.2 Dolohat Myadipatta, Lakhimpur, Assam 787023, India",
    "VenueCode": "DUXR",
    "VenueName": "Dhurba Miniplex: Dolohat"
  },
  "DYPK": {
    "AvailableFormats": "3D|2D",
    "City": "Kolhapur",
    "Latitude": "16.7035",
    "Longitude": "74.2503",
    "RegionCode": "KOLH",
    "State": "Maharashtra",
    "SubRegionCode": "KOLH",
    "VenueAddress": "DYP City Mall, 3rd Floor, 2104/5, E-Ward, Near Opal Hotel, Kavala Naka, Kolhapur, Maharashtra 416003, India",
    "VenueCode": "DYPK",
    "VenueName": "PVR: DYP City, Kolhapur"
  },
  "ECRR": {
    "AvailableFormats": "2D",
    "City": "Ramgarh",
    "Latitude": "23.6398",
    "Longitude": "85.5119",
    "RegionCode": "GGHH",
    "State": "Jharkhand",
    "SubRegionCode": "GGHH",
    "VenueAddress": "Emvee Square, Opposite FBB, Near Balaji Bazar, Ramgarh Cantonment, Ramgarh, Jharkhand 829122, India",
    "VenueCode": "ECRR",
    "VenueName": "Eylex Cinemas: Ramgarh"
  },
  "ELKC": {
    "AvailableFormats": "2D",
    "City": "Koderma",
    "Latitude": "24.4367",
    "Longitude": "85.5349",
    "RegionCode": "KODZ",
    "State": "Jharkhand",
    "SubRegionCode": "KODZ",
    "VenueAddress": "Eylex Cinemas, Jhumri Telaiya, Ujala complex, Ranchi Patna Road, Koderma, Jharkhand 825409, India",
    "VenueCode": "ELKC",
    "VenueName": "Eylex Cinemas: Jhumri Telaiya, Koderma"
  },
  "EMPS": {
    "AvailableFormats": "2D|3D",
    "City": "Gurugram (Gurgaon)",
    "Latitude": "28.4157",
    "Longitude": "76.963",
    "RegionCode": "NCR",
    "State": "NCR",
    "SubRegionCode": "GURG",
    "VenueAddress": "3rd Floor, Elan Miracle, Dwarka Expressway, Sector 84, Gurugram (Gurgaon), NCR 122004, India",
    "VenueCode": "EMPS",
    "VenueName": "PVR: Elan Miracle, Sec 84, Gurugram"
  },
  "ESBW": {
    "AvailableFormats": "2D|3D",
    "City": "Pune",
    "Latitude": "18.5471",
    "Longitude": "73.9294",
    "RegionCode": "PUNE",
    "State": "Maharashtra",
    "SubRegionCode": "PUNE",
    "VenueAddress": "Old Mundhwa Road, Sector Number 3, Maruti Nagar, Kharadi, Wadgaon Sheri Bypass, Pune, Maharashtra 411014, India",
    "VenueCode": "ESBW",
    "VenueName": "Bollywood Multiplex: Kharadi"
  },
  "ESYL": {
    "AvailableFormats": "",
    "City": "Latur",
    "FirstTracked": "2026-07-14",
    "Latitude": "18.40879",
    "Longitude": "76.56909",
    "RegionCode": "LAT",
    "State": "Maharashtra",
    "SubRegionCode": "LAT",
    "VenueAddress": "Papvinash Mandir Road, Vyankatesh Nagar, Sawe Wadi, Near Old Renapur Naka, Latur, Maharashtra 413512, India",
    "VenueCode": "ESYL",
    "VenueName": "E-SQUARE Yashoda: Latur"
  },
  "EXCA": {
    "AvailableFormats": "2D",
    "City": "Ahilyanagar (Ahmednagar)",
    "Latitude": "19.3845",
    "Longitude": "74.7821",
    "RegionCode": "AHMED",
    "State": "Maharashtra",
    "SubRegionCode": "AHMED",
    "VenueAddress": "Kalyanam Lawns, A/P: Wanjarwadi Sonai, Tal: Nevasa, Ahilyanagar (Ahmednagar), Maharashtra 414105, India",
    "VenueCode": "EXCA",
    "VenueName": "Eylex Cinema: Sonai"
  },
  "FCLK": {
    "AvailableFormats": "2D",
    "City": "Lakhimpur Kheri",
    "Latitude": "27.9286",
    "Longitude": "80.7807",
    "RegionCode": "LKPK",
    "State": "Uttar Pradesh",
    "SubRegionCode": "LKPK",
    "VenueAddress": "Maharaj Nagar, LRP Road, Fun Mall, Lakhimpur Kheri, Uttar Pradesh 262701, India",
    "VenueCode": "FCLK",
    "VenueName": "Fun Cinemas: Lakhimpur Kheri"
  },
  "FDDH": {
    "AvailableFormats": "2D",
    "City": "Etawah",
    "Latitude": "26.7709",
    "Longitude": "79.0256",
    "RegionCode": "ETWH",
    "State": "Uttar Pradesh",
    "SubRegionCode": "ETWH",
    "VenueAddress": "Ram Lila Road, Anand Nagar, Lalpura, Etawah, Uttar Pradesh 206001, India",
    "VenueCode": "FDDH",
    "VenueName": "Fun DD Cinema: Etawah"
  },
  "FMJP": {
    "AvailableFormats": "3D|2D",
    "City": "Pune",
    "Latitude": "18.6486",
    "Longitude": "73.7847",
    "RegionCode": "PUNE",
    "State": "Maharashtra",
    "SubRegionCode": "PUNE",
    "VenueAddress": "Jai Ganesh Vision Mall, Akurdi Chowk, Ganga Nagar, Behind Greaves Cotton Company, Pune, Maharashtra 411035, India",
    "VenueCode": "FMJP",
    "VenueName": "INOX: Jai Ganesh, Akurdi"
  },
  "FNAM": {
    "AvailableFormats": "2D|3D",
    "City": "Ambala",
    "Latitude": "30.3743",
    "Longitude": "76.7822",
    "RegionCode": "AMB",
    "State": "Haryana",
    "SubRegionCode": "AMB",
    "VenueAddress": "Sector-7, Opposite Police Lines, Ambala, Haryana 134003, India",
    "VenueCode": "FNAM",
    "VenueName": "Fun Cinemas: Galaxy Mall, Ambala"
  },
  "FNDB": {
    "AvailableFormats": "2D|3D",
    "City": "Dibrugarh",
    "Latitude": "27.4801",
    "Longitude": "94.9053",
    "RegionCode": "DIB",
    "State": "Assam",
    "SubRegionCode": "DIB",
    "VenueAddress": "RKB, RKB Path, Sohum Mal, Dibrugarh, Assam 786001, India",
    "VenueCode": "FNDB",
    "VenueName": "Galleria Cinema: Junction Mall, Dibrugarh"
  },
  "FPKA": {
    "AvailableFormats": "2D",
    "City": "Kotkapura",
    "Latitude": "30.592",
    "Longitude": "74.8582",
    "RegionCode": "KOTK",
    "State": "Punjab",
    "SubRegionCode": "KOTK",
    "VenueAddress": "Moga Road, Kotkapura HO, Kotkapura, Punjab 151204, India",
    "VenueCode": "FPKA",
    "VenueName": "Fun Plaza: Kotkapura"
  },
  "FSCW": {
    "AvailableFormats": "2D",
    "City": "Pune",
    "Latitude": "18.5125",
    "Longitude": "73.6747",
    "RegionCode": "PUNE",
    "State": "Maharashtra",
    "SubRegionCode": "PUNE",
    "VenueAddress": "Ghotawade Phata, Pirangut, Pune, Maharashtra 412115, India",
    "VenueCode": "FSCW",
    "VenueName": "Funsquare Cinema: Ghotawade Phata"
  },
  "GABA": {
    "AvailableFormats": "2D",
    "City": "Babra",
    "Latitude": "21.8448",
    "Longitude": "71.3052",
    "RegionCode": "BABT",
    "State": "Gujarat",
    "SubRegionCode": "BABT",
    "VenueAddress": "City Survey No. 2791, Patidar Complex, Bhavnagar Road, Kalal Chowk Babra Amreli, Babra, Gujarat 365421, India",
    "VenueCode": "GABA",
    "VenueName": "Galaxy Cinema: Babra"
  },
  "GATH": {
    "AvailableFormats": "2D",
    "City": "Athagarh",
    "Latitude": "20.5146",
    "Longitude": "85.622",
    "RegionCode": "ATHG",
    "State": "Odisha",
    "SubRegionCode": "ATHG",
    "VenueAddress": "Near Lord Shiva Temple, Dorada Road, Athagarh, Odisha 754029, India",
    "VenueCode": "GATH",
    "VenueName": "Ganesh Talkies: Athagarh"
  },
  "GCAK": {
    "AvailableFormats": "2D",
    "City": "Kothamangalam",
    "Latitude": "10.0634",
    "Longitude": "76.6279",
    "RegionCode": "KTMM",
    "State": "Kerala",
    "SubRegionCode": "KTMM",
    "VenueAddress": "Hotel Kavery Road, Kothamangalam, Near State Bank Of India Kothamangalam Branch, Kothamangalam, Kerala 686666, India",
    "VenueCode": "GCAK",
    "VenueName": "G Cinemas: Kothamangalam 4K 3D Dolby Atmos"
  },
  "GCDM": {
    "AvailableFormats": "2D|3D",
    "City": "Mumbai",
    "Latitude": "19.2229",
    "Longitude": "73.0853",
    "RegionCode": "MUMBAI",
    "State": "Maharashtra",
    "SubRegionCode": "MCENT",
    "VenueAddress": "Vishnu Nagar, Nana Shanker Seth Road, Dombivali West, Near Fish Market, Mumbai, Maharashtra 421202, India",
    "VenueCode": "GCDM",
    "VenueName": "Gopi Cinema: Dombivali"
  },
  "GCGP": {
    "AvailableFormats": "2D|3D",
    "City": "Silchar",
    "Latitude": "24.8229",
    "Longitude": "92.8001",
    "RegionCode": "SIL",
    "State": "Assam",
    "SubRegionCode": "SIL",
    "VenueAddress": "Gold Digital Cinema, Goldighi Municipal Mall, Nazirpatty, Silchar, Assam 788001, India",
    "VenueCode": "GCGP",
    "VenueName": "Gold Cinema: Goldighi Municipal Mall, Silchar"
  },
  "GCMI": {
    "AvailableFormats": "2D",
    "City": "Mangaldoi",
    "Latitude": "26.4506",
    "Longitude": "92.0291",
    "RegionCode": "MANG",
    "State": "Assam",
    "SubRegionCode": "MANG",
    "VenueAddress": "Mangaldai Bhutiachang Road, No.1 Bezpara, Opposite Maa Bhandar, Mangaldoi, Assam 784125, India",
    "VenueCode": "GCMI",
    "VenueName": "Gold Cinema: Mangaldoi"
  },
  "GCSE": {
    "AvailableFormats": "2D",
    "City": "Hooghly",
    "Latitude": "22.7538",
    "Longitude": "88.3401",
    "RegionCode": "CHDD",
    "State": "West Bengal",
    "SubRegionCode": "CHDD",
    "VenueAddress": "180 N.S. Avenue, 3rd Floor Manasi Bazar, Near Bawarchi Biryani, Hooghly, West Bengal 712201, India",
    "VenueCode": "GCSE",
    "VenueName": "Goodwin Cineplex: Serampore"
  },
  "GDAW": {
    "AvailableFormats": "2D",
    "City": "Alwar",
    "Latitude": "27.5806",
    "Longitude": "76.6156",
    "RegionCode": "ALWR",
    "State": "Rajasthan",
    "SubRegionCode": "ALWR",
    "VenueAddress": "Near, Jail Circle, Cross Point Mall, Alwar, Rajasthan 301001, India",
    "VenueCode": "GDAW",
    "VenueName": "Gold Cinema: Alwar Crosspoint Mall"
  },
  "GDCV": {
    "AvailableFormats": "2D",
    "City": "Vidisha",
    "Latitude": "23.5086",
    "Longitude": "77.7824",
    "RegionCode": "VIDI",
    "State": "Madhya Pradesh",
    "SubRegionCode": "VIDI",
    "VenueAddress": "Sanchi Road, Rangai, Karaiya Haweli, Vidisha, Madhya Pradesh 464001, India",
    "VenueCode": "GDCV",
    "VenueName": "Gold Cinema: Vidisha"
  },
  "GDTY": {
    "AvailableFormats": "2D",
    "City": "Bengaluru",
    "Latitude": "13.0216",
    "Longitude": "77.5513",
    "RegionCode": "BANG",
    "State": "Karnataka",
    "SubRegionCode": "BANG",
    "VenueAddress": "46/2, Industrial Surab, Tumkur Road, Yeshwanthpur, Near Yeshwantpur Railway Station, Bengaluru, Karnataka 560022, India",
    "VenueCode": "GDTY",
    "VenueName": "Goverdhan Theatre: Yeshwantpur"
  },
  "GGCV": {
    "AvailableFormats": "2D",
    "City": "Vapi",
    "Latitude": "20.3756",
    "Longitude": "72.9212",
    "RegionCode": "VAPI",
    "State": "Gujarat",
    "SubRegionCode": "VAPI",
    "VenueAddress": "CM O No 11, Geet Cinema, Gunjan Road, GIDC, Vapi, Gujarat 396195, India",
    "VenueCode": "GGCV",
    "VenueName": "Gunjan Geet Cinema: Vapi"
  },
  "GIBH": {
    "AvailableFormats": "2D",
    "City": "Bharuch",
    "Latitude": "21.701",
    "Longitude": "72.9914",
    "RegionCode": "BHAR",
    "State": "Gujarat",
    "SubRegionCode": "BHAR",
    "VenueAddress": "2nd Floor,Shalimar Mall, Railway Station Road, Bharuch, Gujarat 392001, India",
    "VenueCode": "GIBH",
    "VenueName": "Gold Cinema, Shalimar: Bharuch"
  },
  "GLCA": {
    "AvailableFormats": "2D",
    "City": "Agra",
    "Latitude": "27.2009",
    "Longitude": "78.0089",
    "RegionCode": "AGRA",
    "State": "Uttar Pradesh",
    "SubRegionCode": "AGRA",
    "VenueAddress": "7th Floor, Ashok Cosmos Mall, 119/8-120/8, Sanjay Place, Wazirpura Road, Agra, Uttar Pradesh 282002, India",
    "VenueCode": "GLCA",
    "VenueName": "Gold Cinema: Agra"
  },
  "GMKU": {
    "AvailableFormats": "2D",
    "City": "Kollam",
    "Latitude": "8.88947",
    "Longitude": "76.5868",
    "RegionCode": "KOLM",
    "State": "Kerala",
    "SubRegionCode": "KOLM",
    "VenueAddress": "Poilakada Road, Parmeswar Nagar, Kollam, Kerala 691001, India",
    "VenueCode": "GMKU",
    "VenueName": "Gmax 4k Utsav Aradhana Complex"
  },
  "GOLC": {
    "AvailableFormats": "",
    "City": "Jaipur",
    "FirstTracked": "2026-07-14",
    "Latitude": "26.917025",
    "Longitude": "75.82133",
    "RegionCode": "JAIP",
    "State": "Rajasthan",
    "SubRegionCode": "JAIP",
    "VenueAddress": "New Gate, SMS Highway, Bapu Bazar, Chaura Rasta, Jaipur, Rajasthan 302003, India",
    "VenueCode": "GOLC",
    "VenueName": "Golcha Cinema: Jaipur"
  },
  "GPMF": {
    "AvailableFormats": "2D",
    "City": "Faridkot",
    "Latitude": "30.6768",
    "Longitude": "74.7611",
    "RegionCode": "DKOT",
    "State": "Punjab",
    "SubRegionCode": "DKOT",
    "VenueAddress": "Gills Palace, Circular Road, Balbir Basti, Faridkot, Punjab 151203, India",
    "VenueCode": "GPMF",
    "VenueName": "Gill Plaza Multiplex: Faridkot"
  },
  "GRGA": {
    "AvailableFormats": "3D|2D",
    "City": "Guwahati",
    "Latitude": "26.1288",
    "Longitude": "91.811",
    "RegionCode": "GUW",
    "State": "Assam",
    "SubRegionCode": "GUW",
    "VenueAddress": "6th Floor, NRB City Mall, GS Raod, Sixmile, Khanapara, Guwahati, Assam 781022, India",
    "VenueCode": "GRGA",
    "VenueName": "Grand Royal Cines, Sixmile: Guwahati"
  },
  "GTAD": {
    "AvailableFormats": "2D",
    "City": "Yerragondapalem",
    "Latitude": "16.04",
    "Longitude": "79.3096",
    "RegionCode": "YERA",
    "State": "Andhra Pradesh",
    "SubRegionCode": "YERA",
    "VenueAddress": "28R5+2V6, Yerragondapalem, Yerragondapalem, Andhra Pradesh 523327, India",
    "VenueCode": "GTAD",
    "VenueName": "Gayathri Theater 2K Dolby: Yerragondapalem"
  },
  "GTEM": {
    "AvailableFormats": "2D",
    "City": "Mandya",
    "Latitude": "12.5279",
    "Longitude": "76.8884",
    "RegionCode": "MND",
    "State": "Karnataka",
    "SubRegionCode": "MND",
    "VenueAddress": "National Highway 275, BM Road, Mandya, Karnataka 571401, India",
    "VenueCode": "GTEM",
    "VenueName": "Theatre Gurushree 2K: Mandya"
  },
  "GTTT": {
    "AvailableFormats": "2D",
    "City": "Ooty",
    "Latitude": "11.406",
    "Longitude": "76.701",
    "RegionCode": "OOTY",
    "State": "Tamil Nadu",
    "SubRegionCode": "OOTY",
    "VenueAddress": "Ganapathy Theatre Road, Upper Bazar, Ooty, Tamil Nadu 643001, India",
    "VenueCode": "GTTT",
    "VenueName": "Ganapathy Theatre: Ooty"
  },
  "GXYN": {
    "AvailableFormats": "2D",
    "City": "Nawapara",
    "Latitude": "20.9732",
    "Longitude": "81.8549",
    "RegionCode": "NAWA",
    "State": "Chhattisgarh",
    "SubRegionCode": "NAWA",
    "VenueAddress": "Nawapara Nagar, Abhanpur-Rajim Road, Near HP Petrol Pump, Nawapara, Chhattisgarh 493881, India",
    "VenueCode": "GXYN",
    "VenueName": "Galaxy Cinema: Nawapara"
  },
  "HCAD": {
    "AvailableFormats": "2D",
    "City": "Vadodara",
    "Latitude": "22.2669",
    "Longitude": "73.2225",
    "RegionCode": "VAD",
    "State": "Gujarat",
    "SubRegionCode": "VAD",
    "VenueAddress": "4th Floor, Siddharth Magnum Plus, Tarsali Danteshwar Ring Road, Beside Bansal Mall, Tarsali, Vadodara, Gujarat 390009, India",
    "VenueCode": "HCAD",
    "VenueName": "Havelock Cineflix: Tarsali, Vadodara"
  },
  "HFSV": {
    "AvailableFormats": "2D",
    "City": "Vasco Da Gama",
    "Latitude": "15.4",
    "Longitude": "73.8143",
    "RegionCode": "GOA",
    "State": "Goa",
    "SubRegionCode": "VAGG",
    "VenueAddress": "Vaddem, New Vaddem, FL  Gomes Road, Near Corporation Bank, Vasco Da Gama, Goa 403802, India",
    "VenueCode": "HFSV",
    "VenueName": "Z Square Cine Shivam: Vasco Da Gama"
  },
  "HMHD": {
    "AvailableFormats": "2D|3D",
    "City": "Hyderabad",
    "Latitude": "17.4445",
    "Longitude": "78.3882",
    "RegionCode": "HYD",
    "State": "Telangana",
    "SubRegionCode": "HYD",
    "VenueAddress": "Hitech City Road, Sri Sai Nagar, Madhapur, Near State Bank Of India, Hyderabad, Telangana 500034, India",
    "VenueCode": "HMHD",
    "VenueName": "BR Hitech 70mm: Madhapur"
  },
  "HVCA": {
    "AvailableFormats": "2D",
    "City": "Ahmedabad",
    "Latitude": "23.0115",
    "Longitude": "72.5976",
    "RegionCode": "AHD",
    "State": "Gujarat",
    "SubRegionCode": "AHD",
    "VenueAddress": "1st Floor, Eka Club by TransStadia, Kankaria Lake, Opposite Gate No.3, Ahmedabad, Gujarat 380022, India",
    "VenueCode": "HVCA",
    "VenueName": "Havelock Cineflix Cinemas: Maninagar, Ahmedabad"
  },
  "IDEN": {
    "AvailableFormats": "2D",
    "City": "Delhi",
    "Latitude": "28.5513",
    "Longitude": "77.2515",
    "RegionCode": "NCR",
    "State": "NCR",
    "SubRegionCode": "DELHI",
    "VenueAddress": "Lower Ground Floor, Epicuria, TDI South Bridge, Nehru Place Metro Station, PD Area, Delhi, NCR 110019, India",
    "VenueCode": "IDEN",
    "VenueName": "INOX: Insignia At Epicuria, Nehru Place"
  },
  "ILCM": {
    "AvailableFormats": "3D|2D",
    "City": "Lucknow",
    "Latitude": "26.8886",
    "Longitude": "81.0554",
    "RegionCode": "LUCK",
    "State": "Uttar Pradesh",
    "SubRegionCode": "LUCK",
    "VenueAddress": "INOX  Leisure LTD, 3rd Floor, Crown Mall, Faizabad Road, Atif Vihar, Opposite BBD University, Lucknow, Uttar Pradesh 226028, India",
    "VenueCode": "ILCM",
    "VenueName": "INOX: Crown Mall, Lucknow"
  },
  "IMJW": {
    "AvailableFormats": "3D|2D|IMAX 2D",
    "City": "Mumbai",
    "Latitude": "19.066",
    "Longitude": "72.8668",
    "RegionCode": "MUMBAI",
    "State": "Maharashtra",
    "SubRegionCode": "MWEST",
    "VenueAddress": "3rd Floor, Jio World Plaza, G Block BKC, Bandra Kurla Complex, Bandra East, Mumbai, Maharashtra 400055, India",
    "VenueCode": "IMJW",
    "VenueName": "Maison INOX: Jio World Plaza, BKC"
  },
  "INAC": {
    "AvailableFormats": "2D|3D",
    "City": "Ajmer",
    "Latitude": "26.5147",
    "Longitude": "74.6339",
    "RegionCode": "AJMER",
    "State": "Rajasthan",
    "SubRegionCode": "AJMER",
    "VenueAddress": "3rd Floor, City Square Mall, A Block Panchsheel Colony, Makarwali Road, Ajmer, Rajasthan 305004, India",
    "VenueCode": "INAC",
    "VenueName": "INOX: City Square Mall, Ajmer"
  },
  "INBL": {
    "AvailableFormats": "2D|3D",
    "City": "Belagavi (Belgaum)",
    "Latitude": "15.8531",
    "Longitude": "74.5092",
    "RegionCode": "BELG",
    "State": "Karnataka",
    "SubRegionCode": "BELG",
    "VenueAddress": "Near BSNL Office, Head Post Office Road, Belgaum Camp, Near BSNL office, Belagavi (Belgaum), Karnataka 590001, India",
    "VenueCode": "INBL",
    "VenueName": "INOX: Camp Road, Belagavi"
  },
  "INCS": {
    "AvailableFormats": "3D|2D",
    "City": "Cuttack",
    "Latitude": "20.4613",
    "Longitude": "85.8691",
    "RegionCode": "CUTT",
    "State": "Odisha",
    "SubRegionCode": "CUTT",
    "VenueAddress": "SGBL Square,Town Hall Road, Unit No. 15, Choudhury Bazar, Cuttack, Odisha 753009, India",
    "VenueCode": "INCS",
    "VenueName": "INOX: Cuttack SGBL Square Mall"
  },
  "INGW": {
    "AvailableFormats": "2D|3D",
    "City": "Gwalior",
    "Latitude": "26.2162",
    "Longitude": "78.185",
    "RegionCode": "GWAL",
    "State": "Madhya Pradesh",
    "SubRegionCode": "GWAL",
    "VenueAddress": "2nd Floor, DB Mall, Race course Road, Old MPSRTC Work Station, Opposite Gwalior Railway Station, Gwalior, Madhya Pradesh 474002, India",
    "VenueCode": "INGW",
    "VenueName": "INOX: DB Mall, Gwalior"
  },
  "INKS": {
    "AvailableFormats": "2D|3D",
    "City": "Kolkata",
    "Latitude": "22.5712",
    "Longitude": "88.4011",
    "RegionCode": "KOLK",
    "State": "West Bengal",
    "SubRegionCode": "KOLK",
    "VenueAddress": "INOX Leisure Ltd, 89C, Moulana Abul Kalam Azad Sarani, Kolkata, West Bengal 700054, India",
    "VenueCode": "INKS",
    "VenueName": "INOX: Swabhumi, Maulana Azad Sarani"
  },
  "INOA": {
    "AvailableFormats": "2D|3D",
    "City": "Goa",
    "Latitude": "15.2859",
    "Longitude": "73.9572",
    "RegionCode": "BTBM",
    "State": "Goa",
    "SubRegionCode": "BTBM",
    "VenueAddress": "A Wing, 2nd Floor, Osia Commercial Arcade, SGPDA Market Complex, Margao, Goa, Goa 403601, India",
    "VenueCode": "INOA",
    "VenueName": "INOX: Osia A Wing Margao, Goa"
  },
  "INPS": {
    "AvailableFormats": "2D|3D",
    "City": "Jaipur",
    "Latitude": "26.9031",
    "Longitude": "75.8364",
    "RegionCode": "JAIP",
    "State": "Rajasthan",
    "SubRegionCode": "JAIP",
    "VenueAddress": "Raja Park, Govind Marg, Pink Square Mall, Jaipur, Rajasthan 302004, India",
    "VenueCode": "INPS",
    "VenueName": "INOX: Pink Square Mall, Adarsh Nagar"
  },
  "INRR": {
    "AvailableFormats": "2D",
    "City": "Rajkot",
    "Latitude": "22.3026",
    "Longitude": "70.7965",
    "RegionCode": "RAJK",
    "State": "Gujarat",
    "SubRegionCode": "RAJK",
    "VenueAddress": "Old Dharam Cinema Building, Kasturba Road, Naval Nagar, Near Saurashtra Cricket Association, Rajkot, Gujarat 360001, India",
    "VenueCode": "INRR",
    "VenueName": "INOX: Rajkot R World"
  },
  "INTA": {
    "AvailableFormats": "2D",
    "City": "Manapparai",
    "Latitude": "10.6097",
    "Longitude": "78.4233",
    "RegionCode": "MAPI",
    "State": "Tamil Nadu",
    "SubRegionCode": "MAPI",
    "VenueAddress": "Boys Town, Kulithalai - Manapparai Road, Nea Aavin Shop, Manapparai, Tamil Nadu 621306, India",
    "VenueCode": "INTA",
    "VenueName": "INDIRA CINEMAS A/C DOLBY 7.1: MANAPPARAI"
  },
  "INVJ": {
    "AvailableFormats": "2D",
    "City": "Vijayawada",
    "Latitude": "16.5172",
    "Longitude": "80.631",
    "RegionCode": "KADU",
    "State": "Andhra Pradesh",
    "SubRegionCode": "KADU",
    "VenueAddress": "Urvashi Theatre Complex, 26-2-66/A, Andhra Ratna Road, Gandhi Nagar, Vijayawada, Andhra Pradesh 520003, India",
    "VenueCode": "INVJ",
    "VenueName": "INOX: Urvasi Complex, Gandhi Nagar"
  },
  "INZD": {
    "AvailableFormats": "2D",
    "City": "Zirakpur",
    "Latitude": "30.6199",
    "Longitude": "76.8231",
    "RegionCode": "CHD",
    "State": "Punjab",
    "SubRegionCode": "ZRIK",
    "VenueAddress": "INOX Leisure Ltd, 2nd Floor, Dhillon Square Mall, Chhatbir Road, Chandigarh - Ambala Highway, Zirakpur, Zirakpur, Punjab 140603, India",
    "VenueCode": "INZD",
    "VenueName": "INOX: Dhillon Plaza (Zirakpur)"
  },
  "IPBG": {
    "AvailableFormats": "2D|3D",
    "City": "Navi Mumbai",
    "Latitude": "19.0853",
    "Longitude": "73.0076",
    "RegionCode": "MUMBAI",
    "State": "Maharashtra",
    "SubRegionCode": "THAN",
    "VenueAddress": "INOX Leisure Ltd, Plot No.17, Palm Beach Galleria Mall, Sector 19D, Palm Beach Road, Vashi, Navi Mumbai, Maharashtra 400703, India",
    "VenueCode": "IPBG",
    "VenueName": "INOX: Palm Beach Galleria Mall, Navi Mumbai"
  },
  "IRGT": {
    "AvailableFormats": "2D|3D",
    "City": "Thane",
    "Latitude": "19.2304",
    "Longitude": "72.9774",
    "RegionCode": "MUMBAI",
    "State": "Maharashtra",
    "SubRegionCode": "THNE",
    "VenueAddress": "3rd Floor, R Mall,Ghodbunder Road, Opposite Lokim Company, Dokali Pada, Dhokali, Thane West, Thane, Maharashtra 400607, India",
    "VenueCode": "IRGT",
    "VenueName": "INOX: Insignia at R Mall, Thane"
  },
  "ISTJ": {
    "AvailableFormats": "2D|3D",
    "City": "Jaipur",
    "Latitude": "26.8768",
    "Longitude": "75.7608",
    "RegionCode": "JAIP",
    "State": "Rajasthan",
    "SubRegionCode": "JAIP",
    "VenueAddress": "Sunny Trade Center, 3rd Floor, New Aatish Market, Jaipur, Rajasthan 302020, India",
    "VenueCode": "ISTJ",
    "VenueName": "INOX: Sunny Trade Center, Jaipur"
  },
  "JACP": {
    "AvailableFormats": "2D",
    "City": "Jajpur Road",
    "Latitude": "20.9459",
    "Longitude": "86.1311",
    "RegionCode": "JAJP",
    "State": "Odisha",
    "SubRegionCode": "JAJP",
    "VenueAddress": "New Bus Stand, Bypass Road, Umapada, Jajpur Road, Odisha 755019, India",
    "VenueCode": "JACP",
    "VenueName": "Jagannath Cine Palace: Jajpur Road"
  },
  "JBTV": {
    "AvailableFormats": "2D",
    "City": "Vadakkencherry",
    "Latitude": "10.5977",
    "Longitude": "76.4814",
    "RegionCode": "VDCY",
    "State": "Kerala",
    "SubRegionCode": "VDCY",
    "VenueAddress": "Vadakkanchery - Padur Road, Karayankadu, Vadakkencherry, Kerala 678683, India",
    "VenueCode": "JBTV",
    "VenueName": "Jayabharath Theatre: Vadakkencherry"
  },
  "JCPC": {
    "AvailableFormats": "2D",
    "City": "Badaun",
    "Latitude": "28.0354",
    "Longitude": "79.1234",
    "RegionCode": "BADN",
    "State": "Uttar Pradesh",
    "SubRegionCode": "BADN",
    "VenueAddress": "Sotha Mohallah, Opposite Bada Gost Bazaar, Badaun, Uttar Pradesh 243601, India",
    "VenueCode": "JCPC",
    "VenueName": "J C Picture Palace: Budaun"
  },
  "JGDM": {
    "AvailableFormats": "",
    "City": "Vizag",
    "Latitude": "17.7122",
    "Longitude": "83.3022",
    "RegionCode": "VIZA",
    "State": "Andhra Pradesh",
    "SubRegionCode": "VIZA",
    "VenueAddress": "Chitralaya Road, Jagadamba Junction, Near South Indian Bank ATM, Vizag, Andhra Pradesh 530020, India",
    "VenueCode": "JGDM",
    "VenueName": "Jagadamba Complex A/C 4K Dolby Atmos : Vizag"
  },
  "JJPP": {
    "AvailableFormats": "2D",
    "City": "Hyderabad",
    "Latitude": "17.4951",
    "Longitude": "78.3341",
    "RegionCode": "HYD",
    "State": "Telangana",
    "SubRegionCode": "HYD",
    "VenueAddress": "Shop No. W-4, Tapadia Maruti Infinity Mall, Door No. 2-132, Chanda Nagar, Hyderabad, Telangana 500050, India",
    "VenueCode": "JJPP",
    "VenueName": "JP Cinemas: Chandanagar"
  },
  "JMEX": {
    "AvailableFormats": "2D",
    "City": "Malkangiri",
    "Latitude": "18.364",
    "Longitude": "81.9024",
    "RegionCode": "MALG",
    "State": "Odisha",
    "SubRegionCode": "MALG",
    "VenueAddress": "National Highway 326, Near Kaniska Automobiles, Malkangiri, Odisha 764045, India",
    "VenueCode": "JMEX",
    "VenueName": "J Max Cinemas: Malkangiri"
  },
  "JPCJ": {
    "AvailableFormats": "2D",
    "City": "Jalalabad",
    "Latitude": "30.6035",
    "Longitude": "74.2602",
    "RegionCode": "JLAB",
    "State": "Punjab",
    "SubRegionCode": "JLAB",
    "VenueAddress": "J P Cinema, Muktsar Road, Jalalabad, Punjab 152024, India",
    "VenueCode": "JPCJ",
    "VenueName": "JP Cinema: Jalalabad"
  },
  "JTAP": {
    "AvailableFormats": "",
    "City": "Thirubhuvanai",
    "FirstTracked": "2026-07-14",
    "Latitude": "11.918086",
    "Longitude": "79.64769",
    "RegionCode": "THRU",
    "State": "Tamil Nadu",
    "SubRegionCode": "THRU",
    "VenueAddress": "197 Main Road, Puducherry - Vilupuram Road, Thirubhuvanai, Tamil Nadu 605102, India",
    "VenueCode": "JTAP",
    "VenueName": "Central Talkies: Thirubuvanai"
  },
  "JTJL": {
    "AvailableFormats": "2D",
    "City": "Edlapadu",
    "Latitude": "16.1719",
    "Longitude": "80.2287",
    "RegionCode": "EDLP",
    "State": "Andhra Pradesh",
    "SubRegionCode": "EDLP",
    "VenueAddress": "NH 16, Chennai - Srikakualm Highway, Near Virinchi Gardens, Edlapadu, Andhra Pradesh 522233, India",
    "VenueCode": "JTJL",
    "VenueName": "Jayalakshmi Movie Land: Edlapadu"
  },
  "JTMV": {
    "AvailableFormats": "2D",
    "City": "Chennai",
    "Latitude": "13.3357",
    "Longitude": "80.1947",
    "RegionCode": "CHEN",
    "State": "Tamil Nadu",
    "SubRegionCode": "CHEN",
    "VenueAddress": "57,Newcar Street, Thiruvallur Dist,NGO Nagar Extension,Chennai, Tamil Nadu 601204, India",
    "VenueCode": "JTMV",
    "VenueName": "VVM Cinemas 3D 2K AC Dts, Ponneri: Chennai"
  },
  "JTRA": {
    "AvailableFormats": "2D",
    "City": "Anakapalle",
    "Latitude": "17.6927",
    "Longitude": "83.0018",
    "RegionCode": "ANKP",
    "State": "Andhra Pradesh",
    "SubRegionCode": "ANKP",
    "VenueAddress": "Narasinga Rao Peta, Near Tata Docomo Store, Anakapalle, Andhra Pradesh 531001, India",
    "VenueCode": "JTRA",
    "VenueName": "Ramachandra Theatre: Anakapalle"
  },
  "JTSX": {
    "AvailableFormats": "",
    "City": "Vizag",
    "FirstTracked": "2026-07-14",
    "Latitude": "17.749195",
    "Longitude": "83.21968",
    "RegionCode": "SABB",
    "State": "Andhra Pradesh",
    "SubRegionCode": "SABB",
    "VenueAddress": "14-244, Gopalpatnam Main Road, Vizag, Andhra Pradesh 530027, India",
    "VenueCode": "JTSX",
    "VenueName": "Sukanya Complex: Vizag"
  },
  "JVRC": {
    "AvailableFormats": "2D",
    "City": "Jaggampeta",
    "Latitude": "17.1769",
    "Longitude": "82.0616",
    "RegionCode": "JAGG",
    "State": "Andhra Pradesh",
    "SubRegionCode": "JAGG",
    "VenueAddress": "Gollalagunta Road, Near by Ravulamma Talli Temple, Jaggampeta, Andhra Pradesh 533435, India",
    "VenueCode": "JVRC",
    "VenueName": "JVR Cinemas: Jaggampeta"
  },
  "JYYN": {
    "AvailableFormats": "2D",
    "City": "Nagpur",
    "Latitude": "21.1415",
    "Longitude": "79.0833",
    "RegionCode": "NAGP",
    "State": "Maharashtra",
    "SubRegionCode": "NAGP",
    "VenueAddress": "Abhyankar Marg, Sitabuldi, Near Maharashtra Bank, Nagpur, Maharashtra 440012, India",
    "VenueCode": "JYYN",
    "VenueName": "Janki Theatre (2K Laser,5.1 Dolby): Sitabuldi"
  },
  "KANT": {
    "AvailableFormats": "2D|3D",
    "City": "Betul",
    "Latitude": "21.8984",
    "Longitude": "77.9051",
    "RegionCode": "BETU",
    "State": "Madhya Pradesh",
    "SubRegionCode": "BETU",
    "VenueAddress": "Near Railway Station, Betulganj, Near Kantishiva Chowk, Betul, Madhya Pradesh 460001, India",
    "VenueCode": "KANT",
    "VenueName": "Kantishiva Multiplex: Betul"
  },
  "KBPM": {
    "AvailableFormats": "2D",
    "City": "Pamuru",
    "Latitude": "15.0961",
    "Longitude": "79.4099",
    "RegionCode": "PMMR",
    "State": "Andhra Pradesh",
    "SubRegionCode": "PMMR",
    "VenueAddress": "Chitralaya Street, Near SBI, Pamuru, Andhra Pradesh 523108, India",
    "VenueCode": "KBPM",
    "VenueName": "KB Srinivasa A/C 2K Dolby 7.1: Pamuru"
  },
  "KCKG": {
    "AvailableFormats": "2D|3D",
    "City": "Kopargaon",
    "Latitude": "19.8833",
    "Longitude": "74.4762",
    "RegionCode": "KOPG",
    "State": "Maharashtra",
    "SubRegionCode": "KOPG",
    "VenueAddress": "2061,1st Floor, K City Centre, Gurudwara Road, Dist.Ahmednagar, Kopargaon, Maharashtra 423601, India",
    "VenueCode": "KCKG",
    "VenueName": "K Cineplex: Kopargaon"
  },
  "KCSA": {
    "AvailableFormats": "",
    "City": "Namakkal",
    "FirstTracked": "2026-07-14",
    "Latitude": "11.22639",
    "Longitude": "78.16373",
    "RegionCode": "NMKL",
    "State": "Tamil Nadu",
    "SubRegionCode": "NMKL",
    "VenueAddress": "49, R.P Pudur, Salem - Namakkal Road, Namakkal, Tamil Nadu 637001, India",
    "VenueCode": "KCSA",
    "VenueName": "KS Cineplex Screen 1 by DNC Theatres: Namakkal"
  },
  "KDCT": {
    "AvailableFormats": "2D",
    "City": "Madurai",
    "Latitude": "9.88219",
    "Longitude": "78.0614",
    "RegionCode": "MADU",
    "State": "Tamil Nadu",
    "SubRegionCode": "MADU",
    "VenueAddress": "Sannathi Street,12/1, Pandiyan Nagar, Madurai, Tamil Nadu 625005, India",
    "VenueCode": "KDCT",
    "VenueName": "Kannan Devi Cinemas, Tirunagar: Madurai"
  },
  "KHMJ": {
    "AvailableFormats": "2D",
    "City": "Jalna",
    "Latitude": "19.8322",
    "Longitude": "75.9121",
    "RegionCode": "JALN",
    "State": "Maharashtra",
    "SubRegionCode": "JALN",
    "VenueAddress": "Krishna Mall, Krishna Vihar, Mantha Ambad Bypass Ring Road, Jalna, Maharashtra 431203, India",
    "VenueCode": "KHMJ",
    "VenueName": "Krishna Multiplex: Jalna"
  },
  "KKMA": {
    "AvailableFormats": "2D",
    "City": "Silvassa",
    "Latitude": "20.2716",
    "Longitude": "72.9916",
    "RegionCode": "SILV",
    "State": "Gujarat",
    "SubRegionCode": "SILV",
    "VenueAddress": "Prithviraj Chauhan Marg, Gujarat State Highway 185p, ,Opposite Yatri Niwas Hotel, Silvassa, Gujarat 396230, India",
    "VenueCode": "KKMA",
    "VenueName": "The Cine Station: Silvassa"
  },
  "KLMS": {
    "AvailableFormats": "2D",
    "City": "Kim",
    "Latitude": "21.4049",
    "Longitude": "72.9148",
    "RegionCode": "SURT",
    "State": "Gujarat",
    "SubRegionCode": "SURT",
    "VenueAddress": "3rd Floor, Laxmi Arcade, Kim Olpad Road, Mulad Village, Near Laxmi Bungalow, Kim, Gujarat 394110, India",
    "VenueCode": "KLMS",
    "VenueName": "KD Laxmi Multiplex (Dolby 7.1): Kim, Surat"
  },
  "KMPG": {
    "AvailableFormats": "2D",
    "City": "Ganapavaram",
    "Latitude": "16.7032",
    "Longitude": "81.4632",
    "RegionCode": "GANP",
    "State": "Andhra Pradesh",
    "SubRegionCode": "GANP",
    "VenueAddress": "Ganapavaram - Pippara Road, Near Ganapavaram Panchayat Office, Ganapavaram, Andhra Pradesh 534198, India",
    "VenueCode": "KMPG",
    "VenueName": "Kumari Picture Palace A/C Dts: Ganapavaram"
  },
  "KOVI": {
    "AvailableFormats": "2D",
    "City": "Coimbatore",
    "Latitude": "10.9989",
    "Longitude": "76.9686",
    "RegionCode": "COIM",
    "State": "Tamil Nadu",
    "SubRegionCode": "COIM",
    "VenueAddress": "7/21, State Bank Road, Gopala Puram, Near Annamali hotel, Coimbatore, Tamil Nadu 641018, India",
    "VenueCode": "KOVI",
    "VenueName": "Kovai Shanti Complex 4K 3D: Coimbatore"
  },
  "KRGD": {
    "AvailableFormats": "2D",
    "City": "Giddalur",
    "Latitude": "15.3809",
    "Longitude": "78.9312",
    "RegionCode": "GDAL",
    "State": "Andhra Pradesh",
    "SubRegionCode": "GDAL",
    "VenueAddress": "Racherla Gate Center, Racherla Road, Giddalur, Andhra Pradesh 523357, India",
    "VenueCode": "KRGD",
    "VenueName": "Krishna Theater: Giddalur"
  },
  "KRTO": {
    "AvailableFormats": "",
    "City": "Ongole",
    "FirstTracked": "2026-07-14",
    "Latitude": "15.509667",
    "Longitude": "80.0479",
    "RegionCode": "ADKI",
    "State": "Andhra Pradesh",
    "SubRegionCode": "ADKI",
    "VenueAddress": "Islampet, Gopal Nagar, Near Fire Station, Ongole, Andhra Pradesh 523001, India",
    "VenueCode": "KRTO",
    "VenueName": "Krishna Theatre: Ongole"
  },
  "KSKL": {
    "AvailableFormats": "2D",
    "City": "Karnal",
    "Latitude": "29.6935",
    "Longitude": "77.0028",
    "RegionCode": "KARN",
    "State": "Haryana",
    "SubRegionCode": "KARN",
    "VenueAddress": "Sector 12, Main Road, Karnal, Haryana 132001, India",
    "VenueCode": "KSKL",
    "VenueName": "Harsh A Movie: Karnal"
  },
  "KSTR": {
    "AvailableFormats": "2D",
    "City": "Alappuzha",
    "Latitude": "9.49605",
    "Longitude": "76.3412",
    "RegionCode": "CRTL",
    "State": "Kerala",
    "SubRegionCode": "CRTL",
    "VenueAddress": "CCNB Road, Erezha, Mullakkal, Near St George Lodgings, Alappuzha, Kerala 688011, India",
    "VenueCode": "KSTR",
    "VenueName": "Kairali Sree Theater: Alappuzha"
  },
  "KTKO": {
    "AvailableFormats": "2D",
    "City": "B.Kothakota",
    "Latitude": "13.6586",
    "Longitude": "78.2672",
    "RegionCode": "BKOT",
    "State": "Andhra Pradesh",
    "SubRegionCode": "BKOT",
    "VenueAddress": "Bypass Road, Handadi, B.Kothakota, Andhra Pradesh 517370, India",
    "VenueCode": "KTKO",
    "VenueName": "Sri Venkateswara Theater Dolby Digital"
  },
  "KVCS": {
    "AvailableFormats": "2D",
    "City": "Chennai",
    "Latitude": "13.0345",
    "Longitude": "80.2306",
    "RegionCode": "CHEN",
    "State": "Tamil Nadu",
    "SubRegionCode": "CHEN",
    "VenueAddress": "No 3 Usman Road, T. Nagar, Chennai, Near Mehta Hospitals Pvt Ltd, Chennai, Tamil Nadu 600017, India",
    "VenueCode": "KVCS",
    "VenueName": "KC(KrishnaveniCinemas) RG3 LASER DOLBYATMOS TNAGAR"
  },
  "LAIM": {
    "AvailableFormats": "2D",
    "City": "Vijayawada",
    "Latitude": "16.5066",
    "Longitude": "80.6285",
    "RegionCode": "VIJA",
    "State": "Andhra Pradesh",
    "SubRegionCode": "VIJA",
    "VenueAddress": "4th Floor, Laila Mall, M.G. Road, Vijayawada, Andhra Pradesh 520002, India",
    "VenueCode": "LAIM",
    "VenueName": "INOX: Laila Mall, M.G. Road"
  },
  "LBCN": {
    "AvailableFormats": "",
    "City": "Nanded",
    "FirstTracked": "2026-07-14",
    "Latitude": "19.146639",
    "Longitude": "77.322266",
    "RegionCode": "NAND",
    "State": "Maharashtra",
    "SubRegionCode": "NAND",
    "VenueAddress": "Gadipura, Khadakpura, Nanded, Maharashtra 431604, India",
    "VenueCode": "LBCN",
    "VenueName": "Liberty Cinema: Nanded"
  },
  "LCPC": {
    "AvailableFormats": "2D",
    "City": "Pune",
    "Latitude": "19.1187",
    "Longitude": "73.9729",
    "RegionCode": "PUNE",
    "State": "Maharashtra",
    "SubRegionCode": "PUNE",
    "VenueAddress": "Telephone Exchange Road, Narayan Gaon, Near Shinde Market, Pune, Maharashtra 410504, India",
    "VenueCode": "LCPC",
    "VenueName": "Laxmi Cineplex: Narayangaon"
  },
  "LGTV": {
    "AvailableFormats": "2D",
    "City": "Vizianagaram",
    "Latitude": "18.1103",
    "Longitude": "83.3976",
    "RegionCode": "VIZI",
    "State": "Andhra Pradesh",
    "SubRegionCode": "VIZI",
    "VenueAddress": "Fort City Central Mall, Railway Station Road, Gadi Khana, Pedavemali, Beside Leela Mahal theatre, Vizianagaram, Andhra Pradesh 535001, India",
    "VenueCode": "LGTV",
    "VenueName": "LGT Cinemas: Vizianagaram"
  },
  "LKMT": {
    "AvailableFormats": "2D",
    "City": "Hyderabad",
    "Latitude": "17.4948",
    "Longitude": "78.5112",
    "RegionCode": "HYD",
    "State": "Telangana",
    "SubRegionCode": "HYD",
    "VenueAddress": "Shop No: 14 - 69, Lothukunta Road, Lothkunta, Alwal, Secunderabad, Near Alwal City Bus Stop, Next to Sona Wines, Hyderabad, Telangana 500015, India",
    "VenueCode": "LKMT",
    "VenueName": "Lakshmi Kala Mandir: Alwal"
  },
  "LLCT": {
    "AvailableFormats": "2D",
    "City": "Tanda",
    "Latitude": "31.6758",
    "Longitude": "75.6348",
    "RegionCode": "TNDA",
    "State": "Punjab",
    "SubRegionCode": "TNDA",
    "VenueAddress": "Gurdaspur Road, Near Civil Hospital, Tanda, Punjab 144204, India",
    "VenueCode": "LLCT",
    "VenueName": "Lakhi Cinemas: Tanda"
  },
  "LPTH": {
    "AvailableFormats": "2D",
    "City": "Hospet",
    "Latitude": "15.2733",
    "Longitude": "76.3918",
    "RegionCode": "HOSP",
    "State": "Karnataka",
    "SubRegionCode": "HOSP",
    "VenueAddress": "No. 202, Jn Road, Saraswati Picture Palace, Near Malligi Hotel, Hospet, Karnataka 583201, India",
    "VenueCode": "LPTH",
    "VenueName": "Lakshmi Picture Palace: Hospet"
  },
  "LTTP": {
    "AvailableFormats": "2D",
    "City": "Madurai",
    "Latitude": "9.87549",
    "Longitude": "78.0653",
    "RegionCode": "MADU",
    "State": "Tamil Nadu",
    "SubRegionCode": "MADU",
    "VenueAddress": "Thirupparankundram Road, Avaniyapuram, Near Kasi Viswanathar Temple, Madurai, Tamil Nadu 625005, India",
    "VenueCode": "LTTP",
    "VenueName": "Sri Lakshmi Theatre: Thirupparankundram"
  },
  "LYAS": {
    "AvailableFormats": "2D",
    "City": "Solapur",
    "Latitude": "17.6533",
    "Longitude": "75.9318",
    "RegionCode": "SOLA",
    "State": "Maharashtra",
    "SubRegionCode": "SOLA",
    "VenueAddress": "S.No.218/2 C, Adarsh Nagar, Akashwai Kendra Road, Opposite MIDC, Solapur, Maharashtra 413006, India",
    "VenueCode": "LYAS",
    "VenueName": "Laxminarayan Cinema: Solapur"
  },
  "MACB": {
    "AvailableFormats": "2D|3D",
    "City": "Banswara",
    "Latitude": "23.5537",
    "Longitude": "74.4264",
    "RegionCode": "BANS",
    "State": "Rajasthan",
    "SubRegionCode": "BANS",
    "VenueAddress": "3rd Floor, Nakshatra Mall, Udaipur Dungarpur Link Road, Banswara, Rajasthan 327001, India",
    "VenueCode": "MACB",
    "VenueName": "Mukta A2 Cinemas: Nakshatra Mall, Banswara"
  },
  "MAFC": {
    "AvailableFormats": "2D",
    "City": "Sangli",
    "Latitude": "16.8603",
    "Longitude": "74.5698",
    "RegionCode": "SANG",
    "State": "Maharashtra",
    "SubRegionCode": "SANG",
    "VenueAddress": "3rd Floor, SFC Mega Mall, Station Road, Sangli, Maharashtra 416416, India",
    "VenueCode": "MAFC",
    "VenueName": "Mukta A2 Cinemas: SFC Mega Mall, Sangli"
  },
  "MAJU": {
    "AvailableFormats": "2D",
    "City": "Bhusawal",
    "Latitude": "21.0482",
    "Longitude": "75.7777",
    "RegionCode": "BHUS",
    "State": "Maharashtra",
    "SubRegionCode": "BHUS",
    "VenueAddress": "Juna Satara, Mahatma Fule Nagar, Mamaji Talkies Road, Bhusawal, Maharashtra 425201, India",
    "VenueCode": "MAJU",
    "VenueName": "Shree Mamaji Talkies: Bhusawal"
  },
  "MARS": {
    "AvailableFormats": "2D",
    "City": "Sarsiwa",
    "Latitude": "21.6194",
    "Longitude": "82.9572",
    "RegionCode": "SARS",
    "State": "Chhattisgarh",
    "SubRegionCode": "SARS",
    "VenueAddress": "Marko cineplex, Near Maruti Petroleum, Tilaipali, Sarsiwa, Chhattisgarh 493559, India",
    "VenueCode": "MARS",
    "VenueName": "Marko Cineplex: Sarsiwa"
  },
  "MAXX": {
    "AvailableFormats": "2D",
    "City": "Sonipat",
    "Latitude": "29.004",
    "Longitude": "77.0332",
    "RegionCode": "RAIH",
    "State": "Haryana",
    "SubRegionCode": "RAIH",
    "VenueAddress": "3rd Floor MG Mall, Sector 14, Sonipat, Haryana 131001, India",
    "VenueCode": "MAXX",
    "VenueName": "Maxx Cinema: Sonipat"
  },
  "MBKR": {
    "AvailableFormats": "2D",
    "City": "Khariar Road",
    "Latitude": "20.8599",
    "Longitude": "82.5139",
    "RegionCode": "KHRR",
    "State": "Odisha",
    "SubRegionCode": "KHRR",
    "VenueAddress": "Dumerpani, Nandapur, Khariar Road, Odisha 766104, India",
    "VenueCode": "MBKR",
    "VenueName": "MB Cinema: Khariar Road"
  },
  "MCBG": {
    "AvailableFormats": "2D|3D",
    "City": "Balaghat",
    "Latitude": "21.8173",
    "Longitude": "80.1916",
    "RegionCode": "BLGT",
    "State": "Madhya Pradesh",
    "SubRegionCode": "BLGT",
    "VenueAddress": "Kalptaru Mall, Chitragupt Nagar, Near Mahavir Chowk, Balaghat, Madhya Pradesh 481001, India",
    "VenueCode": "MCBG",
    "VenueName": "Miraj Cinemas: Balaghat"
  },
  "MCDA": {
    "AvailableFormats": "2D",
    "City": "Dalli Rajhara",
    "Latitude": "20.5958",
    "Longitude": "81.0725",
    "RegionCode": "DALL",
    "State": "Chhattisgarh",
    "SubRegionCode": "DALL",
    "VenueAddress": "Chiklakasa, Durga Dalli Rajhara Road, Near Chikhlakasa Petrol Pump, Dalli Rajhara, Chhattisgarh 491228, India",
    "VenueCode": "MCDA",
    "VenueName": "Mathur Cineplex: Dalli Rajhara"
  },
  "MCGN": {
    "AvailableFormats": "3D|2D",
    "City": "Gurugram (Gurgaon)",
    "Latitude": "28.4274",
    "Longitude": "77.0361",
    "RegionCode": "NCR",
    "State": "NCR",
    "SubRegionCode": "GURG",
    "VenueAddress": "4th Floor, Celebration Mall, Sohna Road, Sector 48, Gurugram (Gurgaon), NCR 122001, India",
    "VenueCode": "MCGN",
    "VenueName": "Movietime Cinemas: Celebration Mall, Gurgaon"
  },
  "MCIK": {
    "AvailableFormats": "2D",
    "City": "Kochi",
    "Latitude": "10.0799",
    "Longitude": "76.2704",
    "RegionCode": "PALY",
    "State": "Kerala",
    "SubRegionCode": "PALY",
    "VenueAddress": "Chettibhagam Main Rd, Varapuzha, Near Christ The King Roman Catholic Church, Kochi, Kerala 683517, India",
    "VenueCode": "MCIK",
    "VenueName": "M Cinemas 4K 3D Dolby ATMOS: Varapuzha"
  },
  "MCKT": {
    "AvailableFormats": "",
    "City": "Hyderabad",
    "FirstTracked": "2026-07-14",
    "Latitude": "17.3696",
    "Longitude": "78.5396",
    "RegionCode": "HYD",
    "State": "Telangana",
    "SubRegionCode": "HYD",
    "VenueAddress": "Laxmi Nagar Colony, Kothapet Road, Near Axis Bank, Hyderabad, Telangana 500102, India",
    "VenueCode": "MCKT",
    "VenueName": "Mahalaxmi Complex: Kothapet"
  },
  "MCNE": {
    "AvailableFormats": "2D|3D",
    "City": "Mumbai",
    "Latitude": "18.9375",
    "Longitude": "72.8336",
    "RegionCode": "MUMBAI",
    "State": "Maharashtra",
    "SubRegionCode": "MCENT",
    "VenueAddress": "24, A K Nayak Marg, Near VT Station, Azad Maidan, Fort, Near Central Bank Of India, Mumbai, Maharashtra 400001, India",
    "VenueCode": "MCNE",
    "VenueName": "Mukta A2 Cinemas: New Excelsior, Fort"
  },
  "MCSA": {
    "AvailableFormats": "2D",
    "City": "Atpadi",
    "Latitude": "17.4277",
    "Longitude": "74.9392",
    "RegionCode": "ATPA",
    "State": "Maharashtra",
    "SubRegionCode": "ATPA",
    "VenueAddress": "Theater Chowk, Pandharpur Road, Opposite Parvati Lodge, Atpadi, Maharashtra 415301, India",
    "VenueCode": "MCSA",
    "VenueName": "Shri Siddanath Chitra Mandir: Atpadi"
  },
  "MCTC": {
    "AvailableFormats": "2D",
    "City": "Coimbatore",
    "Latitude": "11.0776",
    "Longitude": "76.9419",
    "RegionCode": "COIM",
    "State": "Tamil Nadu",
    "SubRegionCode": "COIM",
    "VenueAddress": "Mettupalayam Road, Cheran Colony, Thudiyalur, Near Raj Driving School, Coimbatore, Tamil Nadu 641034, India",
    "VenueCode": "MCTC",
    "VenueName": "Murugan Cinemas A/C 4K Atmos: Thudiyalur"
  },
  "MCXE": {
    "AvailableFormats": "2D",
    "City": "Erandol",
    "Latitude": "20.9247",
    "Longitude": "75.3321",
    "RegionCode": "JALG",
    "State": "Maharashtra",
    "SubRegionCode": "JALG",
    "VenueAddress": "Mahasawad Naka, Onkaro Jadhav Nagar, Erandol, Maharashtra 425109, India",
    "VenueCode": "MCXE",
    "VenueName": "Morya Cineplex: Erandol"
  },
  "MDKI": {
    "AvailableFormats": "2D",
    "City": "Bengaluru",
    "Latitude": "12.9157",
    "Longitude": "77.5632",
    "RegionCode": "HOKT",
    "State": "Karnataka",
    "SubRegionCode": "HOKT",
    "VenueAddress": "Subramanyapura Main Road, Padmanabhanagar, Near Kadirenahalli Outer Ring Road Junction, Behind The Bangalore City Co-operative Bank Ltd (Padmanabhanagar Branch), 6th Cross, Banashankari 2nd Stage, Ben",
    "VenueCode": "MDKI",
    "VenueName": "Mahadeshwara Cinema 4K Dolby ATMOS AC Banashankari"
  },
  "MEMB": {
    "AvailableFormats": "2D",
    "City": "Baddi",
    "Latitude": "30.9255",
    "Longitude": "76.7993",
    "RegionCode": "BADD",
    "State": "Himachal Pradesh",
    "SubRegionCode": "BADD",
    "VenueAddress": "Motia Plaza, Barotiwala Road, Baddi, Himachal Pradesh 173205, India",
    "VenueCode": "MEMB",
    "VenueName": "Maurice Multiplex: Baddi"
  },
  "MFCP": {
    "AvailableFormats": "2D",
    "City": "Pattambi",
    "Latitude": "10.8044",
    "Longitude": "76.1948",
    "RegionCode": "PTMB",
    "State": "Kerala",
    "SubRegionCode": "PTMB",
    "VenueAddress": "Magic Frames, Vadakumuri, Pattambi, Kerala 679303, India",
    "VenueCode": "MFCP",
    "VenueName": "Magic Frames Cinemas 4K Laser 3D Atmos: Pattambi"
  },
  "MHKT": {
    "AvailableFormats": "2D",
    "City": "Kanpur",
    "Latitude": "26.4673",
    "Longitude": "80.3172",
    "RegionCode": "KANP",
    "State": "Uttar Pradesh",
    "SubRegionCode": "KANP",
    "VenueAddress": "1st Floor Ratan Himachal Mall Ghumti No-5, Naseemabad Road, Kaushalpuri Darshan Purwa, Kanpur, Uttar Pradesh 208012, India",
    "VenueCode": "MHKT",
    "VenueName": "Movietime Cinemas: Ratan Himachal Mall, Kanpur"
  },
  "MIRN": {
    "AvailableFormats": "2D|3D",
    "City": "Nandurbar",
    "Latitude": "21.3537",
    "Longitude": "74.2424",
    "RegionCode": "NDNB",
    "State": "Maharashtra",
    "SubRegionCode": "NDNB",
    "VenueAddress": "Nandurbar Business Centre, S. No 387/2, Surat Bypass Road, Nandurbar, Maharashtra 425412, India",
    "VenueCode": "MIRN",
    "VenueName": "Miraj Cinemas: NBC, Nandurbar"
  },
  "MJMM": {
    "AvailableFormats": "",
    "City": "Gurugram (Gurgaon)",
    "Latitude": "28.4793",
    "Longitude": "77.0829",
    "RegionCode": "NCR",
    "State": "NCR",
    "SubRegionCode": "GURG",
    "VenueAddress": "2nd Floor, MGF Metropolis Mall, Near MG Metro Station, Mehrauli-Gurgaon Road, Sector 28, Gurugram (Gurgaon), NCR 122002, India",
    "VenueCode": "MJMM",
    "VenueName": "Miraj Maximum: Metropollis Mall, Gurgaon"
  },
  "MKSB": {
    "AvailableFormats": "3D|2D",
    "City": "Surat",
    "Latitude": "21.1504",
    "Longitude": "72.822",
    "RegionCode": "SURT",
    "State": "Gujarat",
    "SubRegionCode": "SURT",
    "VenueAddress": "KSB Olympia Mall, Block No 171 Kailash Chowkdi, Near D-mart,  Althan-Bamroli BRTS Road, Bamroli, Surat, Gujarat 394221, India",
    "VenueCode": "MKSB",
    "VenueName": "Miraj Cinemas: KSB Olympia, Surat"
  },
  "MLMT": {
    "AvailableFormats": "2D|3D",
    "City": "Tiruvallur",
    "Latitude": "13.1159",
    "Longitude": "79.9095",
    "RegionCode": "TRVL",
    "State": "Tamil Nadu",
    "SubRegionCode": "TRVL",
    "VenueAddress": "State Highway 57, Tiruvallur, Tiruvallur, Tamil Nadu 602003, India",
    "VenueCode": "MLMT",
    "VenueName": "Marvel Movie Max 4K Laser Dolby Atmos: Tiruvallur"
  },
  "MMCV": {
    "AvailableFormats": "2D",
    "City": "Mumbai",
    "Latitude": "19.4712",
    "Longitude": "72.8363",
    "RegionCode": "MUMBAI",
    "State": "Maharashtra",
    "SubRegionCode": "MWEST",
    "VenueAddress": "1st Floor, Gala No 2,Riddhi Siddhi Industrial Complex, Chandansar, Virar East, Palghar, Mumbai, Maharashtra 401303, India",
    "VenueCode": "MMCV",
    "VenueName": "Movie Max V Cinema: Virar (E)"
  },
  "MMLB": {
    "AvailableFormats": "",
    "City": "Bareilly",
    "FirstTracked": "2026-07-14",
    "Latitude": "28.3485",
    "Longitude": "79.4179",
    "RegionCode": "BARE",
    "State": "Uttar Pradesh",
    "SubRegionCode": "BARE",
    "VenueAddress": "98, Civil Lines, Bareilly, Uttar Pradesh 243001, India",
    "VenueCode": "MMLB",
    "VenueName": "MovieMax City Centre LA Mall: Bareilly"
  },
  "MMPR": {
    "AvailableFormats": "",
    "City": "Chennai",
    "FirstTracked": "2026-07-14",
    "Latitude": "13.1017",
    "Longitude": "80.2747",
    "RegionCode": "CHEN",
    "State": "Tamil Nadu",
    "SubRegionCode": "CHEN",
    "VenueAddress": "PR MAll, Prince Ratnapuri Garden residency, New No. 29, Old No. 16, Wall Tax Road, Kondithope, George Town, Chennai, Tamil Nadu 600001, India",
    "VenueCode": "MMPR",
    "VenueName": "MovieMax: PR Mall, Wall Tax Road, Chennai"
  },
  "MMVI": {
    "AvailableFormats": "2D",
    "City": "Irinjalakuda",
    "Latitude": "10.3507",
    "Longitude": "76.2139",
    "RegionCode": "THSR",
    "State": "Kerala",
    "SubRegionCode": "THSR",
    "VenueAddress": "Njavarikulam Road, Irinjalakuda, Near Chembakassery MultiMall, Irinjalakuda, Kerala 680121, India",
    "VenueCode": "MMVI",
    "VenueName": "Mas Movies Irinjalakuda"
  },
  "MNCA": {
    "AvailableFormats": "2D",
    "City": "Chhatrapati Sambhajinagar (Aurangabad)",
    "Latitude": "19.8883",
    "Longitude": "75.3334",
    "RegionCode": "AURA",
    "State": "Maharashtra",
    "SubRegionCode": "AURA",
    "VenueAddress": "Sarafa Road, Sarafa Bazar, Shahgunj, Chhatrapati Sambhaji Nagar, Chhatrapati Sambhajinagar (Aurangabad), Maharashtra 431001, India",
    "VenueCode": "MNCA",
    "VenueName": "MohanNova Cinemaz: Chhatrapati SambhajiNagar"
  },
  "MNTG": {
    "AvailableFormats": "",
    "City": "Gangavati",
    "FirstTracked": "2026-07-14",
    "Latitude": "15.433454",
    "Longitude": "76.52679",
    "RegionCode": "GAVT",
    "State": "Karnataka",
    "SubRegionCode": "GAVT",
    "VenueAddress": "SH 29, Vidya Nagar, Near Sri Raksha Enterprises, Gangavati, Karnataka 583227, India",
    "VenueCode": "MNTG",
    "VenueName": "Amar Talkies: Gangavati"
  },
  "MRAD": {
    "AvailableFormats": "",
    "City": "Hyderabad",
    "Latitude": "17.3842",
    "Longitude": "78.3601",
    "RegionCode": "HYD",
    "State": "Telangana",
    "SubRegionCode": "HYD",
    "VenueAddress": "Anand Mall and Movies, Narsingi Village, Hyderabad, Telangana 500075, India",
    "VenueCode": "MRAD",
    "VenueName": "Miraj Cinemas: Anand Mall and Movies, Narsingi"
  },
  "MRIY": {
    "AvailableFormats": "2D",
    "City": "Trichy",
    "Latitude": "10.7984",
    "Longitude": "78.7042",
    "RegionCode": "TRIC",
    "State": "Tamil Nadu",
    "SubRegionCode": "TRIC",
    "VenueAddress": "No-228/1, Sangiliyandapuram Main Road, Trichy, Tamil Nadu 620001, India",
    "VenueCode": "MRIY",
    "VenueName": "Mariyam Cinemas A/C 4K: Trichy"
  },
  "MSAA": {
    "AvailableFormats": "",
    "City": "Amravati",
    "FirstTracked": "2026-07-14",
    "Latitude": "20.899939",
    "Longitude": "77.748405",
    "RegionCode": "AMRA",
    "State": "Maharashtra",
    "SubRegionCode": "AMRA",
    "VenueAddress": "Gopal Nagar Square, Badnera Road, Amravati, Maharashtra 444607, India",
    "VenueCode": "MSAA",
    "VenueName": "7D Masti: Tapadia City Center, Amravati"
  },
  "MSMC": {
    "AvailableFormats": "2D",
    "City": "Biaora",
    "Latitude": "23.927",
    "Longitude": "76.9134",
    "RegionCode": "BIAR",
    "State": "Madhya Pradesh",
    "SubRegionCode": "BIAR",
    "VenueAddress": "NH2, Old AB Road, Krishna Puram Colony, Biaora, Madhya Pradesh 465674, India",
    "VenueCode": "MSMC",
    "VenueName": "MSM Cineplex: Biaora"
  },
  "MTBO": {
    "AvailableFormats": "2D",
    "City": "Berhampore",
    "Latitude": "24.0903",
    "Longitude": "88.2503",
    "RegionCode": "BEHA",
    "State": "West Bengal",
    "SubRegionCode": "BEHA",
    "VenueAddress": "22 Sahid Surya Sen Road, Murshidabad, Berhampore, West Bengal 742101, India",
    "VenueCode": "MTBO",
    "VenueName": "Mohan Talkies: Berhampore"
  },
  "MTGG": {
    "AvailableFormats": "2D",
    "City": "Gangavati",
    "Latitude": "15.4327",
    "Longitude": "76.528",
    "RegionCode": "GAVT",
    "State": "Karnataka",
    "SubRegionCode": "GAVT",
    "VenueAddress": "Gandhi Chowk, Vidya Nagar, M.G. Road, Gangavati, Karnataka 583227, India",
    "VenueCode": "MTGG",
    "VenueName": "Mohiuddin Talkies: Gangavati"
  },
  "MTMA": {
    "AvailableFormats": "3D|2D",
    "City": "Mumbai",
    "Latitude": "19.1892",
    "Longitude": "72.8349",
    "RegionCode": "MUMBAI",
    "State": "Maharashtra",
    "SubRegionCode": "MWEST",
    "VenueAddress": "Jagdamba Commercial Complex, Besides Sai Palace Grand, Link Road, Evershine Nagar, Malad West, Mumbai, Maharashtra 400064, India",
    "VenueCode": "MTMA",
    "VenueName": "MOVIETIME: MALAD (WEST)"
  },
  "MTSC": {
    "AvailableFormats": "3D|2D",
    "City": "Mumbai",
    "Latitude": "19.0283",
    "Longitude": "72.8442",
    "RegionCode": "MUMBAI",
    "State": "Maharashtra",
    "SubRegionCode": "MCENT",
    "VenueAddress": "Bijlee Barkha Complex, Junction of Manmala Tank Road, Taikalwadi Road, Matunga(W), Near Maharashtra Municipal School, Mumbai, Maharashtra 400016, India",
    "VenueCode": "MTSC",
    "VenueName": "Movietime Star City: Matunga (W)"
  },
  "MUPX": {
    "AvailableFormats": "2D",
    "City": "Mahalingpur",
    "Latitude": "16.3903",
    "Longitude": "75.1067",
    "RegionCode": "MAGP",
    "State": "Karnataka",
    "SubRegionCode": "MAGP",
    "VenueAddress": "CMC No:880/1, Near Neelakanteshwara Temple, Mahalingpur, Karnataka 587312, India",
    "VenueCode": "MUPX",
    "VenueName": "Smart Moviz (Maruthi Cineplex): Mahalingpur"
  },
  "MVSK": {
    "AvailableFormats": "",
    "City": "Ahmedabad",
    "Latitude": "22.9926",
    "Longitude": "72.3694",
    "RegionCode": "AHD",
    "State": "Gujarat",
    "SubRegionCode": "AHD",
    "VenueAddress": "Vardhman Square, 3rd Floor, Sanand, Ahmedabad, Gujarat 382110, India",
    "VenueCode": "MVSK",
    "VenueName": "Miraj Cinemas: Vardhman Square, Sanand"
  },
  "MXGN": {
    "AvailableFormats": "2D",
    "City": "Noida",
    "Latitude": "28.5085",
    "Longitude": "77.3871",
    "RegionCode": "NCR",
    "State": "NCR",
    "SubRegionCode": "NOIDA",
    "VenueAddress": "MovieMax Gulshan One 29 Mall C-3, Sector 129, Noida, NCR 201301, India",
    "VenueCode": "MXGN",
    "VenueName": "MovieMax Laserplex: Gulshan One 29 Mall, Noida"
  },
  "MYDC": {
    "AvailableFormats": "2D",
    "City": "Doimukh",
    "Latitude": "27.1454",
    "Longitude": "93.7539",
    "RegionCode": "MDHK",
    "State": "Arunachal Pradesh",
    "SubRegionCode": "MDHK",
    "VenueAddress": "M.Y. Digital Cinema Hall, Opposite - Main Market, Doimukh, Arunachal Pradesh 791112, India",
    "VenueCode": "MYDC",
    "VenueName": "MY Digital Cinema: Doimukh"
  },
  "NACM": {
    "AvailableFormats": "",
    "City": "Mullanpur",
    "FirstTracked": "2026-07-14",
    "Latitude": "30.844576",
    "Longitude": "75.67572",
    "RegionCode": "MULL",
    "State": "Punjab",
    "SubRegionCode": "MULL",
    "VenueAddress": "On Cinema Road,opposite Harjindra Cinema, Mandi Mullanpur, Mullanpur, Punjab 141101, India",
    "VenueCode": "NACM",
    "VenueName": "4G Nova Cinemaz: Mullanpur"
  },
  "NCAM": {
    "AvailableFormats": "",
    "City": "Ratlam",
    "FirstTracked": "2026-07-14",
    "Latitude": "23.332882",
    "Longitude": "75.05844",
    "RegionCode": "RATL",
    "State": "Madhya Pradesh",
    "SubRegionCode": "RATL",
    "VenueAddress": "Anand Big Mall, Dmart Road, Bypass Road, Near Midtown Township, Ratlam, Madhya Pradesh 457001, India",
    "VenueCode": "NCAM",
    "VenueName": "NY Cinemas: Anand Big Mall, Ratlam"
  },
  "NCJN": {
    "AvailableFormats": "2D",
    "City": "Jalna",
    "Latitude": "19.8446",
    "Longitude": "75.8953",
    "RegionCode": "JALN",
    "State": "Maharashtra",
    "SubRegionCode": "JALN",
    "VenueAddress": "Lokhandi Pool Road, Sangram Nagar, Rahman Ganj, Jalna, Maharashtra 431203, India",
    "VenueCode": "NCJN",
    "VenueName": "Natraj Cinema: Jalna"
  },
  "NCUK": {
    "AvailableFormats": "2D",
    "City": "Kanpur",
    "Latitude": "26.4647",
    "Longitude": "80.3463",
    "RegionCode": "KANP",
    "State": "Uttar Pradesh",
    "SubRegionCode": "KANP",
    "VenueAddress": "77/151, Latouche Road, Khoya Bazar, Mulganj, Kanpur, Uttar Pradesh 208001, India",
    "VenueCode": "NCUK",
    "VenueName": "Novelty Cinema: Kanpur"
  },
  "NEWS": {
    "AvailableFormats": "2D",
    "City": "Bhawanipatna",
    "Latitude": "19.9265",
    "Longitude": "83.1518",
    "RegionCode": "BHAW",
    "State": "Odisha",
    "SubRegionCode": "BHAW",
    "VenueAddress": "Bhawanipatna - Raipur Highway, Parmanandapur, Opposite of OMFED Dairy, Bhawanipatna, Odisha 766002, India",
    "VenueCode": "NEWS",
    "VenueName": "New Star Cineplex: Bhawanipatna"
  },
  "NKCP": {
    "AvailableFormats": "2D",
    "City": "Jodhpur",
    "Latitude": "26.2772",
    "Longitude": "72.9952",
    "RegionCode": "JODH",
    "State": "Rajasthan",
    "SubRegionCode": "JODH",
    "VenueAddress": "6th Upper Chopasni Road, Akhaliya Vikas Yojana, Choraha, Jodhpur, Rajasthan 342001, India",
    "VenueCode": "NKCP",
    "VenueName": "New Kohinoor Cinema: Jodhpur"
  },
  "NMNH": {
    "AvailableFormats": "2D",
    "City": "Neemuch",
    "Latitude": "24.457",
    "Longitude": "74.8711",
    "RegionCode": "NMCH",
    "State": "Madhya Pradesh",
    "SubRegionCode": "NMCH",
    "VenueAddress": "Patel Plaza, Tagore Marg, Neemuch, Madhya Pradesh 458441, India",
    "VenueCode": "NMNH",
    "VenueName": "Neemuch Multiplex: Patel Plaza"
  },
  "NOVX": {
    "AvailableFormats": "",
    "City": "Dhaulana",
    "FirstTracked": "2026-07-14",
    "Latitude": "28.62876",
    "Longitude": "77.65731",
    "RegionCode": "DHAL",
    "State": "Uttar Pradesh",
    "SubRegionCode": "DHAL",
    "VenueAddress": "Near Nav Uday Public school, Dhaulana, Dhaulana, Uttar Pradesh 245301, India",
    "VenueCode": "NOVX",
    "VenueName": "Novaplex: Dhaulana"
  },