{
  "AACN": {
    "AvailableFormats": "2D",
    "City": "Hyderabad",
    "Latitude": "17.4669",
    "Longitude": "78.3104",
    "RegionCode": "HYD",
    "State": "Telangana",
    "SubRegionCode": "HYD",
    "VenueAddress": "Nallagandla Road, HUDA Layout, Hyderabad, Telangana 500019, India",
    "VenueCode": "AACN",
    "VenueName": "Aparna Cinemas: Nallagandla"
  },
  "AAST": {
    "AvailableFormats": "2D",
    "City": "Tenali",
    "Latitude": "16.2404",
    "Longitude": "80.6428",
    "RegionCode": "TENA",
    "State": "Andhra Pradesh",
    "SubRegionCode": "TENA",
    "VenueAddress": "Railway Station Road, Balajirao Pet, Tenali, Andhra Pradesh 522201, India",
    "VenueCode": "AAST",
    "VenueName": "Asha Cinemas: Tenali"
  },
  "ABDD": {
    "AvailableFormats": "2D|3D",
    "City": "Durgapur",
    "Latitude": "23.5563",
    "Longitude": "87.2745",
    "RegionCode": "DURGA",
    "State": "West Bengal",
    "SubRegionCode": "DURGA",
    "VenueAddress": "Fortune Plaza, 5th Floor, Ananda Gopal Mukherjee Sarani Road, Above Reliance Digital, Near Bhiringi Kali Mandir, Benachity, Durgapur, West Bengal 713213, India",
    "VenueCode": "ABDD",
    "VenueName": "Arti Cinemas, above Pantaloons: Benachity"
  },
  "ACAS": {
    "AvailableFormats": "2D",
    "City": "Hyderabad",
    "Latitude": "17.4371",
    "Longitude": "78.4486",
    "RegionCode": "HYD",
    "State": "Telangana",
    "SubRegionCode": "HYD",
    "VenueAddress": "Asian Allu Arjun Cinemas, Satyam Theatre Road, X Road Kumar Basti, Ameerpet, Hyderabad, Telangana 500082, India",
    "VenueCode": "ACAS",
    "VenueName": "AAA Cinemas: Ameerpet"
  },
  "ACGA": {
    "AvailableFormats": "2D",
    "City": "Guwahati",
    "Latitude": "26.1839",
    "Longitude": "91.7825",
    "RegionCode": "GUW",
    "State": "Assam",
    "SubRegionCode": "GUW",
    "VenueAddress": "Bamachal Road, West Jyotinagar, Bamunimaidan, Guwahati, Assam 781021, India",
    "VenueCode": "ACGA",
    "VenueName": "Anuradha Cineplex: Guwahati"
  },
  "ACKL": {
    "AvailableFormats": "2D",
    "City": "Khila",
    "Latitude": "22.6733",
    "Longitude": "88.0003",
    "RegionCode": "KHIL",
    "State": "West Bengal",
    "SubRegionCode": "KHIL",
    "VenueAddress": "Udaynarayanpur, Munshirhat Road, Khila, West Bengal 711410, India",
    "VenueCode": "ACKL",
    "VenueName": "Aparupa Cinema: Khila"
  },
  "ACNC": {
    "AvailableFormats": "2D",
    "City": "Vadakara",
    "Latitude": "11.5998",
    "Longitude": "75.5859",
    "RegionCode": "VDKR",
    "State": "Kerala",
    "SubRegionCode": "VDKR",
    "VenueAddress": "Main Road Vadakara, Badagara, Vadakara, Near Taluk Office Vadakara, Vadakara, Kerala 673101, India",
    "VenueCode": "ACNC",
    "VenueName": "Ashok CNC 4K Dolby Atmos Tripple Beam 3D: Vadakara"
  },
  "ACSK": {
    "AvailableFormats": "2D",
    "City": "Shindkheda",
    "Latitude": "21.2726",
    "Longitude": "74.7454",
    "RegionCode": "SHDK",
    "State": "Maharashtra",
    "SubRegionCode": "SHDK",
    "VenueAddress": "Station Road, Near Bus Stand, Shindkheda, Maharashtra 425406, India",
    "VenueCode": "ACSK",
    "VenueName": "Ashok Chitramandir: Shindkheda"
  },
  "ACXN": {
    "AvailableFormats": "2D",
    "City": "Nellimoodu",
    "Latitude": "8.38241",
    "Longitude": "77.04",
    "RegionCode": "TRIV",
    "State": "Kerala",
    "SubRegionCode": "TRIV",
    "VenueAddress": "Vizhinjam, Uchakkada Road, Nellimoodu, Kerala 695524, India",
    "VenueCode": "ACXN",
    "VenueName": "Anu Cinemax 4K Atmos: Neyyattinkara, Nellimoodu"
  },
  "AEST": {
    "AvailableFormats": "2D",
    "City": "Satna",
    "Latitude": "24.5809",
    "Longitude": "80.7732",
    "RegionCode": "SATN",
    "State": "Madhya Pradesh",
    "SubRegionCode": "SATN",
    "VenueAddress": "Chandi Dai Temple Road Karhi, Satdhar, Near Bharat Petroleum, Satna, Madhya Pradesh 485441, India",
    "VenueCode": "AEST",
    "VenueName": "A - 4 Entertainment: Satna"
  },
  "AICM": {
    "AvailableFormats": "2D",
    "City": "Madurai",
    "Latitude": "9.92601",
    "Longitude": "78.121",
    "RegionCode": "MADU",
    "State": "Tamil Nadu",
    "SubRegionCode": "MADU",
    "VenueAddress": "Thirumalairayar Padithurai Road, Simmakkal, Madurai Main, Near Sivan Temple, Madurai, Tamil Nadu 625001, India",
    "VenueCode": "AICM",
    "VenueName": "Annamalai Cinemas A/C 4K: Madurai"
  },
  "AKRC": {
    "AvailableFormats": "2D",
    "City": "Kundli",
    "Latitude": "28.8879",
    "Longitude": "77.1178",
    "RegionCode": "RAIH",
    "State": "NCR",
    "SubRegionCode": "RAIH",
    "VenueAddress": "3rd Floor, TDI Mall, Sonipat, Kundli, NCR 131101, India",
    "VenueCode": "AKRC",
    "VenueName": "AKR Cinemas,TDI Mall: Kundli"
  },
  "ALPC": {
    "AvailableFormats": "2D",
    "City": "Bhopal",
    "Latitude": "23.2648",
    "Longitude": "77.4101",
    "RegionCode": "BHOP",
    "State": "Madhya Pradesh",
    "SubRegionCode": "BHOP",
    "VenueAddress": "Hamidia Road, Railway Colony, Near Railway Station, Bhopal, Madhya Pradesh 460160, India",
    "VenueCode": "ALPC",
    "VenueName": "Alpana Air-Cooled Cineplex: Bhopal"
  },
  "AMCD": {
    "AvailableFormats": "2D",
    "City": "Delhi",
    "Latitude": "28.6774",
    "Longitude": "77.2012",
    "RegionCode": "NCR",
    "State": "NCR",
    "SubRegionCode": "DELHI",
    "VenueAddress": "GT Road, Ghanta Ghar, Subzi Mandi, Block 40, Shakti Nagar, Near Clock Tower, Delhi, NCR 110007, India",
    "VenueCode": "AMCD",
    "VenueName": "Amba Cinema: Delhi"
  },
  "AMLC": {
    "AvailableFormats": "2D",
    "City": "Barrackpore",
    "Latitude": "22.7672",
    "Longitude": "88.3832",
    "RegionCode": "BARR",
    "State": "West Bengal",
    "SubRegionCode": "BARR",
    "VenueAddress": "82, Barrackpore - Barasat Road, Barrackpore, Barrackpore, West Bengal 700122, India",
    "VenueCode": "AMLC",
    "VenueName": "Amala Cinema: Barrackpore"
  },
  "AMTI": {
    "AvailableFormats": "2D",
    "City": "Kosamba",
    "Latitude": "21.4683",
    "Longitude": "72.9535",
    "RegionCode": "KOSA",
    "State": "Gujarat",
    "SubRegionCode": "KOSA",
    "VenueAddress": "V S Patel Road, Shraddha, Opposite Ambedkar Statue, Tarsadi, Kosamba, Gujarat 394120, India",
    "VenueCode": "AMTI",
    "VenueName": "Amisha Miniplex: Tarsadi"
  },
  "ANCN": {
    "AvailableFormats": "2D",
    "City": "Khategaon",
    "Latitude": "22.5896",
    "Longitude": "76.9259",
    "RegionCode": "KTEG",
    "State": "Madhya Pradesh",
    "SubRegionCode": "KTEG",
    "VenueAddress": "Hotel Shri Sundaram and Marriage Garden, Anjana Cinema Parisar, Nemawar Road, In Front of Petrol Pump, Khategaon, Madhya Pradesh 455336, India",
    "VenueCode": "ANCN",
    "VenueName": "Anjana Cinema: Khategaon"
  },
  "ANST": {
    "AvailableFormats": "2D",
    "City": "Sangareddy",
    "Latitude": "17.3712",
    "Longitude": "78.0502",
    "RegionCode": "SARE",
    "State": "Telangana",
    "SubRegionCode": "SARE",
    "VenueAddress": "Sitara Theatre Road, Veerabhadra Nagar, Near Bismilla Masjid, Sangareddy, Telangana 502001, India",
    "VenueCode": "ANST",
    "VenueName": "Asian Nithin Sitara: Sangareddy"
  },
  "APCL": {
    "AvailableFormats": "2D",
    "City": "Ahmedabad",
    "Latitude": "23.0388",
    "Longitude": "72.6286",
    "RegionCode": "AHD",
    "State": "Gujarat",
    "SubRegionCode": "AHD",
    "VenueAddress": "3rd Floor, White House, India Colony Char Rasta, Bapunagar, Opposite Shyam Shikhar Complex, Ahmedabad, Gujarat 380024, India",
    "VenueCode": "APCL",
    "VenueName": "Apple Cinema: Bapunagar"
  },
  "APRC": {
    "AvailableFormats": "2D|3D",
    "City": "Gaya",
    "Latitude": "24.7915",
    "Longitude": "84.9997",
    "RegionCode": "GAYA",
    "State": "Bihar",
    "SubRegionCode": "GAYA",
    "VenueAddress": "APR City Centre Mall, Rai Kasinath More, Near Gandhi Maidan, Gaya, Bihar 823001, India",
    "VenueCode": "APRC",
    "VenueName": "APR Cinemas (Dolby Atmos, Christie Laser): Gaya"
  },
  "ARAN": {
    "AvailableFormats": "2D",
    "City": "Mundra",
    "Latitude": "22.839",
    "Longitude": "69.7051",
    "RegionCode": "MUDA",
    "State": "Gujarat",
    "SubRegionCode": "MUDA",
    "VenueAddress": "1St Floor, P.No.4/2562, Om Orbit Shopping Mall, Vill.Nana Kapaya, Tal.Mundra, Kutch, Mundra, Gujarat 370421, India",
    "VenueCode": "ARAN",
    "VenueName": "Aradhaya Nova Cinemaz: Mundra"
  },
  "ARMH": {
    "AvailableFormats": "2D",
    "City": "Hyderabad",
    "Latitude": "17.4767",
    "Longitude": "78.5632",
    "RegionCode": "HYD",
    "State": "Telangana",
    "SubRegionCode": "HYD",
    "VenueAddress": "Anupuram Colony, Dr A S Rao Nagar Road, ECIL Main Road, Near Parivaar Banquet Halls, Hyderabad, Telangana 500062, India",
    "VenueCode": "ARMH",
    "VenueName": "Asian Radhika Multiplex: ECIL"
  },
  "ASBL": {
    "AvailableFormats": "2D",
    "City": "Siddipet",
    "Latitude": "18.1039",
    "Longitude": "78.8569",
    "RegionCode": "SDDP",
    "State": "Telangana",
    "SubRegionCode": "SDDP",
    "VenueAddress": "Srinivas Nagar, Siddipet - Karimnagar Road, Siddipet, Telangana 502103, India",
    "VenueCode": "ASBL",
    "VenueName": "Asian Balaji 70MM A/C: Siddipet"
  },
  "ASHO": {
    "AvailableFormats": "2D",
    "City": "Kalwakurthy",
    "Latitude": "16.6669",
    "Longitude": "78.4934",
    "RegionCode": "ACHM",
    "State": "Telangana",
    "SubRegionCode": "ACHM",
    "VenueAddress": "Kalwakurthy Road, Vidya Nagar, Gandhi Nagar, Near Sri Amma Hospital, Kalwakurthy, Telangana 509324, India",
    "VenueCode": "ASHO",
    "VenueName": "Ashoka Cinema: Kalwakurthy"
  },
  "ASNT": {
    "AvailableFormats": "2D",
    "City": "Adilabad",
    "Latitude": "19.6748",
    "Longitude": "78.5315",
    "RegionCode": "ADIL",
    "State": "Telangana",
    "SubRegionCode": "ADIL",
    "VenueAddress": "Bhuktapur, Near IDBI Bank, Near Hanuman Temple, Adilabad, Telangana 504001, India",
    "VenueCode": "ASNT",
    "VenueName": "Asian Nataraj: Adilabad"
  },
  "ASTB": {
    "AvailableFormats": "2D",
    "City": "Bengaluru",
    "Latitude": "13.0807",
    "Longitude": "77.5011",
    "RegionCode": "HOKT",
    "State": "Karnataka",
    "SubRegionCode": "HOKT",
    "VenueAddress": "23, Chikkabanavara, Hesarghatta Main Rd, Near Chikkabanavara Circle, Bengaluru, Karnataka 560090, India",
    "VenueCode": "ASTB",
    "VenueName": "Ashoka Cinemas - Dolby Laser: Chikkabanavara"
  },
  "ATAS": {
    "AvailableFormats": "2D",
    "City": "Virudhunagar",
    "Latitude": "9.59006",
    "Longitude": "77.9557",
    "RegionCode": "VIRU",
    "State": "Tamil Nadu",
    "SubRegionCode": "VIRU",
    "VenueAddress": "Railway Feeder Road, Sivagami Puram, Virudhunagar, Tamil Nadu 626001, India",
    "VenueCode": "ATAS",
    "VenueName": "Apsara Theatre A/C 7.1 Surround System"
  },
  "ATMG": {
    "AvailableFormats": "2D",
    "City": "Chennai",
    "Latitude": "12.5051",
    "Longitude": "79.8799",
    "RegionCode": "CHEN",
    "State": "Tamil Nadu",
    "SubRegionCode": "CHEN",
    "VenueAddress": "National Highway Service Road, Maduranthakam, Tamil Nadu, Near Lake View Hotal, Chennai, Tamil Nadu 603306, India",
    "VenueCode": "ATMG",
    "VenueName": "Anand Theatre Madhuranthagam RGB LASER 4k"
  },
  "AUBB": {
    "AvailableFormats": "2D",
    "City": "Bhadrachalam",
    "Latitude": "17.6735",
    "Longitude": "80.8891",
    "RegionCode": "BHDR",
    "State": "Telangana",
    "SubRegionCode": "BHDR",
    "VenueAddress": "NH30, Bhadrachalam Rd, Ashok Nagar Colony, Bhadrachalam, Telangana 507111, India",
    "VenueCode": "AUBB",
    "VenueName": "Asian Uday Bhaskar: Bhadrachalam"
  },
  "AVSG": {
    "AvailableFormats": "2D",
    "City": "Ghazipur",
    "Latitude": "25.5728",
    "Longitude": "83.5633",
    "RegionCode": "GHAR",
    "State": "Uttar Pradesh",
    "SubRegionCode": "GHAR",
    "VenueAddress": "Above V-Mart Vidhya Complex, Bandhwa Pull, Near - Sichai Vibhag Choraha, Ghazipur, Uttar Pradesh 233001, India",
    "VenueCode": "AVSG",
    "VenueName": "AV Star Cinema: Ghazipur"
  },
  "AYCZ": {
    "AvailableFormats": "2D",
    "City": "Zarap",
    "Latitude": "15.9309",
    "Longitude": "73.756",
    "RegionCode": "ZARA",
    "State": "Maharashtra",
    "SubRegionCode": "ZAEA",
    "VenueAddress": "Zarap Zero Point, Kudal Sindhudurg, Near Nemale Bridge, Zarap, Maharashtra 416510, India",
    "VenueCode": "AYCZ",
    "VenueName": "Aaradhya Cinema: Sawantwadi, Zarap"
  },
  "BASK": {
    "AvailableFormats": "2D",
    "City": "Sivasagar",
    "Latitude": "26.953",
    "Longitude": "94.5718",
    "RegionCode": "SVSG",
    "State": "Assam",
    "SubRegionCode": "SVSG",
    "VenueAddress": "AT Road, Bhatiapar, Near Bhatiapar Petrol Pump, Sivasagar, Assam 785697, India",
    "VenueCode": "BASK",
    "VenueName": "Bhaskarjyoti Cinema: Sivasagar"
  },
  "BBYK": {
    "AvailableFormats": "2D",
    "City": "Kuthuparamba",
    "Latitude": "11.8299",
    "Longitude": "75.5639",
    "RegionCode": "KUTH",
    "State": "Kerala",
    "SubRegionCode": "KUTH",
    "VenueAddress": "Chovva Bypass Road, Kuthuparamba, Kuthuparamba, Kerala 670643, India",
    "VenueCode": "BBYK",
    "VenueName": "Baby Cinemas: Kuthuparamba"
  },
  "BDMA": {
    "AvailableFormats": "2D",
    "City": "Vijayawada",
    "Latitude": "16.5891",
    "Longitude": "80.5189",
    "RegionCode": "KADU",
    "State": "Andhra Pradesh",
    "SubRegionCode": "KADU",
    "VenueAddress": "NH 65, Ibrahimpatnam, Vijayawada, Andhra Pradesh 521456, India",
    "VenueCode": "BDMA",
    "VenueName": "Balaji Iconia A/c 2K Dolby Surround: Ibrahimpatnam"
  },
  "BHEL": {
    "AvailableFormats": "2D",
    "City": "Trichy",
    "Latitude": "10.7695",
    "Longitude": "78.7974",
    "RegionCode": "TRIC",
    "State": "Tamil Nadu",
    "SubRegionCode": "TRIC",
    "VenueAddress": "Kamarajapuram BHEL Township, BHEL Tiruchirappali Complex area,Thiruverumbur,Trichy, Near BHEL Training Center, Trichy, Tamil Nadu 620022, India",
    "VenueCode": "BHEL",
    "VenueName": "BHELEC Cinema A/C Dolby 7.1: Trichy"
  },
  "BJLC": {
    "AvailableFormats": "2D",
    "City": "Kolkata",
    "Latitude": "22.5269",
    "Longitude": "88.3459",
    "RegionCode": "KOLK",
    "State": "West Bengal",
    "SubRegionCode": "KOLK",
    "VenueAddress": "No.39, Shyama Prasad Mukherjee Road, Jatin Das Park, Patuapara, Bhawanipur, Kolkata, West Bengal 700025, India",
    "VenueCode": "BJLC",
    "VenueName": "Bijoli Cinema: Kolkata"
  },
  "BLLD": {
    "AvailableFormats": "2D",
    "City": "Nalbari",
    "Latitude": "26.4544",
    "Longitude": "91.4091",
    "RegionCode": "NALB",
    "State": "Assam",
    "SubRegionCode": "NALB",
    "VenueAddress": "Bella Luna Cinemas, Q Green Hotel 5th Floor, Haripur Highway, Nalbari, Assam 781340, India",
    "VenueCode": "BLLD",
    "VenueName": "Bella Luna Cinemas: Nalbari"
  },
  "BNBA": {
    "AvailableFormats": "2D",
    "City": "Dehradun",
    "Latitude": "30.3329",
    "Longitude": "78.054",
    "RegionCode": "DEH",
    "State": "Uttarakhand",
    "SubRegionCode": "DEH",
    "VenueAddress": "1 Old Survey Road, Crossroads Mall, Dehradun, Uttarakhand 248001, India",
    "VenueCode": "BNBA",
    "VenueName": "Movie Lounge: Crossroads Mall, Dehradun"
  },
  "BSCN": {
    "AvailableFormats": "2D",
    "City": "Nabha",
    "Latitude": "30.3918",
    "Longitude": "76.1195",
    "RegionCode": "NABH",
    "State": "Punjab",
    "SubRegionCode": "NABH",
    "VenueAddress": "Gulldi Gate, Nabha, Nabha-Malerkotla Road, Nabha, Punjab 147201, India",
    "VenueCode": "BSCN",
    "VenueName": "Balraj Cinemas: Nabha"
  },
  "BTDA": {
    "AvailableFormats": "2D",
    "City": "Acharapakkam",
    "Latitude": "12.4071",
    "Longitude": "79.8161",
    "RegionCode": "ACHA",
    "State": "Tamil Nadu",
    "SubRegionCode": "ACHA",
    "VenueAddress": "Periyar Nagar, Acharapakam, Near Abhiram Honda Showroom, Acharapakkam, Tamil Nadu 603301, India",
    "VenueCode": "BTDA",
    "VenueName": "Balaji Theatre A/C Dolby 7.1: Acharapakkam"
  },
  "BWCM": {
    "AvailableFormats": "2D",
    "City": "Georai",
    "Latitude": "19.2639",
    "Longitude": "75.7489",
    "RegionCode": "GEOR",
    "State": "Maharashtra",
    "SubRegionCode": "GEOR",
    "VenueAddress": "S No. 59, Shivaji Complex, Georai Main Road, Shastri Chowk Bus Stand Road, Dist-Beed, Georai, Maharashtra 431127, India",
    "VenueCode": "BWCM",
    "VenueName": "Bhagwati Chitra Mandir: Georai"
  },
  "CBMC": {
    "AvailableFormats": "3D|2D",
    "City": "Chennai",
    "Latitude": "12.9496",
    "Longitude": "80.2403",
    "RegionCode": "CHEN",
    "State": "Tamil Nadu",
    "SubRegionCode": "CHEN",
    "VenueAddress": "BSR Mall, Thoraipakkam, Seevaram, Oggiyamduraipakkam, Chennai, Tamil Nadu 600097, India",
    "VenueCode": "CBMC",
    "VenueName": "Cinepolis: BSR Mall, OMR, Thoraipakkam"
  },
  "CCAZ": {
    "AvailableFormats": "",
    "City": "Kakinada",
    "Latitude": "16.9573",
    "Longitude": "82.2365",
    "RegionCode": "KAKI",
    "State": "Andhra Pradesh",
    "SubRegionCode": "KAKI",
    "VenueAddress": "Cinema Hall Road, Surya Rao Peta, Opposite Municipal office, Kakinada, Andhra Pradesh 533001, India",
    "VenueCode": "CCAZ",
    "VenueName": "Chanakya Complex Screen 1: Kakinada"
  },
  "CCJR": {
    "AvailableFormats": "2D",
    "City": "Janjgir",
    "Latitude": "22.0117",
    "Longitude": "82.5759",
    "RegionCode": "JANR",
    "State": "Chhattisgarh",
    "SubRegionCode": "JANR",
    "VenueAddress": "Near A One Bakery, Link Road, Janjgir, Chhattisgarh 495668, India",
    "VenueCode": "CCJR",
    "VenueName": "City Cinema: Janjgir Naila"
  },
  "CCMO": {
    "AvailableFormats": "2D",
    "City": "Morbi",
    "Latitude": "22.7177",
    "Longitude": "70.7789",
    "RegionCode": "MOBI",
    "State": "Gujarat",
    "SubRegionCode": "MOBI",
    "VenueAddress": "Survey No-694 P 270, Lajai, Rajkot Road, Morbi, Gujarat 363650, India",
    "VenueCode": "CCMO",
    "VenueName": "Cine36 Cineplex: Morbi"
  },
  "CCPZ": {
    "AvailableFormats": "2D|3D",
    "City": "Gurugram (Gurgaon)",
    "Latitude": "28.479",
    "Longitude": "77.0801",
    "RegionCode": "NCR",
    "State": "NCR",
    "SubRegionCode": "GURG",
    "VenueAddress": "DLF City Centre Mall. 3rd Floor, DLF Phase 2, Mehrauli Gurgaon Road, Opposite Beverly Park, Gurugram (Gurgaon), NCR 122002, India",
    "VenueCode": "CCPZ",
    "VenueName": "PVR: City Centre, Gurgaon"
  },
  "CDCA": {
    "AvailableFormats": "2D",
    "City": "Prayagraj (Allahabad)",
    "Latitude": "25.438",
    "Longitude": "81.8442",
    "RegionCode": "ALLH",
    "State": "Uttar Pradesh",
    "SubRegionCode": "ALLH",
    "VenueAddress": "26, Sammelan Marg, Prayagraj, Uttar Pradesh 211003, India",
    "VenueCode": "CDCA",
    "VenueName": "Chandralok Cineplex: Prayagraj"
  },
  "CEHR": {
    "AvailableFormats": "2D|3D",
    "City": "Bengaluru",
    "Latitude": "12.8963",
    "Longitude": "77.6579",
    "RegionCode": "BANG",
    "State": "Karnataka",
    "SubRegionCode": "BANG",
    "VenueAddress": "No.102, 2B, Haralur Main Road, Bengaluru, Karnataka 560102, India",
    "VenueCode": "CEHR",
    "VenueName": "Cinephile HSR Layout: PNR Felicity Mall Haralur Rd"
  },
  "CGCA": {
    "AvailableFormats": "2D",
    "City": "Cherpulassery",
    "Latitude": "10.8768",
    "Longitude": "76.3129",
    "RegionCode": "CHER",
    "State": "Kerala",
    "SubRegionCode": "CHER",
    "VenueAddress": "Main Road, Near Federal Bank ATM, Cherpulassery, Kerala 679503, India",
    "VenueCode": "CGCA",
    "VenueName": "Cheloor Grand Cinemas: Cherpulassery"
  },
  "CGOS": {
    "AvailableFormats": "2D",
    "City": "Ahmedabad",
    "Latitude": "23.0157",
    "Longitude": "72.5294",
    "RegionCode": "AHD",
    "State": "Gujarat",
    "SubRegionCode": "AHD",
    "VenueAddress": "Near Shyamal, Cross Road, 132 Feet Ring Road, Ahmedabad, Gujarat 380015, India",
    "VenueCode": "CGOS",
    "VenueName": "City Gold Satellite: Ahmedabad"
  },
  "CHTL": {
    "AvailableFormats": "2D",
    "City": "Loni",
    "Latitude": "19.5775",
    "Longitude": "74.471",
    "RegionCode": "LONI",
    "State": "Maharashtra",
    "SubRegionCode": "LONI",
    "VenueAddress": "Rahuri, Sangmner Road, Near HP petrol Pump, Loni, Maharashtra 413713, India",
    "VenueCode": "CHTL",
    "VenueName": "Chitralay Cinema: Loni (Newly Renovated)"
  },
  "CIKO": {
    "AvailableFormats": "2D",
    "City": "Kodakara",
    "Latitude": "10.3734",
    "Longitude": "76.3065",
    "RegionCode": "THSR",
    "State": "Kerala",
    "SubRegionCode": "THSR",
    "VenueAddress": "98F4+9H8, Vellikulangara Road, Kodakara, Kerala 680684, India",
    "VenueCode": "CIKO",
    "VenueName": "City Shivadam RGB 4K Laser 3D: Kodakara"
  },
  "CKPP": {
    "AvailableFormats": "",
    "City": "Pune",
    "Latitude": "18.6373",
    "Longitude": "73.847",
    "RegionCode": "PUNE",
    "State": "Maharashtra",
    "SubRegionCode": "PUNE",
    "VenueAddress": "Plot No-87/1/5, Sector-1, 24 Proxima, Lakshmi Road Indrayani Nagar, Pune, Maharashtra 411039, India",
    "VenueCode": "CKPP",
    "VenueName": "Cinemark 24 Proxima: Indryani Nagar, Bhosari-Pune"
  },
  "CLLB": {
    "AvailableFormats": "2D",
    "City": "Bhagalpur",
    "Latitude": "25.2483",
    "Longitude": "86.9764",
    "RegionCode": "BHAG",
    "State": "Bihar",
    "SubRegionCode": "BHAG",
    "VenueAddress": "4th floor, H L Tower, DN Singh Road, Near Hari Om Laxmi Narayan Jewellers, Kharmanchak, PS, Jogsar, Adampur, Bhagalpur, Bihar 812002, India",
    "VenueCode": "CLLB",
    "VenueName": "Connplex Cinemas (Luxuriance): Bhagalpur"
  },
  "CMBE": {
    "AvailableFormats": "2D",
    "City": "Begusarai",
    "Latitude": "25.4371",
    "Longitude": "86.1382",
    "RegionCode": "BEGS",
    "State": "Bihar",
    "SubRegionCode": "BEGS",
    "VenueAddress": "Panhas Garden and Resort, Near Krishi Bazar Samiti,Sh -55, Begusarai, Bihar 851101, India",
    "VenueCode": "CMBE",
    "VenueName": "Chhotu Maharaj Cine Cafe: Begusarai"
  },
  "CMMH": {
    "AvailableFormats": "2D",
    "City": "Bhandara",
    "Latitude": "21.0849",
    "Longitude": "79.782",
    "RegionCode": "BHAA",
    "State": "Maharashtra",
    "SubRegionCode": "BHAA",
    "VenueAddress": "Lakhani, Gadegaon, Opposite - Ashok Leyland, Bhandara, Maharashtra 441804, India",
    "VenueCode": "CMMH",
    "VenueName": "Chhotu Maharaj Cine Cafe: Lakhani"
  },
  "CMSG": {
    "AvailableFormats": "2D",
    "City": "Suriya",
    "Latitude": "24.1623",
    "Longitude": "85.8825",
    "RegionCode": "GIRI",
    "State": "Jharkhand",
    "SubRegionCode": "GIRI",
    "VenueAddress": "Rajdhanwar Road, Bank of India, Barki Suriya, Suriya, Jharkhand 825320, India",
    "VenueCode": "CMSG",
    "VenueName": "Chhotu Maharaj Cine Cafe: Suriya, Giridi"
  },
  "CMVV": {
    "AvailableFormats": "2D",
    "City": "Varanasi",
    "Latitude": "25.3012",
    "Longitude": "82.9586",
    "RegionCode": "VAR",
    "State": "Uttar Pradesh",
    "SubRegionCode": "VAR",
    "VenueAddress": "Plot No. 237/3, Madauli, Near St.Johns School, Varanasi, Uttar Pradesh 221003, India",
    "VenueCode": "CMVV",
    "VenueName": "Chhotu Maharaj Cine Cafe: Varanasi"
  },
  "CNCT": {
    "AvailableFormats": "2D",
    "City": "Taliparamba",
    "Latitude": "12.0345",
    "Longitude": "75.3627",
    "RegionCode": "TALI",
    "State": "Kerala",
    "SubRegionCode": "TALI",
    "VenueAddress": "Trichambaram Temple Road, Trichambaram, Near State Bank of India, Taliparamba, Kerala 670141, India",
    "VenueCode": "CNCT",
    "VenueName": "Crown Cinema 2K Dolby: Taliparamba"
  },
  "CNPD": {
    "AvailableFormats": "2D",
    "City": "Chintalapudi",
    "Latitude": "17.0655",
    "Longitude": "80.983",
    "RegionCode": "CHPD",
    "State": "Andhra Pradesh",
    "SubRegionCode": "CHPD",
    "VenueAddress": "Chintalapudi - Eluru Road, Near Old Bus Stand, Chintalapudi, Andhra Pradesh 534460, India",
    "VenueCode": "CNPD",
    "VenueName": "Sarada Mini A/C Theatre: Chintalapudi"
  },
  "CNTX": {
    "AvailableFormats": "",
    "City": "Thane",
    "Latitude": "19.1927",
    "Longitude": "72.9686",
    "RegionCode": "MUMBAI",
    "State": "Maharashtra",
    "SubRegionCode": "THNE",
    "VenueAddress": "4TH Floor, Rhythm Building, Old Aaradhana Cinemas, L.B.S. Marg, M.D. Road, Panchpakhdi, Naupada, Thane (West), Thane, Maharashtra 400602, India",
    "VenueCode": "CNTX",
    "VenueName": "ICONIX CINEMAS: (OLD AARADHANA TALKIES) THANE"
  },
  "CONS": {
    "AvailableFormats": "2D",
    "City": "Ahmedabad",
    "Latitude": "23.0354",
    "Longitude": "72.5045",
    "RegionCode": "AHD",
    "State": "Gujarat",
    "SubRegionCode": "AHD",
    "VenueAddress": "2nd Floor, Shilp Epitome, Behind Rajpath Rangoli Road, Bodakdev, Ahmedabad, Gujarat 380054, India",
    "VenueCode": "CONS",
    "VenueName": "Connplex Cinemas (Luxuriance): SBR"
  },
  "CPAS": {
    "AvailableFormats": "2D|3D",
    "City": "Bhopal",
    "Latitude": "23.1829",
    "Longitude": "77.4564",
    "RegionCode": "BHOP",
    "State": "Madhya Pradesh",
    "SubRegionCode": "BHOP",
    "VenueAddress": "3rd Floor, Aashima Mall, Danish Nagar, Bawadia Kalan, Hoshingabad Road, Bhopal, Madhya Pradesh 462026, India",
    "VenueCode": "CPAS",
    "VenueName": "Cinepolis: Aashima Mall, Bhopal"
  },
  "CPFT": {
    "AvailableFormats": "3D|2D",
    "City": "Pune",
    "Latitude": "18.4686",
    "Longitude": "73.8198",
    "RegionCode": "PUNE",
    "State": "Maharashtra",
    "SubRegionCode": "PUNE",
    "VenueAddress": "Near Manik Baug Petrol Pump, Sinhagad Road, Pune, Maharashtra 411041, India",
    "VenueCode": "CPFT",
    "VenueName": "Fun Time Multiplex: Sinhagad Road"
  },
  "CPKT": {
    "AvailableFormats": "3D|2D",
    "City": "Pune",
    "Latitude": "18.4997",
    "Longitude": "73.821",
    "RegionCode": "PUNE",
    "State": "Maharashtra",
    "SubRegionCode": "PUNE",
    "VenueAddress": "Survey No.20/1,2, Kothrud, Near Tara Residency, Pune, Maharashtra 411038, India",
    "VenueCode": "CPKT",
    "VenueName": "City Pride: Kothrud"
  },
  "CPNM": {
    "AvailableFormats": "3D|2D",
    "City": "Mumbai",
    "Latitude": "19.141",
    "Longitude": "72.931",
    "RegionCode": "MUMBAI",
    "State": "Maharashtra",
    "SubRegionCode": "MCENT",
    "VenueAddress": "Neptune Magnet Mall, LBS Road, Bhandup(W), Mumbai, Maharashtra 400078, India",
    "VenueCode": "CPNM",
    "VenueName": "Cinepolis: Magnet Mall, Bhandup (W)"
  },
  "CPSH": {
    "AvailableFormats": "2D|3D",
    "City": "Jamshedpur",
    "Latitude": "22.785",
    "Longitude": "86.181",
    "RegionCode": "JMDP",
    "State": "Jharkhand",
    "SubRegionCode": "JMDP",
    "VenueAddress": "P and M Hi-Tech City Centre Mall, Millenium Park, Bistupur, Outer Circle Road, Jamshedpur, Jharkhand 831001, India",
    "VenueCode": "CPSH",
    "VenueName": "PJP Cinepolis: Jamshedpur"
  },
  "CPVV": {
    "AvailableFormats": "2D|3D",
    "City": "Thane",
    "Latitude": "19.2085",
    "Longitude": "72.9713",
    "RegionCode": "MUMBAI",
    "State": "Maharashtra",
    "SubRegionCode": "THNE",
    "VenueAddress": "Viviana Mall, Eastern Express Highway, Laxmi Nagar, Thane (West), Beside Jupiter Hospital, Thane, Maharashtra 400606, India",
    "VenueCode": "CPVV",
    "VenueName": "Cinepolis: VIP Viviana Mall, Thane"
  },
  "CSCI": {
    "AvailableFormats": "2D",
    "City": "Indore",
    "Latitude": "22.7229",
    "Longitude": "75.8304",
    "RegionCode": "IND",
    "State": "Madhya Pradesh",
    "SubRegionCode": "IND",
    "VenueAddress": "2nd Floor, Space Tower, Airport Road, Above Croma, Near Surjeet Hyundai Showroom, Indore, Madhya Pradesh 452005, India",
    "VenueCode": "CSCI",
    "VenueName": "Cine Square Cinemas: Airport Road, Indore"
  },
  "CSQS": {
    "AvailableFormats": "2D|3D",
    "City": "Shirpur",
    "Latitude": "21.3451",
    "Longitude": "74.8847",
    "RegionCode": "SRUR",
    "State": "Maharashtra",
    "SubRegionCode": "SRUR",
    "VenueAddress": "2nd Floor, City Pride Mall, District Dhule, Near Recreation Garden and Next to Saheeba Hotel Mandal, Shirpur, Maharashtra 425405, India",
    "VenueCode": "CSQS",
    "VenueName": "Cine Square Cinemas: Shirpur"
  },
  "CSTP": {
    "AvailableFormats": "2D",
    "City": "Patna",
    "Latitude": "25.6051",
    "Longitude": "85.0788",
    "RegionCode": "PATN",
    "State": "Bihar",
    "SubRegionCode": "PATN",
    "VenueAddress": "3rd Floor, Braj Saroj Complex, Raja Bazar, Khajpura, Opposite Over Bridge Pillar No.29, Patna, Bihar 800014, India",
    "VenueCode": "CSTP",
    "VenueName": "Connplex Cinemas: Raja Bazar, Patna"
  },
  "CTMJ": {
    "AvailableFormats": "2D|3D",
    "City": "Chandigarh",
    "Latitude": "30.7429",
    "Longitude": "76.7851",
    "RegionCode": "CHD",
    "State": "Punjab",
    "SubRegionCode": "CHD",
    "VenueAddress": "Plot No 32, TDI Mall, Sector 17 A, Chandigarh, Punjab 160017, India",
    "VenueCode": "CTMJ",
    "VenueName": "Cinepolis: Jagat Mall, Chandigarh"
  },
  "CTRR": {
    "AvailableFormats": "3D|2D",
    "City": "Mumbai",
    "Latitude": "19.0134",
    "Longitude": "72.8439",
    "RegionCode": "MUMBAI",
    "State": "Maharashtra",
    "SubRegionCode": "MCENT",
    "VenueAddress": "198, Dr. Baba Saheb Ambedkar Road, Dadar East, Mumbai, Maharashtra 400014, India",
    "VenueCode": "CTRR",
    "VenueName": "Chitra Cinema: Dadar (Newly Renovated)"
  },
  "CVLG": {
    "AvailableFormats": "2D",
    "City": "Bengaluru",
    "Latitude": "12.9817",
    "Longitude": "77.5638",
    "RegionCode": "BANG",
    "State": "Karnataka",
    "SubRegionCode": "BANG",
    "VenueAddress": "3rd Floor, Lulu Mall, Rajajinagar, Bengaluru, Karnataka 560023, India",
    "VenueCode": "CVLG",
    "VenueName": "Cinepolis VIP: Lulu Mall, Bengaluru"
  },
  "CXJD": {
    "AvailableFormats": "2D",
    "City": "Patna",
    "Latitude": "25.6106",
    "Longitude": "85.1404",
    "RegionCode": "PATN",
    "State": "Bihar",
    "SubRegionCode": "PATN",
    "VenueAddress": "4th Floor, J.D. Mall, S.P. Verma Road, Patna, Bihar 800001, India",
    "VenueCode": "CXJD",
    "VenueName": "Connplex Cinemas: S P Verma Road (JD Mall), Patna"
  },
  "CZVX": {
    "AvailableFormats": "2D",
    "City": "Barshi",
    "Latitude": "18.2404",
    "Longitude": "75.6974",
    "RegionCode": "BRHI",
    "State": "Maharashtra",
    "SubRegionCode": "BRHI",
    "VenueAddress": "Chatrapati Cinema Hall, Chatrapati Bhavan, Latur Road, Barshi, Maharashtra 413401, India",
    "VenueCode": "CZVX",
    "VenueName": "Chatrapati Cinema: Barshi"
  },
  "DCCP": {
    "AvailableFormats": "2D",
    "City": "Pune",
    "Latitude": "18.7516",
    "Longitude": "73.8353",
    "RegionCode": "KHED",
    "State": "Maharashtra",
    "SubRegionCode": "KHED",
    "VenueAddress": "City Plaza, Talegaon, Chakan Road, Pune, Maharashtra 410501, India",
    "VenueCode": "DCCP",
    "VenueName": "Dharmatma Cinemark: Chakan, Pune"
  },
  "DCMV": {
    "AvailableFormats": "3D|2D",
    "City": "Noida",
    "Latitude": "28.5673",
    "Longitude": "77.3213",
    "RegionCode": "NCR",
    "State": "NCR",
    "SubRegionCode": "NOIDA",
    "VenueAddress": "5th Floor, DLF Mall of India, Plot No M03, A602/A701B, Sector 18, Noida, NCR 201301, India",
    "VenueCode": "DCMV",
    "VenueName": "PVR Directors Cut, DLF Mall Of India: Noida"
  },
  "DDJP": {
    "AvailableFormats": "2D",
    "City": "Jaipur",
    "Latitude": "26.8024",
    "Longitude": "75.857",
    "RegionCode": "JAIP",
    "State": "Rajasthan",
    "SubRegionCode": "JAIP",
    "VenueAddress": "DD Cinemas, 5th Floor, Viva City Mall, C-3, Mahal Road, Near Akshay Patra Temple, Mahal Yojana, Jagatpura, Shri Kishanpura, Jaipur, Rajasthan 302022, India",
    "VenueCode": "DDJP",
    "VenueName": "DD Cinemas: Vivacity Mall, Jaipur"
  },
  "DESC": {
    "AvailableFormats": "2D",
    "City": "Wani",
    "Latitude": "20.0441",
    "Longitude": "78.9582",
    "RegionCode": "WANI",
    "State": "Maharashtra",
    "SubRegionCode": "WANI",
    "VenueAddress": "MIDC Road, Wani, Near Hanuman Temple, Wani, Maharashtra 445304, India",
    "VenueCode": "DESC",
    "VenueName": "Deepti Sky Cinex: Wani"
  },
  "DIKT": {
    "AvailableFormats": "2D",
    "City": "Madurai",
    "Latitude": "9.88169",
    "Longitude": "78.0556",
    "RegionCode": "MADU",
    "State": "Tamil Nadu",
    "SubRegionCode": "MADU",
    "VenueAddress": "National Highway 7, Thirunagar, Thanakkankulam, Near LIC of India, Branch Office, Madurai, Tamil Nadu 625006, India",
    "VenueCode": "DIKT",
    "VenueName": "Dhevi Kalaivani Theatre A/C DTS: Madurai"
  },
  "DLPB": {
    "AvailableFormats": "2D",
    "City": "Barpeta Road",
    "Latitude": "26.4894",
    "Longitude": "90.9684",
    "RegionCode": "BRPD",
    "State": "Assam",
    "SubRegionCode": "BRPD",
    "VenueAddress": "Ward No. 9, Barpeta Road Post Office, Barpeta Road, Barpeta Road, Assam 781315, India",
    "VenueCode": "DLPB",
    "VenueName": "Dilip Cinema: Barpeta Road"
  },
  "DNCY": {
    "AvailableFormats": "2D",
    "City": "Changanassery",
    "Latitude": "9.44182",
    "Longitude": "76.5444",
    "RegionCode": "CNSY",
    "State": "Kerala",
    "SubRegionCode": "CNSY",
    "VenueAddress": "Dhanya Complex, Main Central Road, Perunna, Near NSS College, Changanassery, Kerala 686101, India",
    "VenueCode": "DNCY",
    "VenueName": "Dhanya Remya: Changanassery"
  },
  "DRCD": {
    "AvailableFormats": "2D",
    "City": "Itanagar",
    "Latitude": "27.0874",
    "Longitude": "93.6113",
    "RegionCode": "ITNG",
    "State": "Arunachal Pradesh",
    "SubRegionCode": "ITNG",
    "VenueAddress": "Ganga Market, Highway No 415, Itanagar, Arunachal Pradesh 791113, India",
    "VenueCode": "DRCD",
    "VenueName": "Drodel Cineworld, Akashdeep: Itanagar"
  },
  "DTPD": {
    "AvailableFormats": "2D",
    "City": "Pendra",
    "Latitude": "22.7551",
    "Longitude": "81.9028",
    "RegionCode": "PEND",
    "State": "Chhattisgarh",
    "SubRegionCode": "PEND",
    "VenueAddress": "Gaurella, Pendra Road, Opposite Shivam Mithai, Pendra, Chhattisgarh 495117, India",
    "VenueCode": "DTPD",
    "VenueName": "Durgesh Talkies: Pendra"
  },
  "DVCF": {
    "AvailableFormats": "2D",
    "City": "Ramjibanpur",
    "Latitude": "22.8259",
    "Longitude": "87.6007",
    "RegionCode": "PUUR",
    "State": "West Bengal",
    "SubRegionCode": "PUUR",
    "VenueAddress": "Devleen Cinema, Near Sandipa Jewellers, Pashchim Medinipur, Ramjibanpur, West Bengal 721242, India",
    "VenueCode": "DVCF",
    "VenueName": "Devleen Cinema: Ramjibanpur"
  },
  "ECDG": {
    "AvailableFormats": "2D",
    "City": "Deoghar",
    "Latitude": "24.4907",
    "Longitude": "86.6915",
    "RegionCode": "DOGH",
    "State": "Jharkhand",
    "SubRegionCode": "DOGH",
    "VenueAddress": "Central Plaza Mall, Netaji Subhash Chandra Road, Above Big Bazar, Deoghar, Jharkhand 814112, India",
    "VenueCode": "ECDG",
    "VenueName": "Eylex Cinemas: Deoghar"
  },
  "EETS": {
    "AvailableFormats": "2D",
    "City": "Erode",
    "Latitude": "11.3288",
    "Longitude": "77.7098",
    "RegionCode": "EROD",
    "State": "Tamil Nadu",
    "SubRegionCode": "EROD",
    "VenueAddress": "468, Brough Road, Teachers Colony, Palayapalayam, Near Aanjaneyar Kovil, Erode, Tamil Nadu 638001, India",
    "VenueCode": "EETS",
    "VenueName": "Sangeetha Theatre A/C 4K Dolby 7.1: Erode"
  },
  "EMPS": {
    "AvailableFormats": "2D|3D",
    "City": "Gurugram (Gurgaon)",
    "Latitude": "28.4157",
    "Longitude": "76.963",
    "RegionCode": "NCR",
    "State": "NCR",
    "SubRegionCode": "GURG",
    "VenueAddress": "3rd Floor, Elan Miracle, Dwarka Expressway, Sector 84, Gurugram (Gurgaon), NCR 122004, India",
    "VenueCode": "EMPS",
    "VenueName": "PVR: Elan Miracle, Sec 84, Gurugram"
  },
  "ESOS": {
    "AvailableFormats": "2D|3D",
    "City": "Solapur",
    "Latitude": "17.6766",
    "Longitude": "75.8985",
    "RegionCode": "SOLA",
    "State": "Maharashtra",
    "SubRegionCode": "SOLA",
    "VenueAddress": "11/A, NH13, Old Police Line, Murarji Peth, Solapur, Maharashtra 413001, India",
    "VenueCode": "ESOS",
    "VenueName": "E-SQUARE Oasis (A.C): Solapur"
  },
  "EVMC": {
    "AvailableFormats": "2D",
    "City": "Muvattupuzha",
    "Latitude": "9.97985",
    "Longitude": "76.5837",
    "RegionCode": "MUVA",
    "State": "Kerala",
    "SubRegionCode": "MUVA",
    "VenueAddress": "SH8, Kizhakkekara, Muvattupuzha, Near Nirmala Shopping Centre, Muvattupuzha, Kerala 686661, India",
    "VenueCode": "EVMC",
    "VenueName": "EVM Latha 4k 3D RGB Pure laser 7.1: Muvattupuzha"
  },
  "FCDH": {
    "AvailableFormats": "2D|3D",
    "City": "Dhanbad(Jharkhand)",
    "Latitude": "23.8206",
    "Longitude": "86.4703",
    "RegionCode": "DHAN",
    "State": "Jharkhand",
    "SubRegionCode": "DHAN",
    "VenueAddress": "Ozone Galleria Mall, Saraidhela, Kolakusma, Above Big Bazaar, Dhanbad(Jharkhand), Jharkhand 828127, India",
    "VenueCode": "FCDH",
    "VenueName": "INOX Cinemas: Dhanbad"
  },
  "FMCB": {
    "AvailableFormats": "2D|3D",
    "City": "Bhagalpur",
    "Latitude": "25.2632",
    "Longitude": "87.0324",
    "RegionCode": "BHAG",
    "State": "Bihar",
    "SubRegionCode": "BHAG",
    "VenueAddress": "Near DAV School, Large Industrial Area, Barari, Bhagalpur, Bihar 812003, India",
    "VenueCode": "FMCB",
    "VenueName": "FM Cineplex: Bhagalpur"
  },
  "FMMA": {
    "AvailableFormats": "2D|MX4D|IMAX 2D|3D",
    "City": "Mumbai",
    "Latitude": "19.1725",
    "Longitude": "72.8355",
    "RegionCode": "MUMBAI",
    "State": "Maharashtra",
    "SubRegionCode": "MWEST",
    "VenueAddress": "Inorbit Mall, Goregaon Malad Link Road, Near Shoppers Stop, Malad West, Mumbai, Maharashtra 400064, India",
    "VenueCode": "FMMA",
    "VenueName": "INOX: Megaplex, Inorbit Mall, Malad"
  },
  "FNBP": {
    "AvailableFormats": "3D|2D",
    "City": "Bhopal",
    "Latitude": "23.2329",
    "Longitude": "77.4298",
    "RegionCode": "BHOP",
    "State": "Madhya Pradesh",
    "SubRegionCode": "BHOP",
    "VenueAddress": "Arera Hills, DB City Mall, Maharana Pratap Nagar, Bhopal, Madhya Pradesh 462011, India",
    "VenueCode": "FNBP",
    "VenueName": "Cinepolis: DB Mall, Bhopal"
  },
  "FNLK": {
    "AvailableFormats": "2D|3D",
    "City": "Lucknow",
    "Latitude": "26.8582",
    "Longitude": "80.9762",
    "RegionCode": "LUCK",
    "State": "Uttar Pradesh",
    "SubRegionCode": "LUCK",
    "VenueAddress": "Near Eldeco Greens, Nehru Enclave, Gomti Nagar, Opposite Lohia Park, Lucknow, Uttar Pradesh 226010, India",
    "VenueCode": "FNLK",
    "VenueName": "Fun Cinemas: Fun Republic Mall, Lucknow"
  },
  "FRGS": {
    "AvailableFormats": "2D|3D",
    "City": "Thanjavur",
    "Latitude": "10.7857",
    "Longitude": "79.1392",
    "RegionCode": "TANJ",
    "State": "Tamil Nadu",
    "SubRegionCode": "TANJ",
    "VenueAddress": "78/3, Abraham Pandither Road, Next to P.K Hospital, Thanjavur, Tamil Nadu 613001, India",
    "VenueCode": "FRGS",
    "VenueName": "Frame Cinemas RGB Laser Atmos: Thanjavur"
  },
  "FUCG": {
    "AvailableFormats": "2D",
    "City": "Guwahati",
    "Latitude": "26.167",
    "Longitude": "91.7669",
    "RegionCode": "GUW",
    "State": "Assam",
    "SubRegionCode": "GUW",
    "VenueAddress": "5th Floor, Hub Mall, Bhangaghar, G. S. Road, Guwahati, Assam 781005, India",
    "VenueCode": "FUCG",
    "VenueName": "Galleria Cinema: HUB Mall, Guwahati"
  },
  "GAHC": {
    "AvailableFormats": "2D",
    "City": "Chennai",
    "Latitude": "13.2499",
    "Longitude": "80.1568",
    "RegionCode": "CHEN",
    "State": "Tamil Nadu",
    "SubRegionCode": "CHEN",
    "VenueAddress": "Sholavaram, Karanodai, Chennai, Tamil Nadu 600067, India",
    "VenueCode": "GAHC",
    "VenueName": "Gopalakrishna A/C 2K DOLBY 7.1-Karanodai(Redhills)"
  },
  "GAUT": {
    "AvailableFormats": "2D",
    "City": "Berhampur",
    "Latitude": "19.3128",
    "Longitude": "84.7861",
    "RegionCode": "BERP",
    "State": "Odisha",
    "SubRegionCode": "BERP",
    "VenueAddress": "Gandhi Nagar, Near Hanuman Temple, Berhampur, Odisha 760001, India",
    "VenueCode": "GAUT",
    "VenueName": "Gautam Cinema A/C Dolby Digital 2K: Berhampur"
  },
  "GCCH": {
    "AvailableFormats": "2D",
    "City": "Raigarh",
    "Latitude": "21.8949",
    "Longitude": "83.3958",
    "RegionCode": "RAIG",
    "State": "Chhattisgarh",
    "SubRegionCode": "RAIG",
    "VenueAddress": "Grand Mall, 4th Floor, Gouri Shankar Mandir Chowk, Raigarh, Chhattisgarh 496001, India",
    "VenueCode": "GCCH",
    "VenueName": "Grand Cinemas: Raigarh"
  },
  "GCGP": {
    "AvailableFormats": "2D|3D",
    "City": "Silchar",
    "Latitude": "24.8229",
    "Longitude": "92.8001",
    "RegionCode": "SIL",
    "State": "Assam",
    "SubRegionCode": "SIL",
    "VenueAddress": "Gold Digital Cinema, Goldighi Municipal Mall, Nazirpatty, Silchar, Assam 788001, India",
    "VenueCode": "GCGP",
    "VenueName": "Gold Cinema: Goldighi Municipal Mall, Silchar"
  },
  "GCMI": {
    "AvailableFormats": "2D",
    "City": "Mangaldoi",
    "Latitude": "26.4506",
    "Longitude": "92.0291",
    "RegionCode": "MANG",
    "State": "Assam",
    "SubRegionCode": "MANG",
    "VenueAddress": "Mangaldai Bhutiachang Road, No.1 Bezpara, Opposite Maa Bhandar, Mangaldoi, Assam 784125, India",
    "VenueCode": "GCMI",
    "VenueName": "Gold Cinema: Mangaldoi"
  },
  "GCSE": {
    "AvailableFormats": "2D",
    "City": "Hooghly",
    "Latitude": "22.7538",
    "Longitude": "88.3401",
    "RegionCode": "CHDD",
    "State": "West Bengal",
    "SubRegionCode": "CHDD",
    "VenueAddress": "180 N.S. Avenue, 3rd Floor Manasi Bazar, Near Bawarchi Biryani, Hooghly, West Bengal 712201, India",
    "VenueCode": "GCSE",
    "VenueName": "Goodwin Cineplex: Serampore"
  },
  "GDAW": {
    "AvailableFormats": "2D",
    "City": "Alwar",
    "Latitude": "27.5806",
    "Longitude": "76.6156",
    "RegionCode": "ALWR",
    "State": "Rajasthan",
    "SubRegionCode": "ALWR",
    "VenueAddress": "Near, Jail Circle, Cross Point Mall, Alwar, Rajasthan 301001, India",
    "VenueCode": "GDAW",
    "VenueName": "Gold Cinema: Alwar Crosspoint Mall"
  },
  "GDKA": {
    "AvailableFormats": "2D",
    "City": "Kota",
    "Latitude": "25.1683",
    "Longitude": "75.8532",
    "RegionCode": "KOTA",
    "State": "Rajasthan",
    "SubRegionCode": "KOTA",
    "VenueAddress": "Aakash Multiplex, Aerodrome Circle, New Grain Mandi,Kota, Rajasthan 324007, India",
    "VenueCode": "GDKA",
    "VenueName": "Gold Cinema: Kota"
  },
  "GEPL": {
    "AvailableFormats": "2D",
    "City": "Kakinada",
    "Latitude": "16.9703",
    "Longitude": "82.2374",
    "RegionCode": "KAKI",
    "State": "Andhra Pradesh",
    "SubRegionCode": "KAKI",
    "VenueAddress": "Bhanugudi Junction, Kondayya Palem, Kakinada, Andhra Pradesh 533003, India",
    "VenueCode": "GEPL",
    "VenueName": "GEPL Padmapriya Sripriya: Kakinada"
  },
  "GGMC": {
    "AvailableFormats": "2D",
    "City": "Hanumangarh",
    "Latitude": "29.6216",
    "Longitude": "74.2862",
    "RegionCode": "HNMG",
    "State": "Rajasthan",
    "SubRegionCode": "HNMG",
    "VenueAddress": "Rajasthan State, Shopat Singh Marg, Model Town, Hanumangarh, Rajasthan 335512, India",
    "VenueCode": "GGMC",
    "VenueName": "Prime Cinemas Shiv Mandir: Hanumangarh"
  },
  "GKGM": {
    "AvailableFormats": "2D",
    "City": "Chennai",
    "Latitude": "12.5131",
    "Longitude": "79.8845",
    "RegionCode": "CHEN",
    "State": "Tamil Nadu",
    "SubRegionCode": "CHEN",
    "VenueAddress": "Chennai - Theni Highway, Maduranthakam, Chennai, Tamil Nadu 603306, India",
    "VenueCode": "GKGM",
    "VenueName": "Gayathiri Cinemas A/C Dolby Atmos: Maduranthakam"
  },
  "GMGX": {
    "AvailableFormats": "2D",
    "City": "Ghaziabad",
    "Latitude": "28.6549",
    "Longitude": "77.3452",
    "RegionCode": "MRDG",
    "State": "NCR",
    "SubRegionCode": "MRDG",
    "VenueAddress": "Galaxie Mall, Local Road for JILIT Ltd, Sahibabad, Madan Mohan Malviya Marg, Sahibabad Industrial Area Site 4, Opposite Gulmohar Grand, Ghaziabad, NCR 201010, India",
    "VenueCode": "GMGX",
    "VenueName": "Galaxie Multiplex: Ghaziabad"
  },
  "GPAM": {
    "AvailableFormats": "2D",
    "City": "Bengaluru",
    "Latitude": "12.9359",
    "Longitude": "77.5176",
    "RegionCode": "HOKT",
    "State": "Karnataka",
    "SubRegionCode": "HOKT",
    "VenueAddress": "Arcade Mall, Rajarajeshwari Nagar, Opposite The Club Mysore Road, Bengaluru, Karnataka 560098, India",
    "VenueCode": "GPAM",
    "VenueName": "Gopalan Cinemas: Arcade Mall, Mysore Road"
  },
  "GPSM": {
    "AvailableFormats": "2D",
    "City": "Bengaluru",
    "Latitude": "12.9933",
    "Longitude": "77.6621",
    "RegionCode": "HOKT",
    "State": "Karnataka",
    "SubRegionCode": "HOKT",
    "VenueAddress": "4th Floor, Gopalan Signature Mall, Old Madras Road, Rajana Colony, C V Raman Nagar, Bengaluru, Karnataka 560093, India",
    "VenueCode": "GPSM",
    "VenueName": "Gopalan Miniplex: Signature Mall, Old Madras Road"
  },
  "GSVA": {
    "AvailableFormats": "2D",
    "City": "Akividu",
    "Latitude": "16.5838",
    "Longitude": "81.3862",
    "RegionCode": "AKVD",
    "State": "Andhra Pradesh",
    "SubRegionCode": "AKVD",
    "VenueAddress": "Near HP Petrol Pump, PP Road, Beside Ambica Rice Merchants, Akividu, Andhra Pradesh 534235, India",
    "VenueCode": "GSVA",
    "VenueName": "G6 Sri Venkata Gangaratnam Theatre: Akividu"
  },
  "GTGA": {
    "AvailableFormats": "2D",
    "City": "Tiptur",
    "Latitude": "13.2589",
    "Longitude": "76.4848",
    "RegionCode": "TIPT",
    "State": "Karnataka",
    "SubRegionCode": "TIPT",
    "VenueAddress": "Bengaluru - Honnavar Road, Edenahalli, Tiptur, Karnataka 572201, India",
    "VenueCode": "GTGA",
    "VenueName": "Ganesh Theatre Laser Projection: Tiptur"
  },
  "GTYT": {
    "AvailableFormats": "2D",
    "City": "Bengaluru",
    "Latitude": "13.1006",
    "Longitude": "77.5871",
    "RegionCode": "HOKT",
    "State": "Karnataka",
    "SubRegionCode": "HOKT",
    "VenueAddress": "A Centre, Yelahanka New Town, Behind Sheshadripuram First Grade College, Bengaluru, Karnataka 560064, India",
    "VenueCode": "GTYT",
    "VenueName": "Ganesh Digital 2K Cinema: Yelahanka New Town"
  },
  "HAMD": {
    "AvailableFormats": "2D",
    "City": "Ahmedabad",
    "Latitude": "23.0464",
    "Longitude": "72.5311",
    "RegionCode": "AHD",
    "State": "Gujarat",
    "SubRegionCode": "AHD",
    "VenueAddress": "1A, Himalaya Mall Drive In Road,Gurukul Road, Memnagar, Ahmedabad, Gujarat 380052, India",
    "VenueCode": "HAMD",
    "VenueName": "INOX: Himalaya Mall, Drive In Road, Ahmedabad"
  },
  "HFSQ": {
    "AvailableFormats": "2D",
    "City": "Bicholim",
    "Latitude": "15.5878",
    "Longitude": "73.9441",
    "RegionCode": "GOA",
    "State": "Goa",
    "SubRegionCode": "BICG",
    "VenueAddress": "Bicholim Road, Bicholim, Near Dreams Bakery, Bicholim, Goa 403504, India",
    "VenueCode": "HFSQ",
    "VenueName": "Z Square Hira Talkies: Bicholim"
  },
  "HPVR": {
    "AvailableFormats": "2D|3D",
    "City": "Thane",
    "Latitude": "19.3",
    "Longitude": "73.0649",
    "RegionCode": "MUMBAI",
    "State": "Maharashtra",
    "SubRegionCode": "THNE",
    "VenueAddress": "Kaap Islanpura, Agra Road, Gokul Nagar, Near Bhiwandi Court, Bhiwandi, Thane, Maharashtra 421302, India",
    "VenueCode": "HPVR",
    "VenueName": "PVR: Haseen, Bhiwandi"
  },
  "ICCM": {
    "AvailableFormats": "2D|3D",
    "City": "Mysuru (Mysore)",
    "Latitude": "12.3098",
    "Longitude": "76.6585",
    "RegionCode": "MYS",
    "State": "Karnataka",
    "SubRegionCode": "MYS",
    "VenueAddress": "INOX Leisure Ltd, 3rd Floor, Centro, Bangalore-Nilgiri Road, Mysuru (Mysore), Karnataka 570001, India",
    "VenueCode": "ICCM",
    "VenueName": "INOX: Centro, Mysore"
  },
  "IGAM": {
    "AvailableFormats": "2D|3D",
    "City": "Gurugram (Gurgaon)",
    "Latitude": "28.4453",
    "Longitude": "77.0811",
    "RegionCode": "NCR",
    "State": "NCR",
    "SubRegionCode": "GURG",
    "VenueAddress": "4th Floor, Ardee Mall, Ardee City, Sector 52, Gurugram, Haryana, Gurugram (Gurgaon), NCR 122003, India",
    "VenueCode": "IGAM",
    "VenueName": "INOX: Ardee Mall, Gurugram"
  },
  "IMCM": {
    "AvailableFormats": "2D|3D",
    "City": "Mumbai",
    "Latitude": "18.943",
    "Longitude": "72.8289",
    "RegionCode": "MUMBAI",
    "State": "Maharashtra",
    "SubRegionCode": "MCENT",
    "VenueAddress": "M.G.Road, Dhobitalao Junction, Mumbai, Maharashtra 400020, India",
    "VenueCode": "IMCM",
    "VenueName": "Metro INOX Cinemas: Marine Lines"
  },
  "IMXS": {
    "AvailableFormats": "2D",
    "City": "Surajpur",
    "Latitude": "23.3911",
    "Longitude": "82.8491",
    "RegionCode": "BSRM",
    "State": "Chhattisgarh",
    "SubRegionCode": "BSRM",
    "VenueAddress": "Bhaiyathan Road, In front of Sarnapara Chowk, Gram Parri, Surajpur, Chhattisgarh 497229, India",
    "VenueCode": "IMXS",
    "VenueName": "IMAXX Multiplex: Surajpur"
  },
  "INBG": {
    "AvailableFormats": "2D|3D",
    "City": "Bengaluru",
    "Latitude": "12.9705",
    "Longitude": "77.61",
    "RegionCode": "HOKT",
    "State": "Karnataka",
    "SubRegionCode": "HOKT",
    "VenueAddress": "4th Floor, Garuda Mall, Magrath Road, Bengaluru, Karnataka 560025, India",
    "VenueCode": "INBG",
    "VenueName": "INOX: Garuda Mall, Magrath Road"
  },
  "INCM": {
    "AvailableFormats": "2D",
    "City": "Vizag (Visakhapatnam)",
    "Latitude": "17.7341",
    "Longitude": "83.3182",
    "RegionCode": "SABB",
    "State": "Andhra Pradesh",
    "SubRegionCode": "SABB",
    "VenueAddress": "Survey No. 67, 3rd Floor, CMR Central, Maddilapalem, Dwaraka Nagar, Vizag, Andhra Pradesh 530013, India",
    "VenueCode": "INCM",
    "VenueName": "INOX: CMR Central, Maddilapalem"
  },
  "INGM": {
    "AvailableFormats": "2D|3D",
    "City": "Bhiwadi",
    "Latitude": "28.1915",
    "Longitude": "76.8137",
    "RegionCode": "REWA",
    "State": "Rajasthan",
    "SubRegionCode": "REWA",
    "VenueAddress": "3rd Floor, Genesis Mall, Alwar Bhiwadi Highway, Bhiwadi, Rajasthan 301019, India",
    "VenueCode": "INGM",
    "VenueName": "INOX: Bhiwadi Genesis Mall"
  },
  "INKO": {
    "AvailableFormats": "3D|2D",
    "City": "Thane",
    "Latitude": "19.2032",
    "Longitude": "72.9649",
    "RegionCode": "MUMBAI",
    "State": "Maharashtra",
    "SubRegionCode": "THNE",
    "VenueAddress": "3rd Floor, Korum Mall, Mangal Pandey Road Thane West, Off Eastern Express Highway, Thane, Maharashtra 400606, India",
    "VenueCode": "INKO",
    "VenueName": "INOX: Korum Mall, Eastern Express Highway, Thane"
  },
  "INNS": {
    "AvailableFormats": "2D|3D",
    "City": "Bhubaneswar",
    "Latitude": "20.323",
    "Longitude": "85.8817",
    "RegionCode": "BHUB",
    "State": "Odisha",
    "SubRegionCode": "BHUB",
    "VenueAddress": "Plot No.149 Rudrapur NH16, Near Reliance Trends, Bhubaneswar, Odisha 752101, India",
    "VenueCode": "INNS",
    "VenueName": "INOX: Symphony Mall"
  },
  "INPR": {
    "AvailableFormats": "2D|3D|IMAX 2D",
    "City": "Chennai",
    "Latitude": "12.9921",
    "Longitude": "80.2172",
    "RegionCode": "CHEN",
    "State": "Tamil Nadu",
    "SubRegionCode": "CHEN",
    "VenueAddress": "Formerly Jazz Cinemas, 2nd Floor, Phoenix Market City, Velachery Main Road, Velachery, Chennai, Tamil Nadu 600042, India",
    "VenueCode": "INPR",
    "VenueName": "INOX: LUXE Phoenix Market City, Velachery"
  },
  "INRP": {
    "AvailableFormats": "3D|2D",
    "City": "Raipur",
    "Latitude": "21.2364",
    "Longitude": "81.6856",
    "RegionCode": "RAIPUR",
    "State": "Chhattisgarh",
    "SubRegionCode": "RAIPUR",
    "VenueAddress": "3rd Floor, City Mall 36, Great Eastern Road, NH-6, Vishal Nagar, Raipur, Chhattisgarh 492001, India",
    "VenueCode": "INRP",
    "VenueName": "INOX: City Mall 36, G E Road"
  },
  "INSR": {
    "AvailableFormats": "2D|3D",
    "City": "Siliguri",
    "Latitude": "26.725",
    "Longitude": "88.3954",
    "RegionCode": "SILI",
    "State": "West Bengal",
    "SubRegionCode": "SILI",
    "VenueAddress": "2nd floor, City Centre Mall, Matigara, Siliguri, West Bengal 734010, India",
    "VenueCode": "INSR",
    "VenueName": "INOX: City Centre, Siliguri"
  },
  "INVD": {
    "AvailableFormats": "2D|3D",
    "City": "Vadodara",
    "Latitude": "22.3131",
    "Longitude": "73.1579",
    "RegionCode": "VAD",
    "State": "Gujarat",
    "SubRegionCode": "VAD",
    "VenueAddress": "Race Course Road, Gopal Baug, Ellora Park, Vadodara, Gujarat 390007, India",
    "VenueCode": "INVD",
    "VenueName": "INOX: Race Course Circle"
  },
  "INZD": {
    "AvailableFormats": "2D",
    "City": "Zirakpur",
    "Latitude": "30.6199",
    "Longitude": "76.8231",
    "RegionCode": "CHD",
    "State": "Punjab",
    "SubRegionCode": "ZRIK",
    "VenueAddress": "INOX Leisure Ltd, 2nd Floor, Dhillon Square Mall, Chhatbir Road, Chandigarh - Ambala Highway, Zirakpur, Zirakpur, Punjab 140603, India",
    "VenueCode": "INZD",
    "VenueName": "INOX: Dhillon Plaza (Zirakpur)"
  },
  "IPBG": {
    "AvailableFormats": "2D|3D",
    "City": "Navi Mumbai",
    "Latitude": "19.0853",
    "Longitude": "73.0076",
    "RegionCode": "MUMBAI",
    "State": "Maharashtra",
    "SubRegionCode": "THAN",
    "VenueAddress": "INOX Leisure Ltd, Plot No.17, Palm Beach Galleria Mall, Sector 19D, Palm Beach Road, Vashi, Navi Mumbai, Maharashtra 400703, India",
    "VenueCode": "IPBG",
    "VenueName": "INOX: Palm Beach Galleria Mall, Navi Mumbai"
  },
  "IRGT": {
    "AvailableFormats": "2D|3D",
    "City": "Thane",
    "Latitude": "19.2304",
    "Longitude": "72.9774",
    "RegionCode": "MUMBAI",
    "State": "Maharashtra",
    "SubRegionCode": "THNE",
    "VenueAddress": "3rd Floor, R Mall,Ghodbunder Road, Opposite Lokim Company, Dokali Pada, Dhokali, Thane West, Thane, Maharashtra 400607, India",
    "VenueCode": "IRGT",
    "VenueName": "INOX: Insignia at R Mall, Thane"
  },
  "ISTJ": {
    "AvailableFormats": "2D|3D",
    "City": "Jaipur",
    "Latitude": "26.8768",
    "Longitude": "75.7608",
    "RegionCode": "JAIP",
    "State": "Rajasthan",
    "SubRegionCode": "JAIP",
    "VenueAddress": "Sunny Trade Center, 3rd Floor, New Aatish Market, Jaipur, Rajasthan 302020, India",
    "VenueCode": "ISTJ",
    "VenueName": "INOX: Sunny Trade Center, Jaipur"
  },
  "JAGG": {
    "AvailableFormats": "2D",
    "City": "Guna",
    "Latitude": "24.6499",
    "Longitude": "77.3141",
    "RegionCode": "GUNA",
    "State": "Madhya Pradesh",
    "SubRegionCode": "GUNA",
    "VenueAddress": "Karnal Ganj, Haat Road, Piproda Khurd, Guna, Madhya Pradesh 473001, India",
    "VenueCode": "JAGG",
    "VenueName": "Jagat Talkies: Guna"
  },
  "JCCZ": {
    "AvailableFormats": "2D",
    "City": "Forbesganj",
    "Latitude": "26.3014",
    "Longitude": "87.2607",
    "RegionCode": "FORB",
    "State": "Bihar",
    "SubRegionCode": "FORB",
    "VenueAddress": "Ram Manohar Lohiya Road, Hospital Road, Near India Breakfast Shop, Forbesganj, Bihar 854318, India",
    "VenueCode": "JCCZ",
    "VenueName": "Jyoti Cinema: Forbesganj"
  },
  "JCVM": {
    "AvailableFormats": "2D",
    "City": "Villupuram",
    "Latitude": "11.9412",
    "Longitude": "79.4939",
    "RegionCode": "VILL",
    "State": "Tamil Nadu",
    "SubRegionCode": "VILL",
    "VenueAddress": "716, Nehruji Road,Villupuram, Mandhakarai, Villupuram, Tamil Nadu 605602, India",
    "VenueCode": "JCVM",
    "VenueName": "Janas Cinemas: Maghalakshmi Plaazaa Villupuram"
  },
  "JHVN": {
    "AvailableFormats": "2D",
    "City": "Varanasi",
    "Latitude": "25.3358",
    "Longitude": "82.9773",
    "RegionCode": "VAR",
    "State": "Uttar Pradesh",
    "SubRegionCode": "VAR",
    "VenueAddress": "JHV Mall, The Mall Road, Cantonment, Varanasi Cantt, Near Nehru Park, Varanasi, Uttar Pradesh 221001, India",
    "VenueCode": "JHVN",
    "VenueName": "JHV Cinemas: Varanasi"
  },
  "JMAX": {
    "AvailableFormats": "2D",
    "City": "Kochi",
    "Latitude": "10.0231",
    "Longitude": "76.4502",
    "RegionCode": "KOCH",
    "State": "Kerala",
    "SubRegionCode": "KOCH",
    "VenueAddress": "Pattimattom PO,Pattimattom,Kerala, Near South Indian Bank, Kochi, Kerala 683562, India",
    "VenueCode": "JMAX",
    "VenueName": "J MAX  2K 3D Dolby 7.1: PATTIMATTOM"
  },
  "JOTG": {
    "AvailableFormats": "2D",
    "City": "Chennai",
    "Latitude": "13.0061",
    "Longitude": "80.2014",
    "RegionCode": "CHEN",
    "State": "Tamil Nadu",
    "SubRegionCode": "CHEN",
    "VenueAddress": "Alandur - Parangimalai, Parade Road, Near Kathipara Junction, Chennai, Tamil Nadu 600016, India",
    "VenueCode": "JOTG",
    "VenueName": "Jothi Theatre 4K A/c DTS: ST Thomas Mount"
  },
  "JTBL": {
    "AvailableFormats": "2D",
    "City": "Vizag (Visakhapatnam)",
    "Latitude": "17.7217",
    "Longitude": "83.2032",
    "RegionCode": "SABB",
    "State": "Andhra Pradesh",
    "SubRegionCode": "SABB",
    "VenueAddress": "No.6-175/20, Sheela Nagar, Beside Ayyapa Swamy Temple, Vizag, Andhra Pradesh 530012, India",
    "VenueCode": "JTBL",
    "VenueName": "STBL Cine World, Sheelanagar: Vizag"
  },
  "JTLC": {
    "AvailableFormats": "2D",
    "City": "Chodavaram",
    "Latitude": "17.8299",
    "Longitude": "82.9374",
    "RegionCode": "CDVM",
    "State": "Andhra Pradesh",
    "SubRegionCode": "CDVM",
    "VenueAddress": "Gunisetti Vari Veedhi, Near Vinayak Temple Nowdu Veedhi, Chodavaram, Andhra Pradesh 531036, India",
    "VenueCode": "JTLC",
    "VenueName": "Lakshmi Theatre: Chodavaram"
  },
  "JTPL": {
    "AvailableFormats": "2D",
    "City": "Chennai",
    "Latitude": "12.9697",
    "Longitude": "80.1494",
    "RegionCode": "CHEN",
    "State": "Tamil Nadu",
    "SubRegionCode": "CHEN",
    "VenueAddress": "Srinivasa Perumal Koil, Rajendra Nagar, Pallavaram, Behind Pallavaram Bus Stop, Chennai, Tamil Nadu 600043, India",
    "VenueCode": "JTPL",
    "VenueName": "Janatha Theatre 4K AC DTS (JBL AUDIO): Pallavaram"
  },
  "JTTR": {
    "AvailableFormats": "2D",
    "City": "Jaisalmer",
    "Latitude": "26.9178",
    "Longitude": "70.9136",
    "RegionCode": "JSMR",
    "State": "Rajasthan",
    "SubRegionCode": "JSMR",
    "VenueAddress": "Patwon Ki Haveliyan Road,Amar Sagar Pol,Jaisalmer, Rajasthan 345001, India",
    "VenueCode": "JTTR",
    "VenueName": "Ramesh Talkies: Jaisalmer"
  },
  "JVRM": {
    "AvailableFormats": "2D",
    "City": "Pondicherry",
    "Latitude": "11.9371",
    "Longitude": "79.8226",
    "RegionCode": "AURV",
    "State": "Tamil Nadu",
    "SubRegionCode": "AURV",
    "VenueAddress": "No. 65, Kamaraj Salai, Opposite Hotel Jayaram, Near Punjab National Bank, Pondicherry, Tamil Nadu 605011, India",
    "VenueCode": "JVRM",
    "VenueName": "Jeeva Rukmani Cinemas 4K RGB ATMOS: Pondicherry"
  },
  "KACI": {
    "AvailableFormats": "2D",
    "City": "Balurghat",
    "Latitude": "25.2256",
    "Longitude": "88.7754",
    "RegionCode": "BALU",
    "State": "West Bengal",
    "SubRegionCode": "BALU",
    "VenueAddress": "Chakbhabani, Near Head Post Office, Balurghat, West Bengal 733101, India",
    "VenueCode": "KACI",
    "VenueName": "Kalyani Balurghat(LaserProjector,5.1Digital Sound)"
  },
  "KAVE": {
    "AvailableFormats": "2D",
    "City": "Coimbatore",
    "Latitude": "11.0192",
    "Longitude": "76.9639",
    "RegionCode": "COIM",
    "State": "Tamil Nadu",
    "SubRegionCode": "COIM",
    "VenueAddress": "No 167, Dr Rajendraprasad Road (100 ft road), Karpagam Cine Complex, Gandhipuram, Coimbatore, Tamil Nadu 641012, India",
    "VenueCode": "KAVE",
    "VenueName": "Kaveri Cinema: Coimbatore"
  },
  "KCJS": {
    "AvailableFormats": "2D",
    "City": "Jhansi",
    "Latitude": "25.4482",
    "Longitude": "78.5675",
    "RegionCode": "JNSI",
    "State": "Uttar Pradesh",
    "SubRegionCode": "JNSI",
    "VenueAddress": "Civil Lines-5, 165, Prathvipur, Jhansi Elite - Shivpuri Road, Behind HDFC Bank, Jhansi, Uttar Pradesh 284001, India",
    "VenueCode": "KCJS",
    "VenueName": "Khilona Cinema: Jhansi"
  },
  "KCSR": {
    "AvailableFormats": "2D",
    "City": "Shrirampur",
    "Latitude": "19.6165",
    "Longitude": "74.6566",
    "RegionCode": "SHUR",
    "State": "Maharashtra",
    "SubRegionCode": "SHUR",
    "VenueAddress": "Kishor Cineplex, Shivaji Road, Shrirampur, Maharashtra 413709, India",
    "VenueCode": "KCSR",
    "VenueName": "Kishor Cineplex: Shrirampur"
  },
  "KGCM": {
    "AvailableFormats": "2D",
    "City": "Coimbatore",
    "Latitude": "11.0001",
    "Longitude": "76.9721",
    "RegionCode": "COIM",
    "State": "Tamil Nadu",
    "SubRegionCode": "COIM",
    "VenueAddress": "No.3, Bungalow Road, Race Course, Near K G Hospital, Coimbatore, Tamil Nadu 641018, India",
    "VenueCode": "KGCM",
    "VenueName": "KG Cinemas: Coimbatore"
  },
  "KKMB": {
    "AvailableFormats": "2D",
    "City": "Navi Mumbai",
    "Latitude": "19.101",
    "Longitude": "73.0102",
    "RegionCode": "MUMBAI",
    "State": "Maharashtra",
    "SubRegionCode": "THAN",
    "VenueAddress": "Bonkode Road, Near Railway Station,Sector 8, RS Regency Road, Kopar Khairane, Navi Mumbai, Maharashtra 400709, India",
    "VenueCode": "KKMB",
    "VenueName": "BMX Cinemas (Balaji Movieplex): Koparkhairane"
  },
  "KLPA": {
    "AvailableFormats": "2D",
    "City": "Udupi",
    "Latitude": "13.3362",
    "Longitude": "74.7505",
    "RegionCode": "MANI",
    "State": "Karnataka",
    "SubRegionCode": "MANI",
    "VenueAddress": "Kadekoppala, Chitpady, Udupi, Karnataka 576101, India",
    "VenueCode": "KLPA",
    "VenueName": "Kalpana Theatre: Udupi"
  },
  "KMTV": {
    "AvailableFormats": "2D",
    "City": "Vadakara",
    "Latitude": "11.5927",
    "Longitude": "75.5903",
    "RegionCode": "VDKR",
    "State": "Kerala",
    "SubRegionCode": "VDKR",
    "VenueAddress": "Edodi, Near ICICI Bank Vadakara, Vadakara, Kerala 673101, India",
    "VenueCode": "KMTV",
    "VenueName": "Kirthi Mudra 4K RGB Laser Dolby Atmos"
  },
  "KRCC": {
    "AvailableFormats": "2D",
    "City": "Coimbatore",
    "Latitude": "11.0345",
    "Longitude": "76.9274",
    "RegionCode": "COIM",
    "State": "Tamil Nadu",
    "SubRegionCode": "COIM",
    "VenueAddress": "11/52, Thadagam Road, Edayarpalayam, Koilmedu, Coimbatore, Tamil Nadu 641025, India",
    "VenueCode": "KRCC",
    "VenueName": "Krithika Cinemas A/C 4K Dolby : Coimbatore"
  },
  "KRTA": {
    "AvailableFormats": "2D",
    "City": "Kazhakkoottam",
    "Latitude": "8.5664",
    "Longitude": "76.875",
    "RegionCode": "TRIV",
    "State": "Kerala",
    "SubRegionCode": "TRIV",
    "VenueAddress": "NH 47, Bypass Road, Near Bhima Theatre, Kazhakkoottam, Kerala 695582, India",
    "VenueCode": "KRTA",
    "VenueName": "Krishna Theatre: Kazhakkoottam"
  },
  "KSNT": {
    "AvailableFormats": "2D",
    "City": "Trivandrum",
    "Latitude": "8.48888",
    "Longitude": "76.9532",
    "RegionCode": "TRIV",
    "State": "Kerala",
    "SubRegionCode": "TRIV",
    "VenueAddress": "Aristo Junction, Thampanoor, Near Hotel Galaxy Park, Trivandrum, Kerala 695014, India",
    "VenueCode": "KSNT",
    "VenueName": "Kairali Sree Nila RGB Laser 4K Dolby Atmos"
  },
  "KTBR": {
    "AvailableFormats": "2D",
    "City": "Boisar",
    "Latitude": "19.7963",
    "Longitude": "72.7523",
    "RegionCode": "DHAU",
    "State": "Maharashtra",
    "SubRegionCode": "DHAU",
    "VenueAddress": "At Saravali S. No. 108, Nawapur Road, Boisar, Maharashtra 401501, India",
    "VenueCode": "KTBR",
    "VenueName": "KT Multivision Cinema: Boisar"
  },
  "KVSW": {
    "AvailableFormats": "2D",
    "City": "Chhatrapati Sambhajinagar (Aurangabad)",
    "Latitude": "19.8379",
    "Longitude": "75.2524",
    "RegionCode": "AURA",
    "State": "Maharashtra",
    "SubRegionCode": "AURA",
    "VenueAddress": "Khinvasara Business centre lot No. X-310/1 MIDC Waluj, More Chawk, Beside Police station, Chhatrapati Sambhaji Nagar, Chhatrapati Sambhajinagar (Aurangabad), Maharashtra 431136, India",
    "VenueCode": "KVSW",
    "VenueName": "Khinvasara Cineplex: Waluj"
  },
  "LCBK": {
    "AvailableFormats": "2D",
    "City": "Kolkata",
    "Latitude": "22.7273",
    "Longitude": "88.48",
    "RegionCode": "BSRT",
    "State": "West Bengal",
    "SubRegionCode": "BSRT",
    "VenueAddress": "Krishnanagar Road, Norpara Halabot Tala, Barasat, Opposite Union Bank Of India Barasat Branch, Kolkata, West Bengal 700125, India",
    "VenueCode": "LCBK",
    "VenueName": "Lali Cinema: Barasat"
  },
  "LCSO": {
    "AvailableFormats": "2D",
    "City": "Ottapalam",
    "Latitude": "10.7734",
    "Longitude": "76.4259",
    "RegionCode": "PLKK",
    "State": "Kerala",
    "SubRegionCode": "PLKK",
    "VenueAddress": "Ponnani Road, Lakkidi Koottupatha, Ottapalam, Kerala 679301, India",
    "VenueCode": "LCSO",
    "VenueName": "Ladder Cinemas: Ottapalam - 4k Dolby Atmos/2k 7.1"
  },
  "LISA": {
    "AvailableFormats": "2D",
    "City": "Sehore",
    "Latitude": "23.2016",
    "Longitude": "77.0796",
    "RegionCode": "SEHO",
    "State": "Madhya Pradesh",
    "SubRegionCode": "SEHO",
    "VenueAddress": "42, Sindhi Colony, Main Road, Near State bank of India, Next to City Post Office, Sehore, Madhya Pradesh 466001, India",
    "VenueCode": "LISA",
    "VenueName": "Lisa Multiplex Screen 1: Sehore"
  },
  "LKTH": {
    "AvailableFormats": "2D",
    "City": "Bengaluru",
    "Latitude": "12.9253",
    "Longitude": "77.6076",
    "RegionCode": "HOKT",
    "State": "Karnataka",
    "SubRegionCode": "HOKT",
    "VenueAddress": "Near to Bangalore Dairy BTM Layout, Balaji Nagar, Tavarekere Road, Opposite to Forum Mall, Bengaluru, Karnataka 560081, India",
    "VenueCode": "LKTH",
    "VenueName": "Lakshmi Cinema 4K Dolby Atmos RGB Laser Tavarekere"
  },
  "LMHO": {
    "AvailableFormats": "2D|3D",
    "City": "Hosur",
    "Latitude": "12.7422",
    "Longitude": "77.8288",
    "RegionCode": "HSUR",
    "State": "Tamil Nadu",
    "SubRegionCode": "HSUR",
    "VenueAddress": "Survy No- 518/1A, Plot No.205-A, NHS Hosur, Phase VII, Krishnagiri, Hosur, Tamil Nadu 635109, India",
    "VenueCode": "LMHO",
    "VenueName": "Lakshmi Cinemas RGB Laser QSC Dolby Atmos: Hosur"
  },
  "LSCM": {
    "AvailableFormats": "2D",
    "City": "Gurugram (Gurgaon)",
    "Latitude": "28.4347",
    "Longitude": "77.0681",
    "RegionCode": "NCR",
    "State": "NCR",
    "SubRegionCode": "GURG",
    "VenueAddress": "Mall Fifty One 104, Sector 51, Gurugram (Gurgaon), NCR 122003, India",
    "VenueCode": "LSCM",
    "VenueName": "Legend Cinema Lounges: Mall Fifty One, Gurgaon"
  },
  "LXTK": {
    "AvailableFormats": "2D",
    "City": "Kakinada",
    "Latitude": "16.9442",
    "Longitude": "82.2361",
    "RegionCode": "KAKI",
    "State": "Andhra Pradesh",
    "SubRegionCode": "KAKI",
    "VenueAddress": "D No. 42-1-11, Vallabhai Street, Cinema Road, Suryanarayana Puram, Kakinada, Andhra Pradesh 533001, India",
    "VenueCode": "LXTK",
    "VenueName": "Laxmi  A/C  Dts 2K: Kakinada"
  },
  "MACB": {
    "AvailableFormats": "2D|3D",
    "City": "Banswara",
    "Latitude": "23.5537",
    "Longitude": "74.4264",
    "RegionCode": "BANS",
    "State": "Rajasthan",
    "SubRegionCode": "BANS",
    "VenueAddress": "3rd Floor, Nakshatra Mall, Udaipur Dungarpur Link Road, Banswara, Rajasthan 327001, India",
    "VenueCode": "MACB",
    "VenueName": "Mukta A2 Cinemas: Nakshatra Mall, Banswara"
  },
  "MAGH": {
    "AvailableFormats": "2D",
    "City": "Station Ghanpur",
    "Latitude": "17.8528",
    "Longitude": "79.3762",
    "RegionCode": "STGH",
    "State": "Telangana",
    "SubRegionCode": "STGH",
    "VenueAddress": "Palakurthy Road, Uppugal - Ghanpur Road, Station Ghanpur, Telangana 506144, India",
    "VenueCode": "MAGH",
    "VenueName": "Mahalaxmi Cinemas: Station Ghanpur"
  },
  "MAOU": {
    "AvailableFormats": "2D",
    "City": "Routhulapudi",
    "Latitude": "17.3789",
    "Longitude": "82.3691",
    "RegionCode": "ROUT",
    "State": "Andhra Pradesh",
    "SubRegionCode": "ROUT",
    "VenueAddress": "Tuni Kathipudi Road, Nearby Lakshami Durga atoz Emporeya, Routhulapudi, Andhra Pradesh 533446, India",
    "VenueCode": "MAOU",
    "VenueName": "Maha Lakshmi Theatre: Routhulapudi"
  },
  "MAVO": {
    "AvailableFormats": "2D|3D",
    "City": "Samastipur",
    "Latitude": "25.8496",
    "Longitude": "85.7733",
    "RegionCode": "SMST",
    "State": "Bihar",
    "SubRegionCode": "SMST",
    "VenueAddress": "Fourth Floor, Vinuss One Building, NH 322, Near Pantaloon, Mohanpur, Samastipur, Bihar 848101, India",
    "VenueCode": "MAVO",
    "VenueName": "Mukta A2 Cinemas: Vinuss One Mall, Samastipur"
  },
  "MBSJ": {
    "AvailableFormats": "2D",
    "City": "Vizag (Visakhapatnam)",
    "Latitude": "17.7266",
    "Longitude": "83.2994",
    "RegionCode": "VIZA",
    "State": "Andhra Pradesh",
    "SubRegionCode": "VIZA",
    "VenueAddress": "Bupathi Surya Central Mall, 5th Floor, 43-29-53 Dondaparthy, Vizag (Visakhapatnam), Andhra Pradesh 530016, India",
    "VenueCode": "MBSJ",
    "VenueName": "Miraj Cinemas: Bupathi Surya Central, Dondaparthy"
  },
  "MCCZ": {
    "AvailableFormats": "2D",
    "City": "Ambajogai",
    "Latitude": "18.7313",
    "Longitude": "76.391",
    "RegionCode": "AMBG",
    "State": "Maharashtra",
    "SubRegionCode": "AMBG",
    "VenueAddress": "Prashant Nagar, Dr. B.R Ambedkar Road, Ambajogai, Maharashtra 431517, India",
    "VenueCode": "MCCZ",
    "VenueName": "Mohan Cinemark: Ambajogai"
  },
  "MCIK": {
    "AvailableFormats": "2D",
    "City": "Kochi",
    "Latitude": "10.0799",
    "Longitude": "76.2704",
    "RegionCode": "PALY",
    "State": "Kerala",
    "SubRegionCode": "PALY",
    "VenueAddress": "Chettibhagam Main Rd, Varapuzha, Near Christ The King Roman Catholic Church, Kochi, Kerala 683517, India",
    "VenueCode": "MCIK",
    "VenueName": "M Cinemas 4K 3D Dolby ATMOS: Varapuzha"
  },
  "MCNA": {
    "AvailableFormats": "2D|3D",
    "City": "Ahmedabad",
    "Latitude": "23.082",
    "Longitude": "72.6727",
    "RegionCode": "AHD",
    "State": "Gujarat",
    "SubRegionCode": "AHD",
    "VenueAddress": "5th floor, Vitthal Plaza, Naroda Dahegam Road, New Naroda, Opp GEB, Ahmedabad, Gujarat 382330, India",
    "VenueCode": "MCNA",
    "VenueName": "Miraj Cinemas: Vitthal Plaza, New Naroda"
  },
  "MCSD": {
    "AvailableFormats": "2D",
    "City": "Tumakuru (Tumkur)",
    "Latitude": "13.3435",
    "Longitude": "77.0943",
    "RegionCode": "TUMK",
    "State": "Karnataka",
    "SubRegionCode": "TUMK",
    "VenueAddress": "B.H.Main Road, Mandipet, Near Gubbi Gate, Near T H S Super Speciality Hospital, Tumakuru (Tumkur), Karnataka 572101, India",
    "VenueCode": "MCSD",
    "VenueName": "Maruthi Digital 4K Cinemas: B.H.Road Tumakuru"
  },
  "MCUS": {
    "AvailableFormats": "3D|2D",
    "City": "Alwar",
    "Latitude": "27.6024",
    "Longitude": "76.6314",
    "RegionCode": "ALWR",
    "State": "Rajasthan",
    "SubRegionCode": "ALWR",
    "VenueAddress": "Urban Square Galleria Mall, 4th Floor, Shalimar Apna Ghar, Gate No. 1, Near Telco Chowk, Alwar, Rajasthan 301001, India",
    "VenueCode": "MCUS",
    "VenueName": "Miraj Cinemas: Urban Square Galleria Mall, Alwar"
  },
  "MEEN": {
    "AvailableFormats": "2D",
    "City": "Coimbatore",
    "Latitude": "11.0831",
    "Longitude": "77.186",
    "RegionCode": "COIM",
    "State": "Tamil Nadu",
    "SubRegionCode": "COIM",
    "VenueAddress": "Somanur Rd,Bharathiyar Nagar, Somanur,Tamil Nadu, Coimbatore, Tamil Nadu 641668, India",
    "VenueCode": "MEEN",
    "VenueName": "Meenambiga Cinemas A/C 2K DOLBY ATMOS: Somanur"
  },
  "MERM": {
    "AvailableFormats": "2D",
    "City": "Noida",
    "Latitude": "28.5608",
    "Longitude": "77.3565",
    "RegionCode": "NCR",
    "State": "NCR",
    "SubRegionCode": "NOIDA",
    "VenueAddress": "4th Floor, R Cube Monad Mall, Block A, Sector 43, Noida, NCR 201303, India",
    "VenueCode": "MERM",
    "VenueName": "MovieMax Edition (Luxe): Rcube Monad Mall, Noida"
  },
  "MHCL": {
    "AvailableFormats": "2D",
    "City": "Siddhpur",
    "Latitude": "23.9244",
    "Longitude": "72.363",
    "RegionCode": "SIDD",
    "State": "Gujarat",
    "SubRegionCode": "SIDD",
    "VenueAddress": "Ground and 1st Floor, Samarth Complex, Tavadia Char Rasta, Siddhpur, Gujarat 384151, India",
    "VenueCode": "MHCL",
    "VenueName": "Movie Hub (City Light Cinema): Siddhpur"
  },
  "MIMU": {
    "AvailableFormats": "3D|2D",
    "City": "Ghaziabad",
    "Latitude": "28.6791",
    "Longitude": "77.3589",
    "RegionCode": "NCR",
    "State": "NCR",
    "SubRegionCode": "GHAZ",
    "VenueAddress": "Laxmi Plaza Block 7 Sector 5, Rajendra Nagar, Opposite To Central Bank Of India, Ghaziabad, NCR 201006, India",
    "VenueCode": "MIMU",
    "VenueName": "Miraj Cinemas: M4U, Sahibabad"
  },
  "MJMC": {
    "AvailableFormats": "2D",
    "City": "Jiaganj",
    "Latitude": "24.2375",
    "Longitude": "88.2642",
    "RegionCode": "JAGJ",
    "State": "West Bengal",
    "SubRegionCode": "JAGJ",
    "VenueAddress": "Old Laxmi Talkies, Chudipatti Road, Jiaganj, West Bengal 742123, India",
    "VenueCode": "MJMC",
    "VenueName": "Mahabir Jain Municipalty Cultural: Jiaganj"
  },
  "MKSM": {
    "AvailableFormats": "2D|3D",
    "City": "Rajahmundry",
    "Latitude": "16.9508",
    "Longitude": "81.7829",
    "RegionCode": "RJMU",
    "State": "Andhra Pradesh",
    "SubRegionCode": "RJMU",
    "VenueAddress": "SH 41, VGTPS Colony, Near Dowlaiswaram Bus Stand, Rajahmundry, Andhra Pradesh 533125, India",
    "VenueCode": "MKSM",
    "VenueName": "Muralikrishna Cinema A/C 4K 3D: Dowlaiswaram"
  },
  "MMAH": {
    "AvailableFormats": "2D|3D",
    "City": "Hyderabad",
    "Latitude": "17.4631",
    "Longitude": "78.5607",
    "RegionCode": "HYD",
    "State": "Telangana",
    "SubRegionCode": "HYD",
    "VenueAddress": "AMR Planet Mall,1,Rd,373/1 and 373.3, Trimulgherry, ECIL Road, Extn -  Moula Ali, Secunderabad, Extn - Moula Ali, Secunderabad, Hyderabad, Telangana 500040, India",
    "VenueCode": "MMAH",
    "VenueName": "MovieMax: AMR, ECIL Secunderabad"
  },
  "MMEN": {
    "AvailableFormats": "3D|2D",
    "City": "Nagpur",
    "Latitude": "21.143",
    "Longitude": "79.0803",
    "RegionCode": "NAGP",
    "State": "Maharashtra",
    "SubRegionCode": "NAGP",
    "VenueAddress": "MovieMax, 4th Floor, Variety Square, Sitabuldi, Nagpur, Maharashtra 440012, India",
    "VenueCode": "MMEN",
    "VenueName": "MovieMax: Eternity, Nagpur"
  },
  "MMOC": {
    "AvailableFormats": "2D",
    "City": "Ghaziabad",
    "Latitude": "28.7354",
    "Longitude": "77.285",
    "RegionCode": "NCR",
    "State": "NCR",
    "SubRegionCode": "GHAZ",
    "VenueAddress": "D-Block No. 2, Near Bus Stand, Loni, Ghaziabad, NCR 201102, India",
    "VenueCode": "MMOC",
    "VenueName": "Movie Magic Cinema: Ghaziabad"
  },
  "MMXI": {
    "AvailableFormats": "2D",
    "City": "Indore",
    "Latitude": "22.7481",
    "Longitude": "75.8905",
    "RegionCode": "IND",
    "State": "Madhya Pradesh",
    "SubRegionCode": "IND",
    "VenueAddress": "Gravity Mall Ware House Road Bhamor, Vijay Nagar, Indore, Madhya Pradesh 452010, India",
    "VenueCode": "MMXI",
    "VenueName": "Manmandir Miniplex: Indore"
  },
  "MNKH": {
    "AvailableFormats": "2D",
    "City": "Madurai",
    "Latitude": "9.82126",
    "Longitude": "77.9865",
    "RegionCode": "MADU",
    "State": "Tamil Nadu",
    "SubRegionCode": "MADU",
    "VenueAddress": "26, Virudhunagar Road, Madurai, Tamil Nadu 625706, India",
    "VenueCode": "MNKH",
    "VenueName": "Meenakshi theatre A/C 7.1 Surround: Thirumangalam"
  },
  "MRAA": {
    "AvailableFormats": "2D|3D",
    "City": "Hyderabad",
    "Latitude": "17.4824",
    "Longitude": "78.4487",
    "RegionCode": "HYD",
    "State": "Telangana",
    "SubRegionCode": "HYD",
    "VenueAddress": "A2A Central Mall, 4th Floor, Adarsh Nagar, Hyderabad, Telangana 500037, India",
    "VenueCode": "MRAA",
    "VenueName": "Miraj Cinemas: A2A Central Mall, Balanagar"
  },
  "MRSE": {
    "AvailableFormats": "3D|2D",
    "City": "Kadapa",
    "Latitude": "14.4635",
    "Longitude": "78.8235",
    "RegionCode": "KDPA",
    "State": "Andhra Pradesh",
    "SubRegionCode": "KDPA",
    "VenueAddress": "RSR Square , D NO. 1/700, SY NO 72/1, Dwaraka Nagar, R S Road, Nagarajupalli Village, Kadapa, Andhra Pradesh 516001, India",
    "VenueCode": "MRSE",
    "VenueName": "Mukta A2 Cinemas: RSR Square Mall"
  },
  "MSKT": {
    "AvailableFormats": "2D",
    "City": "Deoria",
    "Latitude": "26.5923",
    "Longitude": "83.6668",
    "RegionCode": "DEEO",
    "State": "Uttar Pradesh",
    "SubRegionCode": "DEEO",
    "VenueAddress": "Paragna-Silhat Panankunda, Tappa Indupur, Near Gauri Bazar Tehsil, Deoria, Uttar Pradesh 274202, India",
    "VenueCode": "MSKT",
    "VenueName": "Krishna Talkies: Gauri Bazar, Deoria"
  },
  "MTCA": {
    "AvailableFormats": "2D|3D",
    "City": "Amritsar",
    "Latitude": "31.6444",
    "Longitude": "74.8771",
    "RegionCode": "AMRI",
    "State": "Punjab",
    "SubRegionCode": "AMRI",
    "VenueAddress": "4th Floor, Omaxe Novelty Mall, 7, Lawrence Road, Joshi Colony, Amritsar, Punjab 143001, India",
    "VenueCode": "MTCA",
    "VenueName": "Movietime Cinemas: Omaxe Novelty Mall, Amritsar"
  },
  "MTJA": {
    "AvailableFormats": "2D",
    "City": "Jammu",
    "Latitude": "32.7274",
    "Longitude": "74.8458",
    "RegionCode": "JAMM",
    "State": "Jammu and Kashmir",
    "SubRegionCode": "JAMM",
    "VenueAddress": "K C Central, Indira Theater, Canal Road, Jammu Tawi, Near The Raymond Shop, Jammu, Jammu and Kashmir 180002, India",
    "VenueCode": "MTJA",
    "VenueName": "Movietime Cinemas: Jammu"
  },
  "MTPP": {
    "AvailableFormats": "3D|2D",
    "City": "Delhi",
    "Latitude": "28.7058",
    "Longitude": "77.1428",
    "RegionCode": "NCR",
    "State": "NCR",
    "SubRegionCode": "DELHI",
    "VenueAddress": "1st Floor, North Pacific Mall, KP Block Pitampura, Near Hotel City Park, Delhi, NCR 110088, India",
    "VenueCode": "MTPP",
    "VenueName": "Movietime Cinemas: Pitampura"
  },
  "MUCK": {
    "AvailableFormats": "3D|2D",
    "City": "Kalyan",
    "Latitude": "19.2602",
    "Longitude": "73.1236",
    "RegionCode": "MUMBAI",
    "State": "Maharashtra",
    "SubRegionCode": "KALYAN",
    "VenueAddress": "Triveni Grande, 4th Floor, D.B Chowk, Adharwadi Jail Road, Kalyan West, Thane, Near Don Bosco School, Kalyan, Maharashtra 421301, India",
    "VenueCode": "MUCK",
    "VenueName": "Mukta A2 Cinemas: Triveni Grande, Kalyan (West)"
  },
  "MWSS": {
    "AvailableFormats": "2D",
    "City": "Ghaziabad",
    "Latitude": "28.6828",
    "Longitude": "77.4287",
    "RegionCode": "NCR",
    "State": "NCR",
    "SubRegionCode": "GHAZ",
    "VenueAddress": "1st Floor, Plot No. A-1/1-7,8, 9, 13, 14, 15, 16 and 17, Site-III, Sihani Chungi, Meerut Road, Ghaziabad, NCR 201003, India",
    "VenueCode": "MWSS",
    "VenueName": "US Cinemas: Movie World, Sihani Chungi, Ghaziabad"
  },
  "MYAN": {
    "AvailableFormats": "2D|3D",
    "City": "Ahilyanagar (Ahmednagar)",
    "Latitude": "19.1313",
    "Longitude": "74.7301",
    "RegionCode": "AHMED",
    "State": "Maharashtra",
    "SubRegionCode": "AHMED",
    "VenueAddress": "Pipeline Road, Savedi, Ahilyanagar (Ahmednagar), Maharashtra 414003, India",
    "VenueCode": "MYAN",
    "VenueName": "MY Cinema: Ahilya Nagar"
  },
  "MYRP": {
    "AvailableFormats": "2D",
    "City": "Kollam",
    "Latitude": "8.88953",
    "Longitude": "76.5858",
    "RegionCode": "KOLM",
    "State": "Kerala",
    "SubRegionCode": "KOLM",
    "VenueAddress": "RP Mall, Level 5, Salem-Kochi Highway, Near Reliance Trends, Kollam, Kerala 691001, India",
    "VenueCode": "MYRP",
    "VenueName": "MY Cinemas, RP Mall: Kollam"
  },
  "NAMD": {
    "AvailableFormats": "2D",
    "City": "Ahmedabad",
    "Latitude": "23.0326",
    "Longitude": "72.5083",
    "RegionCode": "AHD",
    "State": "Gujarat",
    "SubRegionCode": "AHD",
    "VenueAddress": "Ground and First Floor, Block O, Mondeal Retail Park, S G Road, Ahmedabad, Gujarat 380059, India",
    "VenueCode": "NAMD",
    "VenueName": "1,Newfangled Miniplex (Twin Seat): Mondeal Park"
  },
  "NCIL": {
    "AvailableFormats": "2D|3D",
    "City": "Lucknow",
    "Latitude": "26.848",
    "Longitude": "80.9394",
    "RegionCode": "LUCK",
    "State": "Uttar Pradesh",
    "SubRegionCode": "LUCK",
    "VenueAddress": "Lalbagh Crossing, Near Dhyanidhan Park Road, Lucknow, Uttar Pradesh 226001, India",
    "VenueCode": "NCIL",
    "VenueName": "Novelty MGS Cinemas Dolby Atmos: Lalbagh"
  },
  "NCTH": {
    "AvailableFormats": "2D",
    "City": "Vizianagaram",
    "Latitude": "18.1174",
    "Longitude": "83.4003",
    "RegionCode": "JAMI",
    "State": "Andhra Pradesh",
    "SubRegionCode": "JAMI",
    "VenueAddress": "Chinna Veedhi, Balaji Nagar, MG Rd NCS Area, Near SBI Main Branch, Vizianagaram, Andhra Pradesh 535001, India",
    "VenueCode": "NCTH",
    "VenueName": "NCS 4K Laser Dolby Atmos: Vizianagaram"
  },
  "NFGD": {
    "AvailableFormats": "2D",
    "City": "Bengaluru",
    "Latitude": "12.9747",
    "Longitude": "77.6085",
    "RegionCode": "BANG",
    "State": "Karnataka",
    "SubRegionCode": "BANG",
    "VenueAddress": "Shop No. 201, 202, 203, Emporium Davanam, Ward No. 76, MG Road, Bengaluru, Karnataka 560001, India",
    "VenueCode": "NFGD",
    "VenueName": "Newfangled Miniplex (TWIN SEATED): MG Road"
  },
  "NMAD": {
    "AvailableFormats": "2D",
    "City": "Ahmedabad",
    "Latitude": "23.1023",
    "Longitude": "72.5945",
    "RegionCode": "AHD",
    "State": "Gujarat",
    "SubRegionCode": "AHD",
    "VenueAddress": "312, 3 Floor, North Plaza, Motera, Near 4D Square Mall, Ahmedabad, Gujarat 380005, India",
    "VenueCode": "NMAD",
    "VenueName": "2,Newfangled Miniplex (Twin Seat): Motera"
  },
  "NNTD": {
    "AvailableFormats": "2D",
    "City": "Jagdalpur",
    "Latitude": "19.086",
    "Longitude": "82.0227",
    "RegionCode": "JAGD",
    "State": "Chhattisgarh",
    "SubRegionCode": "JAGD",
    "VenueAddress": "Maharani Hospital, House No 1 Road, Pratap Dev Ward, Jagdalpur, Chhattisgarh 494001, India",
    "VenueCode": "NNTD",
    "VenueName": "New Narendra Theater Deluxe: Jagdalpur"
  },
  "NSGL": {
    "AvailableFormats": "2D",
    "City": "Najibabad",
    "Latitude": "29.6226",
    "Longitude": "78.3304",
    "RegionCode": "NAJI",
    "State": "Uttar Pradesh",
    "SubRegionCode": "NAJI",
    "VenueAddress": "Baba Complex, Haridwar Road,Bijnor, Near Inderlok Hotel, Najibabad, Uttar Pradesh 243003, India",
    "VenueCode": "NSGL",
    "VenueName": "SGL Miniplex: Najibabad"
  },
  "NTHV": {
    "AvailableFormats": "2D",
    "City": "Bhadravati",
    "Latitude": "13.8526",
    "Longitude": "75.7071",
    "RegionCode": "BDVT",
    "State": "Karnataka",
    "SubRegionCode": "BDVT",
    "VenueAddress": "CN Road, Old Town, Bhadravati, Karnataka 577301, India",
    "VenueCode": "NTHV",
    "VenueName": "Nethravathi A/c Theatre: Bhadravati"
  },
  "NVKY": {
    "AvailableFormats": "2D",
    "City": "Kasganj",
    "Latitude": "27.8062",
    "Longitude": "78.6432",
    "RegionCode": "KASG",
    "State": "Uttar Pradesh",
    "SubRegionCode": "KASG",
    "VenueAddress": "Nadrai Gate, Main Market Road, Kasganj, Uttar Pradesh 207123, India",
    "VenueCode": "NVKY",
    "VenueName": "Novelty Talkies: Kasganj"
  },
  "NXCC": {
    "AvailableFormats": "2D",
    "City": "Morbi",
    "Latitude": "22.842",
    "Longitude": "70.8121",
    "RegionCode": "MOBI",
    "State": "Gujarat",
    "SubRegionCode": "MOBI",
    "VenueAddress": "Morbi Kandla Bypass Road, Opposite Gayatri Aashram, Near Navlakhi, Fatak, Morbi, Gujarat 363641, India",
    "VenueCode": "NXCC",
    "VenueName": "Nexus Cinema: Morbi"
  },
  "NYSM": {
    "AvailableFormats": "2D",
    "City": "Meerut",
    "Latitude": "28.9815",
    "Longitude": "77.7044",
    "RegionCode": "MERT",
    "State": "Uttar Pradesh",
    "SubRegionCode": "MERT",
    "VenueAddress": "Satyam Palace, Municipal House No. 28, Bhudana Gate. Mohalla Swamipada, Meerut, Uttar Pradesh 250002, India",
    "VenueCode": "NYSM",
    "VenueName": "NY Satyam Cinema: Meerut"
  },
  "OMCS": {
    "AvailableFormats": "3D|2D",
    "City": "Mumbai",
    "Latitude": "19.081",
    "Longitude": "72.8445",
    "RegionCode": "MUMBAI",
    "State": "Maharashtra",
    "SubRegionCode": "MWEST",
    "VenueAddress": "Nehru Road, Madhuvan Society, Sen Nagar, Santacruz East, Mumbai, Maharashtra 400055, India",
    "VenueCode": "OMCS",
    "VenueName": "Mukta A2 Cinemas Orion: Santacruz"
  },
  "PAAS": {
    "AvailableFormats": "2D",
    "City": "Bengaluru",
    "Latitude": "12.987",
    "Longitude": "77.7368",
    "RegionCode": "HOKT",
    "State": "Karnataka",
    "SubRegionCode": "HOKT",
    "VenueAddress": "Park Square Mall, ITPB, Whitefield Road, Bengaluru, Karnataka 560066, India",
    "VenueCode": "PAAS",
    "VenueName": "PVR: Aura Park Square, Whitefield"
  },
  "PATB": {
    "AvailableFormats": "2D|3D",
    "City": "Patna",
    "Latitude": "25.6339",
    "Longitude": "85.1062",
    "RegionCode": "PATN",
    "State": "Bihar",
    "SubRegionCode": "PATN",
    "VenueAddress": "Patliputra Industrial Area, Patliputra Kurji Road, Patliputra, Near Loyola School, Patna, Bihar 800013, India",
    "VenueCode": "PATB",
    "VenueName": "Cinepolis: P&M Mall, Patna"
  },
  "PBOX": {
    "AvailableFormats": "2D",
    "City": "Dimapur",
    "Latitude": "25.9112",
    "Longitude": "93.7308",
    "RegionCode": "DMPR",
    "State": "Nagaland",
    "SubRegionCode": "DMPR",
    "VenueAddress": "Playbox, Ward No 5 (6), Burma Camp Junction, Near Hotel Falcon, Dimapur, Nagaland 797112, India",
    "VenueCode": "PBOX",
    "VenueName": "FUN Cinemas Playbox Cinema: Dimapur"
  },
  "PCBV": {
    "AvailableFormats": "",
    "City": "Varanasi",
    "Latitude": "25.4181",
    "Longitude": "82.8823",
    "RegionCode": "VAR",
    "State": "Uttar Pradesh",
    "SubRegionCode": "VAR",
    "VenueAddress": "Satomahua, Babatpur Airport Road, Sehmalpur, Near FCI Godown, Varanasi, Uttar Pradesh 221105, India",
    "VenueCode": "PCBV",
    "VenueName": "Pari Cineplex: Babatpur, Varanasi"
  },
  "PCKC": {
    "AvailableFormats": "2D",
    "City": "Kangra",
    "Latitude": "32.1162",
    "Longitude": "76.2826",
    "RegionCode": "KANG",
    "State": "Himachal Pradesh",
    "SubRegionCode": "KANG",
    "VenueAddress": "Dharamshala Palampur Road, Near Fortis Hospital, Kangra, Himachal Pradesh 176001, India",
    "VenueCode": "PCKC",
    "VenueName": "Prime Cinemas: Kangra"
  },
  "PCNM": {
    "AvailableFormats": "2D",
    "City": "Kochi",
    "Latitude": "9.9396",
    "Longitude": "76.3311",
    "RegionCode": "PALY",
    "State": "Kerala",
    "SubRegionCode": "PALY",
    "VenueAddress": "Nucleus Mall, Maradu, Kochi-Madurai-Tondi Point Hwy, Kochi, Kerala 682304, India",
    "VenueCode": "PCNM",
    "VenueName": "PAN Cinemas Nucleus Mall 4K ATMOS"
  },
  "PCSK": {
    "AvailableFormats": "2D",
    "City": "Kanpur",
    "Latitude": "26.5596",
    "Longitude": "80.2186",
    "RegionCode": "KANP",
    "State": "Uttar Pradesh",
    "SubRegionCode": "KANP",
    "VenueAddress": "Shadipur, Mandhana, Kanpur, Uttar Pradesh 209217, India",
    "VenueCode": "PCSK",
    "VenueName": "PP Cinemall: Mandhana, Kanpur"
  },
  "PDCP": {
    "AvailableFormats": "2D|3D|ICE|ICE 3D",
    "City": "Pune",
    "Latitude": "18.538",
    "Longitude": "73.9079",
    "RegionCode": "PUNE",
    "State": "Maharashtra",
    "SubRegionCode": "PUNE",
    "VenueAddress": "KOPA Mall,37 H.No.3 Plus 4/2, Ghorpadi, Mundhwa Road, Pune, Maharashtra 411001, India",
    "VenueCode": "PDCP",
    "VenueName": "PVR: Directors Cut, KOPA, Pune"
  },
  "PDRD": {
    "AvailableFormats": "2D|3D",
    "City": "Bengaluru",
    "Latitude": "12.9741",
    "Longitude": "77.5521",
    "RegionCode": "HOKT",
    "State": "Karnataka",
    "SubRegionCode": "HOKT",
    "VenueAddress": "92, Magadi Road Tollgate, Next To GT World Mall, Bengaluru, Karnataka 560023, India",
    "VenueCode": "PDRD",
    "VenueName": "Prasanna Digital 4K Cinema: Magadi Road"
  },
  "PETK": {
    "AvailableFormats": "2D",
    "City": "Kharsia",
    "Latitude": "21.9837",
    "Longitude": "83.1068",
    "RegionCode": "KHAS",
    "State": "Chhattisgarh",
    "SubRegionCode": "KHAS",
    "VenueAddress": "Near Hotel Pihu palace, Kharsia - Dabhara Road, Kharsia, Chhattisgarh 496661, India",
    "VenueCode": "PETK",
    "VenueName": "Pihu Entertainment: Kharsia"
  },
  "PGFD": {
    "AvailableFormats": "2D|3D|4DX",
    "City": "Bengaluru",
    "Latitude": "12.9404",
    "Longitude": "77.525",
    "RegionCode": "BANG",
    "State": "Karnataka",
    "SubRegionCode": "BANG",
    "VenueAddress": "PVR Global Mall, 3rd Floor Mysore Road , Pantharapalya, Kengeri Hobli, South Taluk, Nayanda Halli, Bengaluru, Karnataka 560039, India",
    "VenueCode": "PGFD",
    "VenueName": "PVR: Global Mall, Mysore Road, Bengaluru"
  },
  "PHCS": {
    "AvailableFormats": "2D",
    "City": "Chanchal",
    "Latitude": "25.39",
    "Longitude": "88.0081",
    "RegionCode": "CCWC",
    "State": "West Bengal",
    "SubRegionCode": "CCWC",
    "VenueAddress": "Near Baromaa Bhandar, Samsi Road, Chanchal, West Bengal 732123, India",
    "VenueCode": "PHCS",
    "VenueName": "Puspa Cinema Hall: Chanchal"
  },
  "PIPP": {
    "AvailableFormats": "2D|IMAX 2D|3D",
    "City": "Mumbai",
    "Latitude": "18.9952",
    "Longitude": "72.8241",
    "RegionCode": "MUMBAI",
    "State": "Maharashtra",
    "SubRegionCode": "MCENT",
    "VenueAddress": "High Street Phoenix, Extension of Entry Road to Phoenix, Senapati Bapat Marg, Lower Parel (W), Mumbai, Maharashtra 400013, India",
    "VenueCode": "PIPP",
    "VenueName": "PVR ICON: Phoenix Palladium, Lower Parel Mumbai"
  },
  "PJRM": {
    "AvailableFormats": "2D",
    "City": "Armoor",
    "Latitude": "18.7879",
    "Longitude": "78.292",
    "RegionCode": "ARMO",
    "State": "Telangana",
    "SubRegionCode": "ARMO",
    "VenueAddress": "4th Floor, Jeevan Reddy Mall and Multiplex, Vidya Nagar Colony, Beside - New Bus Stand, Armoor, Telangana 503224, India",
    "VenueCode": "PJRM",
    "VenueName": "PVR: Jeevan Reddy Mall, Armoor"
  },
  "PKTA": {
    "AvailableFormats": "2D",
    "City": "Alappuzha",
    "Latitude": "9.50382",
    "Longitude": "76.3282",
    "RegionCode": "CRTL",
    "State": "Kerala",
    "SubRegionCode": "CRTL",
    "VenueAddress": "NH 66, Kanjiramchira, Near Arattuvazhy Petrol Pump, Alappuzha, Kerala 688007, India",
    "VenueCode": "PKTA",
    "VenueName": "Pankaj Theatre: Alappuzha"
  },
  "PMAC": {
    "AvailableFormats": "2D",
    "City": "Kolkata",
    "Latitude": "22.6953",
    "Longitude": "88.3976",
    "RegionCode": "KOLK",
    "State": "West Bengal",
    "SubRegionCode": "KOLK",
    "VenueAddress": "Barasat Road, Sodepur, Anandalok, North 24 Paraganas, Kolkata, West Bengal 700110, India",
    "VenueCode": "PMAC",
    "VenueName": "Padma Cinema: Kolkata"
  },
  "PMDR": {
    "AvailableFormats": "2D",
    "City": "Dungarpur",
    "Latitude": "23.8267",
    "Longitude": "73.6995",
    "RegionCode": "DUNG",
    "State": "Rajasthan",
    "SubRegionCode": "DUNG",
    "VenueAddress": "Vasundra vihar, Ganesh temple road, Near sintex mill, Dungarpur, Rajasthan 314001, India",
    "VenueCode": "PMDR",
    "VenueName": "PM Cinemas: Dungarpur"
  },
  "PMPK": {
    "AvailableFormats": "2D",
    "City": "Mumbai",
    "Latitude": "19.1961",
    "Longitude": "72.8471",
    "RegionCode": "MUMBAI",
    "State": "Maharashtra",
    "SubRegionCode": "MWEST",
    "VenueAddress": "PVR Cinemas, 2nd flr, Old Milap Cinemas, S V Road, Kandivali (W), Near Reliance Digital Xpress, Mumbai, Maharashtra 400067, India",
    "VenueCode": "PMPK",
    "VenueName": "PVR: Milap, Kandivali (W)"
  },
  "PMTY": {
    "AvailableFormats": "2D",
    "City": "Mysuru (Mysore)",
    "Latitude": "12.2964",
    "Longitude": "76.6521",
    "RegionCode": "MYS",
    "State": "Karnataka",
    "SubRegionCode": "MYS",
    "VenueAddress": "Ramachandra Agrahara, Near 101 Ganapathi Temple, Mysuru (Mysore), Karnataka 570004, India",
    "VenueCode": "PMTY",
    "VenueName": "Padma Talkies: Mysuru"
  },
  "POON": {
    "AvailableFormats": "2D",
    "City": "Chodavaram",
    "Latitude": "17.8286",
    "Longitude": "82.9348",
    "RegionCode": "CDVM",
    "State": "Andhra Pradesh",
    "SubRegionCode": "CDVM",
    "VenueAddress": "Near Poorna Theatre, Venkannapalem, Visakhapatnam, Chodavaram, Andhra Pradesh 530001, India",
    "VenueCode": "POON",
    "VenueName": "Poorna Theatre A/c Dolby-7.1: Chodavaram"
  },
  "PPDA": {
    "AvailableFormats": "3D|2D",
    "City": "Delhi",
    "Latitude": "28.5525",
    "Longitude": "77.0585",
    "RegionCode": "NCR",
    "State": "NCR",
    "SubRegionCode": "DELHI",
    "VenueAddress": "PVR Cinema, Pacific Mall, Dwarka Sec-21, Metro Station New Delhi, Delhi, NCR 110077, India",
    "VenueCode": "PPDA",
    "VenueName": "PVR: Pacific, Dwarka"
  },
  "PPNX": {
    "AvailableFormats": "2D|4DX|3D",
    "City": "Bengaluru",
    "Latitude": "12.9973",
    "Longitude": "77.6957",
    "RegionCode": "HOKT",
    "State": "Karnataka",
    "SubRegionCode": "HOKT",
    "VenueAddress": "Phoenix Market City Mall, Whitefield Road, Mahadevapura, Krishnarajapura, Devasandra Industrial Estate, Bengaluru, Karnataka 560048, India",
    "VenueCode": "PPNX",
    "VenueName": "PVR: Phoenix Marketcity Mall, Whitefield Road"
  },
  "PRCN": {
    "AvailableFormats": "2D",
    "City": "Kolkata",
    "Latitude": "22.5649",
    "Longitude": "88.3683",
    "RegionCode": "KOLK",
    "State": "West Bengal",
    "SubRegionCode": "KOLK",
    "VenueAddress": "124/A, A.J.C Bose Road, Near Music Channel, Kolkata, West Bengal 700014, India",
    "VenueCode": "PRCN",
    "VenueName": "Prachi Cinema: Kolkata"
  },
  "PRHN": {
    "AvailableFormats": "2D|3D",
    "City": "Hyderabad",
    "Latitude": "17.4128",
    "Longitude": "78.4658",
    "RegionCode": "HYD",
    "State": "Telangana",
    "SubRegionCode": "HYD",
    "VenueAddress": "Khairtabad, IMAX Road, NTR Marg, Near NTR Gardens, Hyderabad, Telangana 500063, India",
    "VenueCode": "PRHN",
    "VenueName": "Prasads Multiplex: Hyderabad"
  },
  "PRTC": {
    "AvailableFormats": "2D",
    "City": "Vadodara",
    "Latitude": "22.3017",
    "Longitude": "73.2052",
    "RegionCode": "VAD",
    "State": "Gujarat",
    "SubRegionCode": "VAD",
    "VenueAddress": "Mangal Bazar, Mandvi, Near Sursagar Lake, Vadodara, Gujarat 390001, India",
    "VenueCode": "PRTC",
    "VenueName": "Pratap Cinema: Vadodara"
  },
  "PSKL": {
    "AvailableFormats": "2D",
    "City": "Chennai",
    "Latitude": "13.1917",
    "Longitude": "80.1862",
    "RegionCode": "PONE",
    "State": "Tamil Nadu",
    "SubRegionCode": "PONE",
    "VenueAddress": "4th Floor, SKLS Galaxy Mall, Survey No. 93/IC/2B, GNT Road Red Hills, Chennai, Tamil Nadu 600052, India",
    "VenueCode": "PSKL",
    "VenueName": "PVR: SKLS Galaxy Mall, Red Hills Chennai"
  },
  "PSMP": {
    "AvailableFormats": "2D|3D",
    "City": "Mangaluru (Mangalore)",
    "Latitude": "12.8582",
    "Longitude": "74.8383",
    "RegionCode": "MLR",
    "State": "Karnataka",
    "SubRegionCode": "MLR",
    "VenueAddress": "Nexus Mall, 2nd Floor, Cantonment Ward, Pandeshwar Road, Attavar, Mangaluru (Mangalore), Karnataka 575001, India",
    "VenueCode": "PSMP",
    "VenueName": "PVR: Nexus Mall, Pandeshwar, Mangalore"
  },
  "PTBC": {
    "AvailableFormats": "2D",
    "City": "Bengaluru",
    "Latitude": "12.9609",
    "Longitude": "77.5872",
    "RegionCode": "HOKT",
    "State": "Karnataka",
    "SubRegionCode": "HOKT",
    "VenueAddress": "1st Cross, J C Road, Bengaluru, Karnataka 560027, India",
    "VenueCode": "PTBC",
    "VenueName": "Swagath Poornima 4K Dolby Atmos: JC Road (New)"
  },
  "PTGK": {
    "AvailableFormats": "2D",
    "City": "Kanchipuram",
    "Latitude": "12.6273",
    "Longitude": "79.6664",
    "RegionCode": "MMNR",
    "State": "Tamil Nadu",
    "SubRegionCode": "MMNR",
    "VenueAddress": "Manampathi, Uthiramerur Road, Near Indian Bank, Kanchipuram, Tamil Nadu 603403, India",
    "VenueCode": "PTGK",
    "VenueName": "GK Poonga Theatre 4K RGB Dolby Atmos: Uthiramerur"
  },
  "PTSB": {
    "AvailableFormats": "2D",
    "City": "Saharsa",
    "Latitude": "25.8786",
    "Longitude": "86.596",
    "RegionCode": "SAHH",
    "State": "Bihar",
    "SubRegionCode": "SAHH",
    "VenueAddress": "Sant Nagar, Ward Number 30, Saharsa Bus Stand Road, Saharsa, Bihar 852201, India",
    "VenueCode": "PTSB",
    "VenueName": "Prashant (AC, 2K, Dolby): Saharsa"
  },
  "PVAA": {
    "AvailableFormats": "2D|4DX|3D",
    "City": "Ahmedabad",
    "Latitude": "23.0489",
    "Longitude": "72.5162",
    "RegionCode": "AHD",
    "State": "Gujarat",
    "SubRegionCode": "AHD",
    "VenueAddress": "2nd Floor, Acropolis Mall, Thaltej Cross Road, Near Gurudwara, Ahmedabad, Gujarat 380052, India",
    "VenueCode": "PVAA",
    "VenueName": "PVR: Acropolis, Ahmedabad"
  },
  "PVER": {
    "AvailableFormats": "IMAX 2D|2D|4DX|3D",
    "City": "Bengaluru",
    "Latitude": "12.9077",
    "Longitude": "77.6012",
    "RegionCode": "HOKT",
    "State": "Karnataka",
    "SubRegionCode": "HOKT",
    "VenueAddress": "PVR Cinemas, 4th and 5th Floor, Vega City Mall,172/1, Bannerghatta Main Road, JP Nagar 3rd Phase, Dollar Layout, Bengaluru, Karnataka 560076, India",
    "VenueCode": "PVER",
    "VenueName": "PVR: Vega City, Bannerghatta Road"
  },
  "PVKL": {
    "AvailableFormats": "2D|3D|4DX",
    "City": "Mohali",
    "Latitude": "30.6968",
    "Longitude": "76.7321",
    "RegionCode": "CHD",
    "State": "Punjab",
    "SubRegionCode": "MOLI",
    "VenueAddress": "rd Floor, Plot No. 1-2, Sector- 62, SAS NAGAR, Near - PSEB Building, Mohali, Punjab 160062, India",
    "VenueCode": "PVKL",
    "VenueName": "PVR: MOHALI WALK"
  },
  "PVND": {
    "AvailableFormats": "2D|3D",
    "City": "Narsipatnam",
    "Latitude": "17.6632",
    "Longitude": "82.6172",
    "RegionCode": "NARS",
    "State": "Andhra Pradesh",
    "SubRegionCode": "NARS",
    "VenueAddress": "PVR Sreekanya Cinemax Complex, 15-1-91, Beside RTC Complex, Main Road, Narsipatnam, Andhra Pradesh 531116, India",
    "VenueCode": "PVND",
    "VenueName": "PVR: Sree Kanya, Narsipatnam"
  },
  "PVTJ": {
    "AvailableFormats": "2D",
    "City": "Chennai",
    "Latitude": "12.9895",
    "Longitude": "80.2564",
    "RegionCode": "CHEN",
    "State": "Tamil Nadu",
    "SubRegionCode": "CHEN",
    "VenueAddress": "60, LB Road, Ranganatha Puram, Thiruvanmiyur, Chennai, Tamil Nadu 600041, India",
    "VenueCode": "PVTJ",
    "VenueName": "PVR: Theyagaraja, Thiruvanmiyur, Chennai"
  },
  "PVWW": {
    "AvailableFormats": "2D|IMAX 2D",
    "City": "Bengaluru",
    "Latitude": "12.9965",
    "Longitude": "77.6953",
    "RegionCode": "HOKT",
    "State": "Karnataka",
    "SubRegionCode": "HOKT",
    "VenueAddress": "3rd Floor, VR Mall, 408 3rd Cross, Singayana Palya, Main Whitefield Road, Mahadevpura, Bengaluru, Karnataka 560048, India",
    "VenueCode": "PVWW",
    "VenueName": "PVR: VR Bengaluru, Whitefield Road"
  },
  "PZVK": {
    "AvailableFormats": "2D|3D",
    "City": "Bengaluru",
    "Latitude": "13.0247",
    "Longitude": "77.5486",
    "RegionCode": "HOKT",
    "State": "Karnataka",
    "SubRegionCode": "HOKT",
    "VenueAddress": "3rd floor, Vaishnavi Sapphire Mall, Tumkur Main Road, Yeshwanthpur Industrial Area, Phase 1, Yeshwanthpur, Bengaluru, Karnataka 560022, India",
    "VenueCode": "PZVK",
    "VenueName": "PVR: Vaishnavi Sapphire Mall, Yeshwanthpur"
  },
  "RAHU": {
    "AvailableFormats": "2D",
    "City": "Pune",
    "Latitude": "18.5313",
    "Longitude": "73.8464",
    "RegionCode": "PUNE",
    "State": "Maharashtra",
    "SubRegionCode": "PUNE",
    "VenueAddress": "Ganeshkhind Road, Shivaji Nagar, Narveer Tanaji Wadi, Pune, Maharashtra 411004, India",
    "VenueCode": "RAHU",
    "VenueName": "Rahul 70 MM: Shivajinagar, Pune"
  },