{
  "AACN": {
    "AvailableFormats": "2D",
    "City": "Hyderabad",
    "Latitude": "17.4669",
    "Longitude": "78.3104",
    "RegionCode": "HYD",
    "State": "Telangana",
    "SubRegionCode": "HYD",
    "VenueAddress": "Nallagandla Road, HUDA Layout, Hyderabad, Telangana 500019, India",
    "VenueCode": "AACN",
    "VenueName": "Aparna Cinemas: Nallagandla"
  },
  "AASH": {
    "AvailableFormats": "2D",
    "City": "Bhandara",
    "Latitude": "21.17",
    "Longitude": "79.6562",
    "RegionCode": "BHAA",
    "State": "Maharashtra",
    "SubRegionCode": "BHAA",
    "VenueAddress": "Gandhi Square, Gandhi Chowk, Santaji Nagar, Bhandara, Maharashtra 441904, India",
    "VenueCode": "AASH",
    "VenueName": "Adarsh Chitra Mandir: Bhandara"
  },
  "ABCS": {
    "AvailableFormats": "3D|2D",
    "City": "Hyderabad",
    "Latitude": "17.4005",
    "Longitude": "78.5548",
    "RegionCode": "HYD",
    "State": "Telangana",
    "SubRegionCode": "HYD",
    "VenueAddress": "DSL Virtue Mall, 3rd Floor, Plot No. B-1, B-2B and 2, Uppal Khlasa VRR, Near Indian Oil Petrol Pump, Hyderabad, Telangana 500039, India",
    "VenueCode": "ABCS",
    "VenueName": "Cinepolis: DSL Virtue Mall Uppal, Hyderabad"
  },
  "ABTS": {
    "AvailableFormats": "2D",
    "City": "Palakollu",
    "Latitude": "16.5167",
    "Longitude": "81.7258",
    "RegionCode": "PLKL",
    "State": "Andhra Pradesh",
    "SubRegionCode": "PLKL",
    "VenueAddress": "Money Market Road, Near Kanaka Durga Maa Temple, Palakollu, Andhra Pradesh 534260, India",
    "VenueCode": "ABTS",
    "VenueName": "Adabala Theatre Screen 1: Palakollu"
  },
  "ACDC": {
    "AvailableFormats": "2D",
    "City": "Chhatarpur",
    "Latitude": "24.8849",
    "Longitude": "79.5946",
    "RegionCode": "CHHT",
    "State": "Madhya Pradesh",
    "SubRegionCode": "CHHT",
    "VenueAddress": "Green Avenue Colony, Next to Dr. Radhakrishna Higher Secondary School, Chhatarpur, Madhya Pradesh 471001, India",
    "VenueCode": "ACDC",
    "VenueName": "Ashoka Cineplex: Chhatarpur"
  },
  "ACJA": {
    "AvailableFormats": "2D",
    "City": "Surat",
    "Latitude": "21.2463",
    "Longitude": "72.7925",
    "RegionCode": "SURT",
    "State": "Gujarat",
    "SubRegionCode": "SURT",
    "VenueAddress": "6th Floor, Exxoniic Mall, Jahangirpura Variyaav Road, Near Iskon Temple, Jahangirpura, Surat, Gujarat 395005, India",
    "VenueCode": "ACJA",
    "VenueName": "Apple Cinema: Jahangirpura, Surat"
  },
  "ACMM": {
    "AvailableFormats": "2D",
    "City": "Bilimora",
    "Latitude": "20.7681",
    "Longitude": "72.9731",
    "RegionCode": "BILI",
    "State": "Gujarat",
    "SubRegionCode": "BILI",
    "VenueAddress": "Sardar Patel Market Road, Triveni Society, Maruti Nagar, Bilimora, Gujarat 396321, India",
    "VenueCode": "ACMM",
    "VenueName": "Anand Cine Magic Multiplex: Bilimora Renovated"
  },
  "ACPR": {
    "AvailableFormats": "2D",
    "City": "Payyanur",
    "Latitude": "12.1084",
    "Longitude": "75.2125",
    "RegionCode": "PAYY",
    "State": "Kerala",
    "SubRegionCode": "PAYY",
    "VenueAddress": "No 4657, Kokkanissery Road, Payyanur, Kerala 670307, India",
    "VenueCode": "ACPR",
    "VenueName": "Archana Cineplex RGB Laser 4K 3D ATMOS: Payyanur"
  },
  "ACVM": {
    "AvailableFormats": "2D",
    "City": "Chennai",
    "Latitude": "13.1047",
    "Longitude": "80.209",
    "RegionCode": "PONE",
    "State": "Tamil Nadu",
    "SubRegionCode": "PONE",
    "VenueAddress": "No. 1/1, Mettu Street Villivakkam, Behind, Villivakkam Bus Depot, Chennai, Tamil Nadu 600049, India",
    "VenueCode": "ACVM",
    "VenueName": "AGS Cinemas: Villivakkam"
  },
  "ADDC": {
    "AvailableFormats": "2D",
    "City": "Lucknow",
    "Latitude": "26.8362",
    "Longitude": "81.002",
    "RegionCode": "LUCK",
    "State": "Uttar Pradesh",
    "SubRegionCode": "LUCK",
    "VenueAddress": "1/23, Vardan Khand, Sector 1, Gomti Nagar, Makhdoom Pur, Lucknow, Uttar Pradesh 226010, India",
    "VenueCode": "ADDC",
    "VenueName": "Antas DD Cinemas: Lucknow"
  },
  "AGSG": {
    "AvailableFormats": "2D",
    "City": "Hoshiarpur",
    "Latitude": "31.3192",
    "Longitude": "76.0614",
    "RegionCode": "HOSH",
    "State": "Punjab",
    "SubRegionCode": "HOSH",
    "VenueAddress": "AG Star Cinemaz and Fitness, DTF ( Drive Thru Food ) on Chandigarh Hoshiarpur Highway, Near Sahota Petro Village Badhowan Saila Khurd, Hoshiarpur, Punjab 144529, India",
    "VenueCode": "AGSG",
    "VenueName": "AG Star Cinema: Saila Khurd"
  },
  "AKCH": {
    "AvailableFormats": "2D",
    "City": "Kollam",
    "Latitude": "8.81261",
    "Longitude": "76.6716",
    "RegionCode": "KOLM",
    "State": "Kerala",
    "SubRegionCode": "KOLM",
    "VenueAddress": "Paravur, North Paravur Road, Near ValluVally Juma Masjid, Kollam, Kerala 691301, India",
    "VenueCode": "AKCH",
    "VenueName": "Ashok Cine House: Paravur"
  },
  "AKTN": {
    "AvailableFormats": "2D",
    "City": "Kanchipuram",
    "Latitude": "12.8313",
    "Longitude": "79.7091",
    "RegionCode": "KNPM",
    "State": "Tamil Nadu",
    "SubRegionCode": "KNPM",
    "VenueAddress": "Ennaikaran, Railway Road, Kanchipuram, Tamil Nadu 631501, India",
    "VenueCode": "AKTN",
    "VenueName": "Aruna Cinemas RGB Laser 4K AC Dolby Atmos"
  },
  "ALUC": {
    "AvailableFormats": "2D",
    "City": "Hyderabad",
    "Latitude": "17.3896272",
    "Longitude": "78.3438856",
    "RegionCode": "HYD",
    "State": "Telangana",
    "SubRegionCode": "HYD",
    "VenueAddress": "Plot 20, Adjacent to Allu Studios, Power Welfare Society, Narsingi, Hyderabad, Telangana 500075, India",
    "VenueCode": "ALUC",
    "VenueName": "ALLU Cinemas: Kokapet"
  },
  "AMDK": {
    "AvailableFormats": "2D",
    "City": "Devarakonda",
    "Latitude": "16.6908",
    "Longitude": "78.9227",
    "RegionCode": "DEVK",
    "State": "Telangana",
    "SubRegionCode": "DEVK",
    "VenueAddress": "Devarakonda Road, Mallepally Road, Near State Bank of India ATM, Devarakonda, Telangana 508248, India",
    "VenueCode": "AMDK",
    "VenueName": "Asian Manoj: Devarakonda"
  },
  "AMOE": {
    "AvailableFormats": "3D|2D",
    "City": "Amravati",
    "Latitude": "20.8983",
    "Longitude": "77.7477",
    "RegionCode": "AMRA",
    "State": "Maharashtra",
    "SubRegionCode": "AMRA",
    "VenueAddress": "Elite Mall, Guruchhaya Colony, Saturna, Sai Nagar,Badnera Road, Near Bhakti Dham Mandir, Amravati, Maharashtra 444607, India",
    "VenueCode": "AMOE",
    "VenueName": "E Orbit Multiplex: Amravati"
  },
  "ANAN": {
    "AvailableFormats": "2D",
    "City": "Khed",
    "Latitude": "17.7125",
    "Longitude": "73.4093",
    "RegionCode": "KHED",
    "State": "Maharashtra",
    "SubRegionCode": "KHED",
    "VenueAddress": "Near Nagarpalika, Khed Dapoli Road, Khed, Maharashtra 415709, India",
    "VenueCode": "ANAN",
    "VenueName": "City Pride: Annand"
  },
  "ANNK": {
    "AvailableFormats": "2D",
    "City": "Kothamangalam",
    "Latitude": "10.063",
    "Longitude": "76.6202",
    "RegionCode": "KTMM",
    "State": "Kerala",
    "SubRegionCode": "KTMM",
    "VenueAddress": "Dhanushkodi Rd, Kothamangalam, Near Kothamangalam Bus Stand, Kothamangalam, Kerala 686666, India",
    "VenueCode": "ANNK",
    "VenueName": "ANN Cinema Complex 4K 3D Dolby Atmos RGB LASER"
  },
  "ANTP": {
    "AvailableFormats": "2D",
    "City": "Ramachandrapuram",
    "Latitude": "16.83799",
    "Longitude": "82.02889",
    "RegionCode": "RCPR",
    "State": "Andhra Pradesh",
    "SubRegionCode": "RCPR",
    "VenueAddress": "Ramachandrapuram Road, Ramachandrapuram, Andhra Pradesh 533255, India",
    "VenueCode": "ANTP",
    "VenueName": "Annapurna A/C 2K Dolby 7.1 : Ramachandrapuram"
  },
  "APCX": {
    "AvailableFormats": "2D",
    "City": "Punalur",
    "Latitude": "9.01592",
    "Longitude": "76.939",
    "RegionCode": "PUNA",
    "State": "Kerala",
    "SubRegionCode": "PUNA",
    "VenueAddress": "Kalayanad, Kollam Thirumangalam Road, Punalur, Kerala 691305, India",
    "VenueCode": "APCX",
    "VenueName": "ARIESPLEX PUNALUR RGB LASER 4K ATMOS"
  },
  "APRK": {
    "AvailableFormats": "2D",
    "City": "Kamareddy",
    "Latitude": "18.3256",
    "Longitude": "78.3327",
    "RegionCode": "KMRD",
    "State": "Telangana",
    "SubRegionCode": "KMRD",
    "VenueAddress": "Vivekananda Colony, Ashok Nagar, Kamareddy, Telangana 503111, India",
    "VenueCode": "APRK",
    "VenueName": "Asian Priya Cineplex: Kamareddy"
  },
  "ARBL": {
    "AvailableFormats": "2D",
    "City": "Buldana",
    "Latitude": "20.5467",
    "Longitude": "76.1763",
    "RegionCode": "BULD",
    "State": "Maharashtra",
    "SubRegionCode": "BULD",
    "VenueAddress": "ARD Green Valley, Malkapur Road, Opposite Hero Honda Showroom, Buldana, Maharashtra 443001, India",
    "VenueCode": "ARBL",
    "VenueName": "ARD Cinemall: Buldana"
  },
  "ARRO": {
    "AvailableFormats": "2D",
    "City": "Ooty",
    "Latitude": "11.4145",
    "Longitude": "76.709",
    "RegionCode": "OOTY",
    "State": "Tamil Nadu",
    "SubRegionCode": "OOTY",
    "VenueAddress": "Garden Road, Pudumund, Ooty, Tamil Nadu 643001, India",
    "VenueCode": "ARRO",
    "VenueName": "The Assembly Rooms: Ooty"
  },
  "ASCC": {
    "AvailableFormats": "2D",
    "City": "Coimbatore",
    "Latitude": "10.9599",
    "Longitude": "76.9808",
    "RegionCode": "COIM",
    "State": "Tamil Nadu",
    "SubRegionCode": "COIM",
    "VenueAddress": "231, Sundarapuram,Podanur, Sarada Mill Road, Near Podanur Panchayat Office, Coimbatore, Tamil Nadu 641023, India",
    "VenueCode": "ASCC",
    "VenueName": "Arasan Cinemas A/C 4K Dolby: Coimbatore"
  },
  "ASJY": {
    "AvailableFormats": "2D",
    "City": "Hyderabad",
    "Latitude": "17.5028",
    "Longitude": "78.3122",
    "RegionCode": "HYD",
    "State": "Telangana",
    "SubRegionCode": "HYD",
    "VenueAddress": "Jyothi Nagar, Ashok Nagar, Chanda Nagar, Opposite TVS Motors, Near Brilliant Junior College, Hyderabad, Telangana 502032, India",
    "VenueCode": "ASJY",
    "VenueName": "Asian Jyothi: RC Puram"
  },
  "ASNT": {
    "AvailableFormats": "2D",
    "City": "Adilabad",
    "Latitude": "19.6748",
    "Longitude": "78.5315",
    "RegionCode": "ADIL",
    "State": "Telangana",
    "SubRegionCode": "ADIL",
    "VenueAddress": "Bhuktapur, Near IDBI Bank, Near Hanuman Temple, Adilabad, Telangana 504001, India",
    "VenueCode": "ASNT",
    "VenueName": "Asian Nataraj: Adilabad"
  },
  "ASTB": {
    "AvailableFormats": "2D",
    "City": "Bengaluru",
    "Latitude": "13.0807",
    "Longitude": "77.5011",
    "RegionCode": "HOKT",
    "State": "Karnataka",
    "SubRegionCode": "HOKT",
    "VenueAddress": "23, Chikkabanavara, Hesarghatta Main Rd, Near Chikkabanavara Circle, Bengaluru, Karnataka 560090, India",
    "VenueCode": "ASTB",
    "VenueName": "Ashoka Cinemas - Dolby Laser: Chikkabanavara"
  },
  "ATAM": {
    "AvailableFormats": "",
    "City": "Batlagundu",
    "Latitude": "10.2275",
    "Longitude": "77.7483",
    "RegionCode": "BTGD",
    "State": "Tamil Nadu",
    "SubRegionCode": "BTGD",
    "VenueAddress": "Ayyampalayam, Dindugal Road, Near State Bank of India, Batlagundu, Tamil Nadu 624204, India",
    "VenueCode": "ATAM",
    "VenueName": "Alagesan Theatre: Ayyampalayam"
  },
  "ATKT": {
    "AvailableFormats": "2D",
    "City": "Kottayam",
    "Latitude": "9.58708",
    "Longitude": "76.5226",
    "RegionCode": "ETTU",
    "State": "Kerala",
    "SubRegionCode": "ETTU",
    "VenueAddress": "Main Central Road, Tourist Bunglow Road, Near Big Bazaar, Kottayam, Kerala 686001, India",
    "VenueCode": "ATKT",
    "VenueName": "Anupama Theatre Dolby 7.1: Kottayam"
  },
  "ATUN": {
    "AvailableFormats": "2D",
    "City": "Khachrod",
    "Latitude": "23.4255",
    "Longitude": "75.2856",
    "RegionCode": "KHCU",
    "State": "Madhya Pradesh",
    "SubRegionCode": "KHCU",
    "VenueAddress": "36, Ujjain Gate, Near Gopal Mandir, Khachrod, Madhya Pradesh 456224, India",
    "VenueCode": "ATUN",
    "VenueName": "Ashok Cineplex: Khachrod"
  },
  "AVDM": {
    "AvailableFormats": "2D",
    "City": "Mahbubnagar",
    "Latitude": "16.7451",
    "Longitude": "77.9918",
    "RegionCode": "JADC",
    "State": "Telangana",
    "SubRegionCode": "JADC",
    "VenueAddress": "Shah Saheb Gutta, Boyapalle Rural, Near Sri Hanuman Temple, Mahbubnagar, Telangana 509001, India",
    "VenueCode": "AVDM",
    "VenueName": "AVD Cinemas: Mahbubnagar"
  },
  "AXMP": {
    "AvailableFormats": "2D",
    "City": "Pattambi",
    "Latitude": "10.8064",
    "Longitude": "76.1899",
    "RegionCode": "PTMB",
    "State": "Kerala",
    "SubRegionCode": "PTMB",
    "VenueAddress": "Alex Theatre, Kaithali Temple Road, Near ICICI Bank Pattambi, Pattambi, Kerala 679303, India",
    "VenueCode": "AXMP",
    "VenueName": "Alex Movies: Christe Rbe Laser Pattambi"
  },
  "BAKM": {
    "AvailableFormats": "2D",
    "City": "Mulugu",
    "Latitude": "18.1934",
    "Longitude": "79.9478",
    "RegionCode": "KMLA",
    "State": "Telangana",
    "SubRegionCode": "KMLA",
    "VenueAddress": "Theatre Road, Ambedkar Colony, Near Borra Honda, Mulugu, Telangana 506343, India",
    "VenueCode": "BAKM",
    "VenueName": "Balaji Air Conditioned: Mulugu"
  },
  "BBPC": {
    "AvailableFormats": "2D",
    "City": "Pusad",
    "Latitude": "19.9081",
    "Longitude": "77.5721",
    "RegionCode": "PUSD",
    "State": "Maharashtra",
    "SubRegionCode": "PUSD",
    "VenueAddress": "27, Pusad Road, Near Pusad Court, Near State Bank Of India, Pusad, Maharashtra 445204, India",
    "VenueCode": "BBPC",
    "VenueName": "Barkha Cinema: Pusad"
  },
  "BCKU": {
    "AvailableFormats": "2D|3D",
    "City": "Kundapura",
    "Latitude": "13.5862",
    "Longitude": "74.6984",
    "RegionCode": "KUNA",
    "State": "Karnataka",
    "SubRegionCode": "KUNA",
    "VenueAddress": "2nd Floor, Costal Crown, NH 66, Koteshwara, Kundapura, Karnataka 576222, India",
    "VenueCode": "BCKU",
    "VenueName": "Bharath Cinemas: Kundapura"
  },
  "BHAC": {
    "AvailableFormats": "2D",
    "City": "Bengaluru",
    "Latitude": "13.0415",
    "Longitude": "77.5175",
    "RegionCode": "HOKT",
    "State": "Karnataka",
    "SubRegionCode": "HOKT",
    "VenueAddress": "Prashanth Nagar, T. Dasarahalli, Dasara Halli Cross, Next To Rockline Mall, Bengaluru, Karnataka 560057, India",
    "VenueCode": "BHAC",
    "VenueName": "Bharathi Theatre (Peenya) A/C 4K 7.1 Dolby Digital"
  },
  "BIKB": {
    "AvailableFormats": "2D|3D",
    "City": "Belagavi (Belgaum)",
    "Latitude": "15.8588",
    "Longitude": "74.5083",
    "RegionCode": "BELG",
    "State": "Karnataka",
    "SubRegionCode": "BELG",
    "VenueAddress": "Nucleus Mall, Old Kapeel Theatre, Ramling Khind Galli, Belagavi (Belgaum), Karnataka 590002, India",
    "VenueCode": "BIKB",
    "VenueName": "Kapeel Cinema Nucleus Mall"
  },
  "BKTL": {
    "AvailableFormats": "",
    "City": "Cherukupalli",
    "Latitude": "16.0529",
    "Longitude": "80.6789",
    "RegionCode": "EHRK",
    "State": "Andhra Pradesh",
    "SubRegionCode": "EHRK",
    "VenueAddress": "3M3H+4GX, NTR Nagar, Cherukupalli, Andhra Pradesh 522309, India",
    "VenueCode": "BKTL",
    "VenueName": "Bhaskar Theater: Cherukupalli"
  },
  "BMCJ": {
    "AvailableFormats": "3D|2D",
    "City": "Jodhpur",
    "Latitude": "26.2723",
    "Longitude": "73.0033",
    "RegionCode": "JODH",
    "State": "Rajasthan",
    "SubRegionCode": "JODH",
    "VenueAddress": "4th Floor, Ashapurna Mall and Multiplex, Gaurav Path Road, Sector-E, Shastri Nagar, Near Shastri Nagar Post Office, Jodhpur, Rajasthan 342003, India",
    "VenueCode": "BMCJ",
    "VenueName": "Miraj Bioscope Cinemas: Jodhpur"
  },
  "BRKH": {
    "AvailableFormats": "2D",
    "City": "Hyderabad",
    "Latitude": "17.5002",
    "Longitude": "78.3866",
    "RegionCode": "HYD",
    "State": "Telangana",
    "SubRegionCode": "HYD",
    "VenueAddress": "Jai Bharat Nagar, Hyder Nagar, Vasantha Nagar, Kukatpally, Near Karachi Bakery, Hyderabad, Telangana 500072, India",
    "VenueCode": "BRKH",
    "VenueName": "Bhramaramba 70MM A/C 4K Dolby: Kukatpally"
  },
  "BSPC": {
    "AvailableFormats": "2D",
    "City": "Dhampur",
    "Latitude": "29.3028",
    "Longitude": "78.5065",
    "RegionCode": "DHPR",
    "State": "Uttar Pradesh",
    "SubRegionCode": "DHPR",
    "VenueAddress": "Near Champa Devi Temple, Udaipur, Dhampur, Uttar Pradesh 246761, India",
    "VenueCode": "BSPC",
    "VenueName": "Bansal Cineplex: Dhampur"
  },
  "BTKD": {
    "AvailableFormats": "2D",
    "City": "Ongole",
    "Latitude": "15.5466",
    "Longitude": "79.9397",
    "RegionCode": "ONGL",
    "State": "Andhra Pradesh",
    "SubRegionCode": "ONGL",
    "VenueAddress": "GWWQ+JVV, Santhanuthalapadu, Ongole, Andhra Pradesh 523225, India",
    "VenueCode": "BTKD",
    "VenueName": "Sai Balaji A/c Dolby Surround: Santhanutalapadu"
  },
  "CACN": {
    "AvailableFormats": "2D",
    "City": "Mahuva",
    "Latitude": "21.1266",
    "Longitude": "71.7984",
    "RegionCode": "MAHV",
    "State": "Gujarat",
    "SubRegionCode": "MAHV",
    "VenueAddress": "City Mall Opposite Reliance Petrol Pump, Next to Vibrant Dehydration, At. Bhadrod, Mahuva, Mahuva, Gujarat 364290, India",
    "VenueCode": "CACN",
    "VenueName": "Cine Arc Multiplex: Mahuva"
  },
  "CBSM": {
    "AvailableFormats": "2D|3D",
    "City": "Chandigarh",
    "Latitude": "30.6734",
    "Longitude": "76.7398",
    "RegionCode": "CHD",
    "State": "Punjab",
    "SubRegionCode": "CHD",
    "VenueAddress": "Bestech Square Mall, Sector 66, Sahibzada Ajit Singh Nagar (Mohali), Chandigarh, Punjab 160062, India",
    "VenueCode": "CBSM",
    "VenueName": "Cinepolis: Bestech Square, Mohali"
  },
  "CCBZ": {
    "AvailableFormats": "",
    "City": "Bathinda",
    "Latitude": "30.2049",
    "Longitude": "74.95",
    "RegionCode": "BHAT",
    "State": "Punjab",
    "SubRegionCode": "BHAT",
    "VenueAddress": "3rd Floor, City Center Mall, Opposite Children Park, Civil Lines, Bathinda, Punjab 151001, India",
    "VenueCode": "CCBZ",
    "VenueName": "Cinemore Cinemas: DREAMz City Centre, Bathinda"
  },
  "CCKP": {
    "AvailableFormats": "2D",
    "City": "Kalol (Panchmahal)",
    "Latitude": "22.6112",
    "Longitude": "73.4662",
    "RegionCode": "PANH",
    "State": "Gujarat",
    "SubRegionCode": "PANH",
    "VenueAddress": "Cinema City, GJ SH 87, Near Lal Darwaja, Jantral, Kalol (Panchmahal), Gujarat 389330, India",
    "VenueCode": "CCKP",
    "VenueName": "FUN Cinemas Cinema City Multiplex: Kalol"
  },
  "CCMU": {
    "AvailableFormats": "2D|3D",
    "City": "Mysuru (Mysore)",
    "Latitude": "12.3585",
    "Longitude": "76.6361",
    "RegionCode": "MYS",
    "State": "Karnataka",
    "SubRegionCode": "MYS",
    "VenueAddress": "No 119 Metagalli Industrial Area, Metagalli, Behind GRS Fantasy Park, Opposite J K Golden Embassy, Mysuru (Mysore), Karnataka 570016, India",
    "VenueCode": "CCMU",
    "VenueName": "Mysuru VISION Cinemas, Behind GRS Fantasy Park"
  },
  "CCRN": {
    "AvailableFormats": "",
    "City": "Chandrapur",
    "Latitude": "19.7872",
    "Longitude": "79.3843",
    "RegionCode": "CHAN",
    "State": "Maharashtra",
    "SubRegionCode": "CHAN",
    "VenueAddress": "E-cube, Beside Lakshmi Godown Main Road Bamanwada, Taluka rajura, Chandrapur, Maharashtra 442905, India",
    "VenueCode": "CCRN",
    "VenueName": "Chhotu Maharaj: Rajura, Chandrapur"
  },
  "CDCA": {
    "AvailableFormats": "2D",
    "City": "Prayagraj (Allahabad)",
    "Latitude": "25.438",
    "Longitude": "81.8442",
    "RegionCode": "ALLH",
    "State": "Uttar Pradesh",
    "SubRegionCode": "ALLH",
    "VenueAddress": "26, Sammelan Marg, Prayagraj, Uttar Pradesh 211003, India",
    "VenueCode": "CDCA",
    "VenueName": "Chandralok Cineplex: Prayagraj"
  },
  "CECM": {
    "AvailableFormats": "2D",
    "City": "Mandi Dabwali",
    "Latitude": "29.9724",
    "Longitude": "74.7246",
    "RegionCode": "DABW",
    "State": "Haryana",
    "SubRegionCode": "DABW",
    "VenueAddress": "NH 54, Doomwali, Mandi Dabwali, Haryana 125104, India",
    "VenueCode": "CECM",
    "VenueName": "Century City Cinema: Mandi Dabwali"
  },
  "CGBO": {
    "AvailableFormats": "2D",
    "City": "Ahmedabad",
    "Latitude": "23.0288",
    "Longitude": "72.4785",
    "RegionCode": "AHD",
    "State": "Gujarat",
    "SubRegionCode": "AHD",
    "VenueAddress": "Behind Amrapali Shopping Complex, Bopal Junction,Sardar Patel Ring Road, Near Bharat Petroleum Petrol Pump, Ahmedabad, Gujarat 380058, India",
    "VenueCode": "CGBO",
    "VenueName": "City Gold: Bopal"
  },
  "CGMM": {
    "AvailableFormats": "2D|3D",
    "City": "Muzaffarpur",
    "Latitude": "26.1101",
    "Longitude": "85.3957",
    "RegionCode": "MUZA",
    "State": "Bihar",
    "SubRegionCode": "MUZA",
    "VenueAddress": "The Grand Mall, 5th Floor, Club Road, Near MDDM College, Muzaffarpur, Bihar 842002, India",
    "VenueCode": "CGMM",
    "VenueName": "Cinepolis: Grand Mall, Muzaffarpur"
  },
  "CHOE": {
    "AvailableFormats": "2D",
    "City": "Vellakoil",
    "Latitude": "10.9596",
    "Longitude": "77.7168",
    "RegionCode": "VELI",
    "State": "Tamil Nadu",
    "SubRegionCode": "VELI",
    "VenueAddress": "1197/A1A2B, Kamala Mill, Bus Stop, Vellakoil, Tamil Nadu 638111, India",
    "VenueCode": "CHOE",
    "VenueName": "Chhotu Maharaj Cine Cafe: Vellakoil"
  },
  "CICI": {
    "AvailableFormats": "2D",
    "City": "Halol",
    "Latitude": "22.5042",
    "Longitude": "73.5104",
    "RegionCode": "HALO",
    "State": "Gujarat",
    "SubRegionCode": "HALO",
    "VenueAddress": "Halol Pavagadh Bypass Road, Near Dhaba Dungari, Halol, Gujarat 389350, India",
    "VenueCode": "CICI",
    "VenueName": "Cine India Cinema: Halol"
  },
  "CITD": {
    "AvailableFormats": "2D|3D",
    "City": "Shivamogga",
    "Latitude": "13.9304",
    "Longitude": "75.5733",
    "RegionCode": "SHIA",
    "State": "Karnataka",
    "SubRegionCode": "SHIA",
    "VenueAddress": "Bharath Cinemas, Bearys City Center, BH Road, Shivamogga, Karnataka 577201, India",
    "VenueCode": "CITD",
    "VenueName": "Bharath Cinemas: Shivamogga"
  },
  "CLBC": {
    "AvailableFormats": "",
    "City": "Muzaffarpur",
    "Latitude": "26.1112",
    "Longitude": "85.3656",
    "RegionCode": "MUZA",
    "State": "Bihar",
    "SubRegionCode": "MUZA",
    "VenueAddress": "5th Floor, Dwarka City Center Mall, Opposite MPS Science College, NH22 Muzaffarpur, Muzaffarpur, Bihar 843146, India",
    "VenueCode": "CLBC",
    "VenueName": "Connplex Cinemas Luxuriance: Muzaffarpur"
  },
  "CLLP": {
    "AvailableFormats": "2D",
    "City": "Varachha",
    "Latitude": "21.2387",
    "Longitude": "72.8794",
    "RegionCode": "SURT",
    "State": "Gujarat",
    "SubRegionCode": "VACH",
    "VenueAddress": "Atlanta Mall, Sudama chowk, Mota Varachha Main Road, Varachha, Gujarat 394101, India",
    "VenueCode": "CLLP",
    "VenueName": "The Friday Cinema: Mota Varaccha, Surat"
  },
  "CMBS": {
    "AvailableFormats": "",
    "City": "Bihar Sharif",
    "Latitude": "25.2034",
    "Longitude": "85.5006",
    "RegionCode": "BIHS",
    "State": "Bihar",
    "SubRegionCode": "BIHS",
    "VenueAddress": "Bardi Pahardi To Biyawani Road, Near Bardi Pahardi, Bihar Sharif, Bihar 803118, India",
    "VenueCode": "CMBS",
    "VenueName": "Chhotu Maharaj Cine Cafe: Bihar Sharif"
  },
  "CMMH": {
    "AvailableFormats": "2D",
    "City": "Bhandara",
    "Latitude": "21.0849",
    "Longitude": "79.782",
    "RegionCode": "BHAA",
    "State": "Maharashtra",
    "SubRegionCode": "BHAA",
    "VenueAddress": "Lakhani, Gadegaon, Opposite - Ashok Leyland, Bhandara, Maharashtra 441804, India",
    "VenueCode": "CMMH",
    "VenueName": "Chhotu Maharaj Cine Cafe: Lakhani"
  },
  "CMSG": {
    "AvailableFormats": "2D",
    "City": "Suriya",
    "Latitude": "24.1623",
    "Longitude": "85.8825",
    "RegionCode": "GIRI",
    "State": "Jharkhand",
    "SubRegionCode": "GIRI",
    "VenueAddress": "Rajdhanwar Road, Bank of India, Barki Suriya, Suriya, Jharkhand 825320, India",
    "VenueCode": "CMSG",
    "VenueName": "Chhotu Maharaj Cine Cafe: Suriya, Giridi"
  },
  "CMVS": {
    "AvailableFormats": "2D",
    "City": "Varachha",
    "Latitude": "21.2427",
    "Longitude": "72.8721",
    "RegionCode": "SURT",
    "State": "Gujarat",
    "SubRegionCode": "VACH",
    "VenueAddress": "Golden City Road, Mota Varachha, Near DMART, Varachha, Gujarat 394101, India",
    "VenueCode": "CMVS",
    "VenueName": "Cinezza Multiplex: Maharaja Farm, Mota Varachha"
  },
  "CNCP": {
    "AvailableFormats": "2D",
    "City": "Petlad",
    "Latitude": "22.4684",
    "Longitude": "72.8013",
    "RegionCode": "BORM",
    "State": "Gujarat",
    "SubRegionCode": "BORM",
    "VenueAddress": "Tanmay Plaza, Gorel-Petlad Road, Shekhadi, Petlad, Gujarat 388450, India",
    "VenueCode": "CNCP",
    "VenueName": "Cinesquare Cinema: Petlad"
  },
  "CNIS": {
    "AvailableFormats": "2D|3D",
    "City": "Surat",
    "Latitude": "21.1867",
    "Longitude": "72.7934",
    "RegionCode": "SURT",
    "State": "Gujarat",
    "SubRegionCode": "SURT",
    "VenueAddress": "3rd Floor Imperial Square Mall, Upper Star Bazaar, Pal Hazira Road, Adajan, Surat, Gujarat 395009, India",
    "VenueCode": "CNIS",
    "VenueName": "Cinepolis: Imperial Square Mall, Surat"
  },
  "CNRA": {
    "AvailableFormats": "2D",
    "City": "Abu Road",
    "Latitude": "24.4982",
    "Longitude": "72.766",
    "RegionCode": "ABRD",
    "State": "Rajasthan",
    "SubRegionCode": "ABRD",
    "VenueAddress": "New Town Housing, Revdar Road, Manpur Rural, Abu Road, Rajasthan 307026, India",
    "VenueCode": "CNRA",
    "VenueName": "Cineplus Multiplex: Abu Road"
  },
  "COAC": {
    "AvailableFormats": "3D|2D",
    "City": "Lucknow",
    "Latitude": "26.8624",
    "Longitude": "81.0105",
    "RegionCode": "LUCK",
    "State": "Uttar Pradesh",
    "SubRegionCode": "LUCK",
    "VenueAddress": "Plot No 384, Vibhuti Khand, Gomti Nagar, Gomti Nagar Road, Lucknow, Uttar Pradesh 226010, India",
    "VenueCode": "COAC",
    "VenueName": "Cinepolis: One Awadh Centre, Lucknow"
  },
  "COSM": {
    "AvailableFormats": "2D",
    "City": "Rajkot",
    "Latitude": "22.271",
    "Longitude": "70.7418",
    "RegionCode": "RAJK",
    "State": "Gujarat",
    "SubRegionCode": "RAJK",
    "VenueAddress": "Mota Mauva Road, Kalawad Road, Near Rangoli Park Restaurant, Rajkot, Gujarat 360001, India",
    "VenueCode": "COSM",
    "VenueName": "Cosmoplex Multiplex: Rajkot"
  },
  "CPEB": {
    "AvailableFormats": "2D",
    "City": "Bengaluru",
    "Latitude": "12.9676",
    "Longitude": "77.5584",
    "RegionCode": "HOKT",
    "State": "Karnataka",
    "SubRegionCode": "HOKT",
    "VenueAddress": "ETA Namma Mall, Binneypet, Magadi Road, Bengaluru, Karnataka 560023, India",
    "VenueCode": "CPEB",
    "VenueName": "Cinepolis: Binnypet Mall"
  },
  "CPJR": {
    "AvailableFormats": "2D",
    "City": "Bengaluru",
    "Latitude": "12.8915",
    "Longitude": "77.598",
    "RegionCode": "HOKT",
    "State": "Karnataka",
    "SubRegionCode": "HOKT",
    "VenueAddress": "SJR Spectrum Mall, Near Arkere Gate Signal, Bengaluru, Karnataka 560076, India",
    "VenueCode": "CPJR",
    "VenueName": "Cinepolis: SJR (Central Mall) Arekere, Bannergatta"
  },
  "CPMH": {
    "AvailableFormats": "2D|3D",
    "City": "Hyderabad",
    "Latitude": "17.4901",
    "Longitude": "78.3933",
    "RegionCode": "HYD",
    "State": "Telangana",
    "SubRegionCode": "HYD",
    "VenueAddress": "3rd Floor, Survey No.1050, KPBH Colony Phase-3, LuLu Mall,Opposite - JNTU Hi-Tech Road, Kukatpally, Kukatpally, Hyderabad, Telangana 500072, India",
    "VenueCode": "CPMH",
    "VenueName": "Cinepolis: Lulu Mall, Hyderabad"
  },
  "CPPD": {
    "AvailableFormats": "2D",
    "City": "Proddatur",
    "Latitude": "14.7472",
    "Longitude": "78.5579",
    "RegionCode": "PROD",
    "State": "Andhra Pradesh",
    "SubRegionCode": "PROD",
    "VenueAddress": "Srinivasa Nagar, Opposite Arabian Hotel, Near S.K.C.V.S High School, Proddatur, Andhra Pradesh 516360, India",
    "VenueCode": "CPPD",
    "VenueName": "Chand Picture Palace A/C DTS: Proddatur"
  },
  "CPUO": {
    "AvailableFormats": "2D|3D",
    "City": "Hubli",
    "Latitude": "15.3509",
    "Longitude": "75.111",
    "RegionCode": "HUBL",
    "State": "Karnataka",
    "SubRegionCode": "HUBL",
    "VenueAddress": "3rd Floor, Urban Oasis Mall, Gokul Road, Hubli, Karnataka 580030, India",
    "VenueCode": "CPUO",
    "VenueName": "Cinepolis: Urban Oasis Mall, Hubli"
  },
  "CRJG": {
    "AvailableFormats": "2D",
    "City": "Jayamkondacholapuram",
    "Latitude": "11.2143",
    "Longitude": "79.3613",
    "RegionCode": "JYAM",
    "State": "Tamil Nadu",
    "SubRegionCode": "JYAM",
    "VenueAddress": "National Highway 227, Jayakondam, Near JK Plaza, Jayamkondacholapuram, Tamil Nadu 621802, India",
    "VenueCode": "CRJG",
    "VenueName": "CR Palace Theatre A/C 4K HD Dolby Digital 7.1"
  },
  "CSEP": {
    "AvailableFormats": "2D",
    "City": "Ahmedabad",
    "Latitude": "23.0189",
    "Longitude": "72.5564",
    "RegionCode": "AHD",
    "State": "Gujarat",
    "SubRegionCode": "AHD",
    "VenueAddress": "Parimal Garden, Chimanlal Girdharlal R, Besides Ambuja House Oppo, Ahmedabad, Gujarat 380006, India",
    "VenueCode": "CSEP",
    "VenueName": "Connplex Cinemas: Parimal"
  },
  "CSSM": {
    "AvailableFormats": "2D",
    "City": "Gangoh",
    "Latitude": "29.7851",
    "Longitude": "77.2604",
    "RegionCode": "GANZ",
    "State": "Uttar Pradesh",
    "SubRegionCode": "GANZ",
    "VenueAddress": "Kasimsiddqui, MDR 147W, Opposite Umar Unani Ayurvedic Agency, Gangoh, Uttar Pradesh 247341, India",
    "VenueCode": "CSSM",
    "VenueName": "Chaudhary SS Multiplex: Gangoh"
  },
  "CSWO": {
    "AvailableFormats": "3D|IMAX 2D|2D|4DX|4DX 3D",
    "City": "Navi Mumbai",
    "Latitude": "19.0214",
    "Longitude": "73.0184",
    "RegionCode": "MUMBAI",
    "State": "Maharashtra",
    "SubRegionCode": "THAN",
    "VenueAddress": "Unit Multiplex Seawoods Railway, Sector No 40, Plot R1, Nerul, Navi Mumbai, Maharashtra 400706, India",
    "VenueCode": "CSWO",
    "VenueName": "Cinepolis: Nexus Seawoods, Nerul, Navi Mumbai"
  },
  "CTMP": {
    "AvailableFormats": "2D|3D",
    "City": "Pune",
    "Latitude": "18.5247",
    "Longitude": "73.8546",
    "RegionCode": "PUNE",
    "State": "Maharashtra",
    "SubRegionCode": "PUNE",
    "VenueAddress": "111, Behind Pune Muncipal Corporation Building, Shivaji Road, Shivaji Nagar, Pune, Maharashtra 411005, India",
    "VenueCode": "CTMP",
    "VenueName": "City Pride: Mangala Cinema"
  },
  "CUCC": {
    "AvailableFormats": "2D",
    "City": "Ujjain",
    "Latitude": "23.1021",
    "Longitude": "75.7837",
    "RegionCode": "UJJN",
    "State": "Madhya Pradesh",
    "SubRegionCode": "UJJN",
    "VenueAddress": "Prashanti College Road, Tapobhumi Chouraha, Indore Road, Village  Pipliya Ragho, Ujjain, Madhya Pradesh 456006, India",
    "VenueCode": "CUCC",
    "VenueName": "Chhotu Maharaj Cine Cafe: Ujjain"
  },
  "CVMN": {
    "AvailableFormats": "2D",
    "City": "Nadiad",
    "Latitude": "22.6918",
    "Longitude": "72.8631",
    "RegionCode": "NADI",
    "State": "Gujarat",
    "SubRegionCode": "NADI",
    "VenueAddress": "B/h D.P Desai Road, Dumral Bazar, Junaraopura, Near Krishna Hospital, Nadiad, Gujarat 387001, India",
    "VenueCode": "CVMN",
    "VenueName": "Coconut Virat Multiplex: Nadiad"
  },
  "CXJD": {
    "AvailableFormats": "2D",
    "City": "Patna",
    "Latitude": "25.6106",
    "Longitude": "85.1404",
    "RegionCode": "PATN",
    "State": "Bihar",
    "SubRegionCode": "PATN",
    "VenueAddress": "4th Floor, J.D. Mall, S.P. Verma Road, Patna, Bihar 800001, India",
    "VenueCode": "CXJD",
    "VenueName": "Connplex Cinemas: S P Verma Road (JD Mall), Patna"
  },
  "CZVX": {
    "AvailableFormats": "2D",
    "City": "Barshi",
    "Latitude": "18.2404",
    "Longitude": "75.6974",
    "RegionCode": "BRHI",
    "State": "Maharashtra",
    "SubRegionCode": "BRHI",
    "VenueAddress": "Chatrapati Cinema Hall, Chatrapati Bhavan, Latur Road, Barshi, Maharashtra 413401, India",
    "VenueCode": "CZVX",
    "VenueName": "Chatrapati Cinema: Barshi"
  },
  "DCBH": {
    "AvailableFormats": "2D",
    "City": "Bargarh",
    "Latitude": "21.3315",
    "Longitude": "83.6185",
    "RegionCode": "BARG",
    "State": "Odisha",
    "SubRegionCode": "BARG",
    "VenueAddress": "Haat Padaa Road, Near Sai Temple, Next To State Bank Of India, Bargarh, Odisha 768028, India",
    "VenueCode": "DCBH",
    "VenueName": "Deepali Cinemax: Bargarh"
  },
  "DCKC": {
    "AvailableFormats": "2D",
    "City": "Kanichar",
    "Latitude": "11.9054",
    "Longitude": "75.7844",
    "RegionCode": "KANC",
    "State": "Kerala",
    "SubRegionCode": "KANC",
    "VenueAddress": "Dev Associates, Kottiyar Road, Kanichar, Near Kanichar Sree Subrahmanya Temple, Kanichar, Kerala 670674, India",
    "VenueCode": "DCKC",
    "VenueName": "Dev Cinemas: Kanichar"
  },
  "DCVV": {
    "AvailableFormats": "2D",
    "City": "Vadakkencherry",
    "Latitude": "10.5902",
    "Longitude": "76.4763",
    "RegionCode": "VDCY",
    "State": "Kerala",
    "SubRegionCode": "VDCY",
    "VenueAddress": "Vadakkencherry Road, Next to Q7 Bakery, Vadakkencherry, Kerala 678683, India",
    "VenueCode": "DCVV",
    "VenueName": "Dreambig Thankam Theatre: Vadakkencherry"
  },
  "DESA": {
    "AvailableFormats": "2D",
    "City": "Porumamilla",
    "Latitude": "15.0024",
    "Longitude": "78.9905",
    "RegionCode": "PORU",
    "State": "Andhra Pradesh",
    "SubRegionCode": "PORU",
    "VenueAddress": "Reddy Nagar, Main Road, Near Andhra Pragathi Gramina Bank, Porumamilla, Andhra Pradesh 516193, India",
    "VenueCode": "DESA",
    "VenueName": "Desai Mahal A/C 2K Dolby 7.1: Porumamilla"
  },
  "DICD": {
    "AvailableFormats": "2D",
    "City": "Ahmedabad",
    "Latitude": "23.0484",
    "Longitude": "72.5289",
    "RegionCode": "AHD",
    "State": "Gujarat",
    "SubRegionCode": "AHD",
    "VenueAddress": "Drive-In Cinema, Drive In Road, Ahmedabad, Gujarat 380054, India",
    "VenueCode": "DICD",
    "VenueName": "Drive In Cinema: Ahmedabad"
  },
  "DLGK": {
    "AvailableFormats": "2D",
    "City": "Katni",
    "Latitude": "23.8149",
    "Longitude": "80.3782",
    "RegionCode": "KATN",
    "State": "Madhya Pradesh",
    "SubRegionCode": "KATN",
    "VenueAddress": "Relaince Petrol Pump, Shanti Nagar, Katni, Madhya Pradesh 483504, India",
    "VenueCode": "DLGK",
    "VenueName": "DLG Cinemas: Katni"
  },
  "DMXM": {
    "AvailableFormats": "2D",
    "City": "Morbi",
    "Latitude": "22.7781",
    "Longitude": "70.9053",
    "RegionCode": "MOBI",
    "State": "Gujarat",
    "SubRegionCode": "MOBI",
    "VenueAddress": "SURVEY NO-66/1 AND 66/2, C/o Dariyalal Business Center, Opposite Rafaleshwar, 8 A National Highway, Jambudiya, Morbi, Gujarat 363642, India",
    "VenueCode": "DMXM",
    "VenueName": "Dariyalal Multiplex: Morbi"
  },
  "DPTD": {
    "AvailableFormats": "2D",
    "City": "Mavelikkara",
    "Latitude": "9.2543",
    "Longitude": "76.545",
    "RegionCode": "MVLR",
    "State": "Kerala",
    "SubRegionCode": "MVLR",
    "VenueAddress": "Kayamkulam-Thiruvalla Road (SH 6), Old Mavelikkara, Mavelikkara, Kerala 690101, India",
    "VenueCode": "DPTD",
    "VenueName": "Dreambig Prathibha Theatre: Mavelikkara"
  },
  "DTCN": {
    "AvailableFormats": "2D",
    "City": "Nuzvid",
    "Latitude": "16.7875",
    "Longitude": "80.8501",
    "RegionCode": "NZVD",
    "State": "Andhra Pradesh",
    "SubRegionCode": "NZVD",
    "VenueAddress": "Hanuman Junction Road, Usha Bala Nagar, Near State Bank Of India, Nuzvid, Andhra Pradesh 521201, India",
    "VenueCode": "DTCN",
    "VenueName": "Dwaraka Cinemas 4k Dolby Atmos: Nuzvid"
  },
  "DUXR": {
    "AvailableFormats": "2D",
    "City": "Lakhimpur",
    "Latitude": "27.1791",
    "Longitude": "93.9722",
    "RegionCode": "DLBZ",
    "State": "Assam",
    "SubRegionCode": "DLBZ",
    "VenueAddress": "Kathal Pukhuri, No.2 Dolohat Myadipatta, Lakhimpur, Assam 787023, India",
    "VenueCode": "DUXR",
    "VenueName": "Dhurba Miniplex: Dolohat"
  },
  "DYPK": {
    "AvailableFormats": "3D|2D",
    "City": "Kolhapur",
    "Latitude": "16.7035",
    "Longitude": "74.2503",
    "RegionCode": "KOLH",
    "State": "Maharashtra",
    "SubRegionCode": "KOLH",
    "VenueAddress": "DYP City Mall, 3rd Floor, 2104/5, E-Ward, Near Opal Hotel, Kavala Naka, Kolhapur, Maharashtra 416003, India",
    "VenueCode": "DYPK",
    "VenueName": "PVR: DYP City, Kolhapur"
  },
  "ECRR": {
    "AvailableFormats": "2D",
    "City": "Ramgarh",
    "Latitude": "23.6398",
    "Longitude": "85.5119",
    "RegionCode": "GGHH",
    "State": "Jharkhand",
    "SubRegionCode": "GGHH",
    "VenueAddress": "Emvee Square, Opposite FBB, Near Balaji Bazar, Ramgarh Cantonment, Ramgarh, Jharkhand 829122, India",
    "VenueCode": "ECRR",
    "VenueName": "Eylex Cinemas: Ramgarh"
  },
  "ELYE": {
    "AvailableFormats": "2D|3D",
    "City": "Jorhat",
    "Latitude": "26.7568",
    "Longitude": "94.2151",
    "RegionCode": "JORT",
    "State": "Assam",
    "SubRegionCode": "JORT",
    "VenueAddress": "Gar Ali Road, Babupatty, Jorhat, Assam 785001, India",
    "VenueCode": "ELYE",
    "VenueName": "Eleye Multiplex: Jorhat"
  },
  "ERSD": {
    "AvailableFormats": "2D|3D",
    "City": "Jabalpur",
    "Latitude": "23.1689",
    "Longitude": "79.9336",
    "RegionCode": "JABL",
    "State": "Madhya Pradesh",
    "SubRegionCode": "JABL",
    "VenueAddress": "Samdareeya Mall, Civic Centre, Near Mata Gujri College, Jabalpur, Madhya Pradesh 482001, India",
    "VenueCode": "ERSD",
    "VenueName": "Samdareeya Era Cinema: Jabalpur"
  },
  "ESVP": {
    "AvailableFormats": "2D",
    "City": "Pune",
    "Latitude": "18.511",
    "Longitude": "73.8801",
    "RegionCode": "PUNE",
    "State": "Maharashtra",
    "SubRegionCode": "PUNE",
    "VenueAddress": "2429, Gen Thimayya Road, Camp, opposite Kayani Bakery, Pune, Maharashtra 411001, India",
    "VenueCode": "ESVP",
    "VenueName": "Victory Theatre: Camp, Pune"
  },
  "EXCA": {
    "AvailableFormats": "2D",
    "City": "Ahilyanagar (Ahmednagar)",
    "Latitude": "19.3845",
    "Longitude": "74.7821",
    "RegionCode": "AHMED",
    "State": "Maharashtra",
    "SubRegionCode": "AHMED",
    "VenueAddress": "Kalyanam Lawns, A/P: Wanjarwadi Sonai, Tal: Nevasa, Ahilyanagar (Ahmednagar), Maharashtra 414105, India",
    "VenueCode": "EXCA",
    "VenueName": "Eylex Cinema: Sonai"
  },
  "FCPA": {
    "AvailableFormats": "2D",
    "City": "Anand",
    "Latitude": "22.5527",
    "Longitude": "72.9444",
    "RegionCode": "AND",
    "State": "Gujarat",
    "SubRegionCode": "AND",
    "VenueAddress": "Theatre Road, Opp. Chinar Gulnar, Anand-Vidyanag Road, Near Hero Honda Showroom (S.S. Motors), Anand, Gujarat 388001, India",
    "VenueCode": "FCPA",
    "VenueName": "INOX Anand: City Pulse Mall"
  },
  "FMDR": {
    "AvailableFormats": "3D|2D",
    "City": "Mumbai",
    "Latitude": "19.0199",
    "Longitude": "72.8413",
    "RegionCode": "MUMBAI",
    "State": "Maharashtra",
    "SubRegionCode": "MCENT",
    "VenueAddress": "2nd Floor, Nakshatra Cine Shoppe, Ranade Road, Dadar West, Near Railway Station, Mumbai, Maharashtra 400028, India",
    "VenueCode": "FMDR",
    "VenueName": "INOX: Nakshatra Mall, Dadar (W)"
  },
  "FMRL": {
    "AvailableFormats": "2D|3D",
    "City": "Mumbai",
    "Latitude": "19.2132",
    "Longitude": "72.8492",
    "RegionCode": "MUMBAI",
    "State": "Maharashtra",
    "SubRegionCode": "MWEST",
    "VenueAddress": "Off S.V. Road, Kandivali West, Behind Poisar Bus Depot, Mumbai, Maharashtra 400067, India",
    "VenueCode": "FMRL",
    "VenueName": "INOX: Raghuleela Mall, Kandivali (W)"
  },
  "FNCO": {
    "AvailableFormats": "2D",
    "City": "Coimbatore",
    "Latitude": "11.0247",
    "Longitude": "77.0104",
    "RegionCode": "COIM",
    "State": "Tamil Nadu",
    "SubRegionCode": "COIM",
    "VenueAddress": "Peelamedu, Avinashi Road, Peelamedu, Near PSGR Krishnammal College, Coimbatore, Tamil Nadu 641004, India",
    "VenueCode": "FNCO",
    "VenueName": "Cinepolis: Fun Republic Mall, Coimbatore"
  },
  "FNSD": {
    "AvailableFormats": "2D|3D",
    "City": "Delhi",
    "Latitude": "28.6574",
    "Longitude": "77.3023",
    "RegionCode": "NCR",
    "State": "NCR",
    "SubRegionCode": "DELHI",
    "VenueAddress": "Cross River Mall, Central Business,Shahdara, Near Karkardooma Court, Delhi, NCR 110032, India",
    "VenueCode": "FNSD",
    "VenueName": "Cinepolis: Cross River Mall, Shahdara"
  },
  "FSCK": {
    "AvailableFormats": "2D|IMAX 2D|3D",
    "City": "Kolkata",
    "Latitude": "22.5014",
    "Longitude": "88.3616",
    "RegionCode": "KOLK",
    "State": "West Bengal",
    "SubRegionCode": "KOLK",
    "VenueAddress": "375, South City Mall, Prince Anwar Shah Road, Opposite Central Bank of India, Kolkata, West Bengal 700068, India",
    "VenueCode": "FSCK",
    "VenueName": "INOX: South City, Kolkata"
  },
  "G3SR": {
    "AvailableFormats": "2D|3D",
    "City": "Delhi",
    "Latitude": "28.7351",
    "Longitude": "77.1135",
    "RegionCode": "NCR",
    "State": "NCR",
    "SubRegionCode": "DELHI",
    "VenueAddress": "Level 2, Sector-11, Rohini, Inside Garg Trade, Delhi, NCR 110085, India",
    "VenueCode": "G3SR",
    "VenueName": "G3S Cinema: Rohini (Newly Renovated)"
  },
  "GATH": {
    "AvailableFormats": "2D",
    "City": "Athagarh",
    "Latitude": "20.5146",
    "Longitude": "85.622",
    "RegionCode": "ATHG",
    "State": "Odisha",
    "SubRegionCode": "ATHG",
    "VenueAddress": "Near Lord Shiva Temple, Dorada Road, Athagarh, Odisha 754029, India",
    "VenueCode": "GATH",
    "VenueName": "Ganesh Talkies: Athagarh"
  },
  "GCAK": {
    "AvailableFormats": "2D",
    "City": "Kothamangalam",
    "Latitude": "10.0634",
    "Longitude": "76.6279",
    "RegionCode": "KTMM",
    "State": "Kerala",
    "SubRegionCode": "KTMM",
    "VenueAddress": "Hotel Kavery Road, Kothamangalam, Near State Bank Of India Kothamangalam Branch, Kothamangalam, Kerala 686666, India",
    "VenueCode": "GCAK",
    "VenueName": "G Cinemas: Kothamangalam 4K 3D Dolby Atmos"
  },
  "GCDS": {
    "AvailableFormats": "2D",
    "City": "Sarangarh",
    "Latitude": "21.6384",
    "Longitude": "83.1056",
    "RegionCode": "SARH",
    "State": "Chhattisgarh",
    "SubRegionCode": "SARH",
    "VenueAddress": "33, Hardi Road, Sarangarh, Chhattisgarh 496450, India",
    "VenueCode": "GCDS",
    "VenueName": "Grand Cineplex: Sarangarh"
  },
  "GCKI": {
    "AvailableFormats": "2D",
    "City": "Kozhinjampara",
    "Latitude": "10.7343",
    "Longitude": "76.8349",
    "RegionCode": "KOZA",
    "State": "Kerala",
    "SubRegionCode": "KOZA",
    "VenueAddress": "Palakkad - Pollachi Road, Near Private Bus Stand, Kozhinjampara, Kerala 678555, India",
    "VenueCode": "GCKI",
    "VenueName": "Geetha Cinemax 2K 3D: Kozhinjampara"
  },
  "GCNG": {
    "AvailableFormats": "2D",
    "City": "Narnaul",
    "Latitude": "28.0542",
    "Longitude": "76.1023",
    "RegionCode": "NARN",
    "State": "Haryana",
    "SubRegionCode": "NARN",
    "VenueAddress": "Aggarwal Tower, Nizampur Road, Near Navjeevan Hospital, Narnaul, Haryana 123001, India",
    "VenueCode": "GCNG",
    "VenueName": "Gold Cinema: Narnaul"
  },
  "GCTG": {
    "AvailableFormats": "2D",
    "City": "Madurai",
    "Latitude": "9.9361",
    "Longitude": "78.0979",
    "RegionCode": "MADU",
    "State": "Tamil Nadu",
    "SubRegionCode": "MADU",
    "VenueAddress": "66/98, Velar Street, Manjalmattu Colony, Gnanavolivupuram, Arapalayam, City Bus Stop, Madurai, Tamil Nadu 625016, India",
    "VenueCode": "GCTG",
    "VenueName": "Guru Cinemas A/C RGB Laser 4K 3D: Madurai"
  },
  "GDCD": {
    "AvailableFormats": "2D",
    "City": "Mumbai",
    "Latitude": "19.0096",
    "Longitude": "72.8423",
    "RegionCode": "MUMBAI",
    "State": "Maharashtra",
    "SubRegionCode": "MCENT",
    "VenueAddress": "9/26, Kumar Fun and Shop, 2nd Floor, Dr. Babasaheb Ambedkar Road., Naigaon, Dadar (East), Mumbai, Maharashtra 400014, India",
    "VenueCode": "GDCD",
    "VenueName": "Gold Cinema: Dadar (E)"
  },
  "GDMT": {
    "AvailableFormats": "2D|3D",
    "City": "Mathura",
    "Latitude": "27.4943",
    "Longitude": "77.6551",
    "RegionCode": "MATH",
    "State": "Uttar Pradesh",
    "SubRegionCode": "MATH",
    "VenueAddress": "Highway Plaza Shopping Complex, NH2 Delhi-Agra Road, Near Mandi Crossing, Mathura, Uttar Pradesh 281004, India",
    "VenueCode": "GDMT",
    "VenueName": "Gold Cinema: Mathura"
  },
  "GGBC": {
    "AvailableFormats": "2D",
    "City": "Chandrapur",
    "Latitude": "20.6064",
    "Longitude": "79.8648",
    "RegionCode": "CHAN",
    "State": "Maharashtra",
    "SubRegionCode": "CHAN",
    "VenueAddress": "New Gold Star Cinema, Churhe Bada, Brahmapuri, Chandrapur, Maharashtra 441206, India",
    "VenueCode": "GGBC",
    "VenueName": "New Gold Star Cinema: Bramhapuri, Chandrapur"
  },
  "GIBH": {
    "AvailableFormats": "2D",
    "City": "Bharuch",
    "Latitude": "21.701",
    "Longitude": "72.9914",
    "RegionCode": "BHAR",
    "State": "Gujarat",
    "SubRegionCode": "BHAR",
    "VenueAddress": "2nd Floor,Shalimar Mall, Railway Station Road, Bharuch, Gujarat 392001, India",
    "VenueCode": "GIBH",
    "VenueName": "Gold Cinema, Shalimar: Bharuch"
  },
  "GLDA": {
    "AvailableFormats": "2D",
    "City": "Chhatrapati Sambhajinagar (Aurangabad)",
    "Latitude": "19.8626",
    "Longitude": "75.3154",
    "RegionCode": "AURA",
    "State": "Maharashtra",
    "SubRegionCode": "AURA",
    "VenueAddress": "Plot No. 5, Vedant Nagar, Railway Station Road, Beside Vedant Hotel,  Chhatrapati Sambhaji Nagar, Beside Vedant Hotel,  Chhatrapati Sambhaji Nagar, Chhatrapati Sambhajinagar (Aurangabad), Maharashtra ",
    "VenueCode": "GLDA",
    "VenueName": "Goldie Cinemark: Chhatrapati Sambhaji Nagar"
  },
  "GMMC": {
    "AvailableFormats": "2D",
    "City": "Madurai",
    "Latitude": "10.0308",
    "Longitude": "78.3397",
    "RegionCode": "MADU",
    "State": "Tamil Nadu",
    "SubRegionCode": "MADU",
    "VenueAddress": "584, Trichy - Madurai Highway, Melur, Madurai, Tamil Nadu 625106, India",
    "VenueCode": "GMMC",
    "VenueName": "Ganesh Cinemas (Melur) 4K RGB Laser & Dolby Atmos"
  },
  "GPDC": {
    "AvailableFormats": "3D|2D",
    "City": "Gurugram (Gurgaon)",
    "Latitude": "28.5043",
    "Longitude": "77.0974",
    "RegionCode": "NCR",
    "State": "NCR",
    "SubRegionCode": "GURG",
    "VenueAddress": "4th Floor, Ambience Mall, NH-8, Near Toll Plaza, Gurugram (Gurgaon), NCR 122001, India",
    "VenueCode": "GPDC",
    "VenueName": "Gurugram: PVR Director`s Cut, Ambience Mall"
  },
  "GRCG": {
    "AvailableFormats": "2D|3D",
    "City": "Guwahati",
    "Latitude": "26.1799",
    "Longitude": "91.7514",
    "RegionCode": "GUW",
    "State": "Assam",
    "SubRegionCode": "GUW",
    "VenueAddress": "Grand Plaza, 5th Floor, Hotel Maitri Residency, G.S. Road, Paltan Bazar, Guwahati, Assam 781008, India",
    "VenueCode": "GRCG",
    "VenueName": "Grande Cines: Paltan bazar, Guwahati"
  },
  "GSVA": {
    "AvailableFormats": "2D",
    "City": "Akividu",
    "Latitude": "16.5838",
    "Longitude": "81.3862",
    "RegionCode": "AKVD",
    "State": "Andhra Pradesh",
    "SubRegionCode": "AKVD",
    "VenueAddress": "Near HP Petrol Pump, PP Road, Beside Ambica Rice Merchants, Akividu, Andhra Pradesh 534235, India",
    "VenueCode": "GSVA",
    "VenueName": "G6 Sri Venkata Gangaratnam Theatre: Akividu"
  },
  "GTGA": {
    "AvailableFormats": "2D",
    "City": "Tiptur",
    "Latitude": "13.2589",
    "Longitude": "76.4848",
    "RegionCode": "TIPT",
    "State": "Karnataka",
    "SubRegionCode": "TIPT",
    "VenueAddress": "Bengaluru - Honnavar Road, Edenahalli, Tiptur, Karnataka 572201, India",
    "VenueCode": "GTGA",
    "VenueName": "Ganesh Theatre Laser Projection: Tiptur"
  },
  "GTYT": {
    "AvailableFormats": "2D",
    "City": "Bengaluru",
    "Latitude": "13.1006",
    "Longitude": "77.5871",
    "RegionCode": "HOKT",
    "State": "Karnataka",
    "SubRegionCode": "HOKT",
    "VenueAddress": "A Centre, Yelahanka New Town, Behind Sheshadripuram First Grade College, Bengaluru, Karnataka 560064, India",
    "VenueCode": "GTYT",
    "VenueName": "Ganesh Digital 2K Cinema: Yelahanka New Town"
  },
  "HAMD": {
    "AvailableFormats": "2D",
    "City": "Ahmedabad",
    "Latitude": "23.0464",
    "Longitude": "72.5311",
    "RegionCode": "AHD",
    "State": "Gujarat",
    "SubRegionCode": "AHD",
    "VenueAddress": "1A, Himalaya Mall Drive In Road,Gurukul Road, Memnagar, Ahmedabad, Gujarat 380052, India",
    "VenueCode": "HAMD",
    "VenueName": "INOX: Himalaya Mall, Drive In Road, Ahmedabad"
  },
  "HFLM": {
    "AvailableFormats": "",
    "City": "Margao",
    "Latitude": "15.2715",
    "Longitude": "73.9686",
    "RegionCode": "MARG",
    "State": "Goa",
    "SubRegionCode": "MARG",
    "VenueAddress": "St. Joaquim Aquem Road, Opp Monastery, Near Aquem Post Office, Margao, Goa 403601, India",
    "VenueCode": "HFLM",
    "VenueName": "Z Square Cine Vishant: Margao"
  },
  "HLWD": {
    "AvailableFormats": "",
    "City": "Guntur",
    "Latitude": "16.3083",
    "Longitude": "80.4344",
    "RegionCode": "GUNT",
    "State": "Andhra Pradesh",
    "SubRegionCode": "GUNT",
    "VenueAddress": "Lakshmipuram Main Road, Brodipet, Guntur, Andhra Pradesh 522002, India",
    "VenueCode": "HLWD",
    "VenueName": "Hollywood Bollywood Theaters: Guntur"
  },
  "HTBY": {
    "AvailableFormats": "2D",
    "City": "Bareilly",
    "Latitude": "28.3538",
    "Longitude": "79.4186",
    "RegionCode": "BARE",
    "State": "Uttar Pradesh",
    "SubRegionCode": "BARE",
    "VenueAddress": "Church Road, Civil Lines, Bareilly, Uttar Pradesh 243001, India",
    "VenueCode": "HTBY",
    "VenueName": "New Hind Talkies: Bareilly"
  },
  "ICTP": {
    "AvailableFormats": "2D|3D",
    "City": "Tezpur",
    "Latitude": "26.622",
    "Longitude": "92.7964",
    "RegionCode": "TEZP",
    "State": "Assam",
    "SubRegionCode": "TEZP",
    "VenueAddress": "Imperial Parijat Building, Tezpur Main Road, Near D.T.O, Tezpur, Assam 784001, India",
    "VenueCode": "ICTP",
    "VenueName": "Imp Cinemas: Tezpur"
  },
  "IGMH": {
    "AvailableFormats": "2D|3D",
    "City": "Hyderabad",
    "Latitude": "17.4964",
    "Longitude": "78.3357",
    "RegionCode": "HYD",
    "State": "Telangana",
    "SubRegionCode": "HYD",
    "VenueAddress": "INOX Leisure Ltd, 4th floor, GSM Mall, Miyapur Main Road, Madinaguda, Hyderabad, Telangana 500049, India",
    "VenueCode": "IGMH",
    "VenueName": "INOX: GSM Mall, Hyderabad"
  },
  "IMJW": {
    "AvailableFormats": "3D|2D|IMAX 2D",
    "City": "Mumbai",
    "Latitude": "19.066",
    "Longitude": "72.8668",
    "RegionCode": "MUMBAI",
    "State": "Maharashtra",
    "SubRegionCode": "MWEST",
    "VenueAddress": "3rd Floor, Jio World Plaza, G Block BKC, Bandra Kurla Complex, Bandra East, Mumbai, Maharashtra 400055, India",
    "VenueCode": "IMJW",
    "VenueName": "Maison INOX: Jio World Plaza, BKC"
  },
  "INAC": {
    "AvailableFormats": "2D|3D",
    "City": "Ajmer",
    "Latitude": "26.5147",
    "Longitude": "74.6339",
    "RegionCode": "AJMER",
    "State": "Rajasthan",
    "SubRegionCode": "AJMER",
    "VenueAddress": "3rd Floor, City Square Mall, A Block Panchsheel Colony, Makarwali Road, Ajmer, Rajasthan 305004, India",
    "VenueCode": "INAC",
    "VenueName": "INOX: City Square Mall, Ajmer"
  },
  "INBL": {
    "AvailableFormats": "2D|3D",
    "City": "Belagavi (Belgaum)",
    "Latitude": "15.8531",
    "Longitude": "74.5092",
    "RegionCode": "BELG",
    "State": "Karnataka",
    "SubRegionCode": "BELG",
    "VenueAddress": "Near BSNL Office, Head Post Office Road, Belgaum Camp, Near BSNL office, Belagavi (Belgaum), Karnataka 590001, India",
    "VenueCode": "INBL",
    "VenueName": "INOX: Camp Road, Belagavi"
  },
  "INCS": {
    "AvailableFormats": "3D|2D",
    "City": "Cuttack",
    "Latitude": "20.4613",
    "Longitude": "85.8691",
    "RegionCode": "CUTT",
    "State": "Odisha",
    "SubRegionCode": "CUTT",
    "VenueAddress": "SGBL Square,Town Hall Road, Unit No. 15, Choudhury Bazar, Cuttack, Odisha 753009, India",
    "VenueCode": "INCS",
    "VenueName": "INOX: Cuttack SGBL Square Mall"
  },
  "INGW": {
    "AvailableFormats": "2D|3D",
    "City": "Gwalior",
    "Latitude": "26.2162",
    "Longitude": "78.185",
    "RegionCode": "GWAL",
    "State": "Madhya Pradesh",
    "SubRegionCode": "GWAL",
    "VenueAddress": "2nd Floor, DB Mall, Race course Road, Old MPSRTC Work Station, Opposite Gwalior Railway Station, Gwalior, Madhya Pradesh 474002, India",
    "VenueCode": "INGW",
    "VenueName": "INOX: DB Mall, Gwalior"
  },
  "INMB": {
    "AvailableFormats": "2D|IMAX 2D|3D",
    "City": "Bengaluru",
    "Latitude": "12.9922",
    "Longitude": "77.5703",
    "RegionCode": "HOKT",
    "State": "Karnataka",
    "SubRegionCode": "HOKT",
    "VenueAddress": "Mantri Square Mall, Sampige Road, Malleswaram, Bengaluru, Karnataka 560052, India",
    "VenueCode": "INMB",
    "VenueName": "INOX: Mantri Square, Malleshwaram"
  },
  "INOG": {
    "AvailableFormats": "2D|3D",
    "City": "Kalaburagi (Gulbarga)",
    "Latitude": "17.3287",
    "Longitude": "76.8337",
    "RegionCode": "GULB",
    "State": "Karnataka",
    "SubRegionCode": "GULB",
    "VenueAddress": "Mahaveer Nagar, Khuba Plot, Brhampur, Kalaburagi (Gulbarga), Karnataka 585105, India",
    "VenueCode": "INOG",
    "VenueName": "INOX: Orchid Mall, Kalaburagi"
  },
  "INPT": {
    "AvailableFormats": "2D|3D",
    "City": "Coimbatore",
    "Latitude": "11.0548",
    "Longitude": "76.9943",
    "RegionCode": "COIM",
    "State": "Tamil Nadu",
    "SubRegionCode": "COIM",
    "VenueAddress": "S.F. No. 201, Sathy Main Road, Coimbatore, Tamil Nadu 641035, India",
    "VenueCode": "INPT",
    "VenueName": "INOX: Prozone Mall, Coimbatore"
  },
  "INRZ": {
    "AvailableFormats": "IMAX 2D|2D",
    "City": "Bengaluru",
    "Latitude": "13.0943",
    "Longitude": "77.5956",
    "RegionCode": "HOKT",
    "State": "Karnataka",
    "SubRegionCode": "HOKT",
    "VenueAddress": "INOX Leisure Ltd.,2nd Floor, Galleria Mall, Ambedkar Colony, Yelahanka, Bengaluru, Karnataka 560064, India",
    "VenueCode": "INRZ",
    "VenueName": "INOX: Galleria Mall, Yelahanka"
  },
  "INTM": {
    "AvailableFormats": "3D|2D",
    "City": "Nagpur",
    "Latitude": "21.173",
    "Longitude": "79.1004",
    "RegionCode": "NAGP",
    "State": "Maharashtra",
    "SubRegionCode": "NAGP",
    "VenueAddress": "1st floor, Jaswant Tuli Mall, Indora Square, Kamptee Road, Near Indora Chowk, Nagpur, Maharashtra 440017, India",
    "VenueCode": "INTM",
    "VenueName": "INOX: Jaswant Tuli Mall, Kamptee Road"
  },
  "INVM": {
    "AvailableFormats": "2D|3D|IMAX 2D",
    "City": "Delhi",
    "Latitude": "28.6508",
    "Longitude": "77.1206",
    "RegionCode": "NCR",
    "State": "NCR",
    "SubRegionCode": "DELHI",
    "VenueAddress": "1st Floor, Vishal Cinema Complex, Plot No 1, District Center Rajouri Garden, Delhi, NCR 110027, India",
    "VenueCode": "INVM",
    "VenueName": "INOX: Vishal Mall, Rajouri Garden"
  },
  "IOCP": {
    "AvailableFormats": "2D|3D",
    "City": "Delhi",
    "Latitude": "28.6343",
    "Longitude": "77.2211",
    "RegionCode": "NCR",
    "State": "NCR",
    "SubRegionCode": "DELHI",
    "VenueAddress": "INOX Leisure Limited, Delhi Odeon, 2nd Floor, Odeon Cinema Complex, D-Block, Connaught Place, Delhi, NCR 110001, India",
    "VenueCode": "IOCP",
    "VenueName": "INOX: Odeon, Connaught Place"
  },
  "IPGM": {
    "AvailableFormats": "2D|3D",
    "City": "Dhanbad",
    "Latitude": "23.8292",
    "Longitude": "86.4333",
    "RegionCode": "DHAN",
    "State": "Jharkhand",
    "SubRegionCode": "DHAN",
    "VenueAddress": "3rd Floor, Prabhatam Grand Mall, Nagnagar, Barwadda, Dhaiya, Dhanbad, Jharkhand 826004, India",
    "VenueCode": "IPGM",
    "VenueName": "INOX: Prabhatam Grand Mall, Dhanbad"
  },
  "IRMR": {
    "AvailableFormats": "2D|3D",
    "City": "Rajkot",
    "Latitude": "22.2794",
    "Longitude": "70.7769",
    "RegionCode": "RAJK",
    "State": "Gujarat",
    "SubRegionCode": "RAJK",
    "VenueAddress": "INOX Leisure Ltd., 2nd Floor, Reliance Mall, 150 Feet Ring Road, Near Nana Mauva Circle, Rajkot, Gujarat 360005, India",
    "VenueCode": "IRMR",
    "VenueName": "INOX: Reliance Mega Mall, Rajkot"
  },
  "IUBS": {
    "AvailableFormats": "2D|3D",
    "City": "Udaipur",
    "Latitude": "24.6321",
    "Longitude": "73.7126",
    "RegionCode": "UDAI",
    "State": "Rajasthan",
    "SubRegionCode": "UDAI",
    "VenueAddress": "PVR INOX LTD, 3rd Floor Urban Square Mall, Plot No. F - 210 to 223, Udyog Vihar, Gaurav Path, RIICO Industrial Area, Sukher, Udaipur, Rajasthan 313001, India",
    "VenueCode": "IUBS",
    "VenueName": "INOX: Urban Square Mall, Udaipur"
  },
  "JATV": {
    "AvailableFormats": "2D",
    "City": "Vijayawada",
    "Latitude": "16.517",
    "Longitude": "80.6305",
    "RegionCode": "KADU",
    "State": "Andhra Pradesh",
    "SubRegionCode": "KADU",
    "VenueAddress": "Gandhi Nagar, Samba Murty Road, Andhra Pradesh, Vijayawada, Andhra Pradesh 520003, India",
    "VenueCode": "JATV",
    "VenueName": "Jayram Theatre: Vijayawada"
  },
  "JCFF": {
    "AvailableFormats": "2D",
    "City": "Sivaganga",
    "Latitude": "9.84731",
    "Longitude": "78.4901",
    "RegionCode": "SHVG",
    "State": "Tamil Nadu",
    "SubRegionCode": "SHVG",
    "VenueAddress": "No.8, First Floor, Aranmanai Vaasal, Near Bus stand, Sivaganga, Tamil Nadu 630561, India",
    "VenueCode": "JCFF",
    "VenueName": "JB Cinemas Future Films Dolby Atmos: Sivagangai"
  },
  "JCXP": {
    "AvailableFormats": "2D",
    "City": "Jhargram",
    "Latitude": "22.4356",
    "Longitude": "87.0015",
    "RegionCode": "JARG",
    "State": "West Bengal",
    "SubRegionCode": "JARG",
    "VenueAddress": "Munsi Sai Mouza, Old Jhargram, Near Samsan Kali Temple, Jhargram, West Bengal 721507, India",
    "VenueCode": "JCXP",
    "VenueName": "Jhargram Cineplex: Jhargram"
  },
  "JHVN": {
    "AvailableFormats": "2D",
    "City": "Varanasi",
    "Latitude": "25.3358",
    "Longitude": "82.9773",
    "RegionCode": "VAR",
    "State": "Uttar Pradesh",
    "SubRegionCode": "VAR",
    "VenueAddress": "JHV Mall, The Mall Road, Cantonment, Varanasi Cantt, Near Nehru Park, Varanasi, Uttar Pradesh 221001, India",
    "VenueCode": "JHVN",
    "VenueName": "JHV Cinemas: Varanasi"
  },
  "JMAX": {
    "AvailableFormats": "2D",
    "City": "Kochi",
    "Latitude": "10.0231",
    "Longitude": "76.4502",
    "RegionCode": "KOCH",
    "State": "Kerala",
    "SubRegionCode": "KOCH",
    "VenueAddress": "Pattimattom PO,Pattimattom,Kerala, Near South Indian Bank, Kochi, Kerala 683562, India",
    "VenueCode": "JMAX",
    "VenueName": "J MAX  2K 3D Dolby 7.1: PATTIMATTOM"
  },
  "JOTG": {
    "AvailableFormats": "2D",
    "City": "Chennai",
    "Latitude": "13.0061",
    "Longitude": "80.2014",
    "RegionCode": "CHEN",
    "State": "Tamil Nadu",
    "SubRegionCode": "CHEN",
    "VenueAddress": "Alandur - Parangimalai, Parade Road, Near Kathipara Junction, Chennai, Tamil Nadu 600016, India",
    "VenueCode": "JOTG",
    "VenueName": "Jothi Theatre 4K A/c DTS: ST Thomas Mount"
  },
  "JTBL": {
    "AvailableFormats": "2D",
    "City": "Vizag (Visakhapatnam)",
    "Latitude": "17.7217",
    "Longitude": "83.2032",
    "RegionCode": "SABB",
    "State": "Andhra Pradesh",
    "SubRegionCode": "SABB",
    "VenueAddress": "No.6-175/20, Sheela Nagar, Beside Ayyapa Swamy Temple, Vizag, Andhra Pradesh 530012, India",
    "VenueCode": "JTBL",
    "VenueName": "STBL Cine World, Sheelanagar: Vizag"
  },
  "JTLC": {
    "AvailableFormats": "2D",
    "City": "Chodavaram",
    "Latitude": "17.8299",
    "Longitude": "82.9374",
    "RegionCode": "CDVM",
    "State": "Andhra Pradesh",
    "SubRegionCode": "CDVM",
    "VenueAddress": "Gunisetti Vari Veedhi, Near Vinayak Temple Nowdu Veedhi, Chodavaram, Andhra Pradesh 531036, India",
    "VenueCode": "JTLC",
    "VenueName": "Lakshmi Theatre: Chodavaram"
  },
  "JTPL": {
    "AvailableFormats": "2D",
    "City": "Chennai",
    "Latitude": "12.9697",
    "Longitude": "80.1494",
    "RegionCode": "CHEN",
    "State": "Tamil Nadu",
    "SubRegionCode": "CHEN",
    "VenueAddress": "Srinivasa Perumal Koil, Rajendra Nagar, Pallavaram, Behind Pallavaram Bus Stop, Chennai, Tamil Nadu 600043, India",
    "VenueCode": "JTPL",
    "VenueName": "Janatha Theatre 4K AC DTS (JBL AUDIO): Pallavaram"
  },
  "JTTR": {
    "AvailableFormats": "2D",
    "City": "Jaisalmer",
    "Latitude": "26.9178",
    "Longitude": "70.9136",
    "RegionCode": "JSMR",
    "State": "Rajasthan",
    "SubRegionCode": "JSMR",
    "VenueAddress": "Patwon Ki Haveliyan Road,Amar Sagar Pol,Jaisalmer, Rajasthan 345001, India",
    "VenueCode": "JTTR",
    "VenueName": "Ramesh Talkies: Jaisalmer"
  },
  "JVRM": {
    "AvailableFormats": "2D",
    "City": "Pondicherry",
    "Latitude": "11.9371",
    "Longitude": "79.8226",
    "RegionCode": "AURV",
    "State": "Tamil Nadu",
    "SubRegionCode": "AURV",
    "VenueAddress": "No. 65, Kamaraj Salai, Opposite Hotel Jayaram, Near Punjab National Bank, Pondicherry, Tamil Nadu 605011, India",
    "VenueCode": "JVRM",
    "VenueName": "Jeeva Rukmani Cinemas 4K RGB ATMOS: Pondicherry"
  },
  "KACI": {
    "AvailableFormats": "2D",
    "City": "Balurghat",
    "Latitude": "25.2256",
    "Longitude": "88.7754",
    "RegionCode": "BALU",
    "State": "West Bengal",
    "SubRegionCode": "BALU",
    "VenueAddress": "Chakbhabani, Near Head Post Office, Balurghat, West Bengal 733101, India",
    "VenueCode": "KACI",
    "VenueName": "Kalyani Balurghat(LaserProjector,5.1Digital Sound)"
  },
  "KATK": {
    "AvailableFormats": "2D",
    "City": "Karunagapally",
    "Latitude": "9.05599",
    "Longitude": "76.5378",
    "RegionCode": "KARG",
    "State": "Kerala",
    "SubRegionCode": "KARG",
    "VenueAddress": "Kottarakkara Road, Karunagappalli, Near Padanayaar Mahadeva Temple, Karunagapally, Kerala 690518, India",
    "VenueCode": "KATK",
    "VenueName": "Krishna A/C 2K Dolby 7.1Karunagappally"
  },
  "KCCG": {
    "AvailableFormats": "2D",
    "City": "Gwalior",
    "Latitude": "26.2045",
    "Longitude": "78.1555",
    "RegionCode": "GWAL",
    "State": "Madhya Pradesh",
    "SubRegionCode": "GWAL",
    "VenueAddress": "Lashkar, Gangwal Bhawan Marg, Gwalior, Madhya Pradesh 474001, India",
    "VenueCode": "KCCG",
    "VenueName": "Kailash Cineplex Dolby Digital: Gwalior"
  },
  "KCMW": {
    "AvailableFormats": "2D",
    "City": "Mawana",
    "Latitude": "29.1007",
    "Longitude": "77.9156",
    "RegionCode": "MERT",
    "State": "Uttar Pradesh",
    "SubRegionCode": "MERT",
    "VenueAddress": "Mill Road, Mohalla Kalyan Singh, Mawana, Uttar Pradesh 250401, India",
    "VenueCode": "KCMW",
    "VenueName": "Kapil Cinema: Mawana"
  },
  "KESR": {
    "AvailableFormats": "2D",
    "City": "Indapur",
    "Latitude": "18.1114",
    "Longitude": "75.0296",
    "RegionCode": "INDA",
    "State": "Maharashtra",
    "SubRegionCode": "INDA",
    "VenueAddress": "Near Bhaji Mandai Nehru Chowk, Dargah  Masjid, Indapur, Maharashtra 413106, India",
    "VenueCode": "KESR",
    "VenueName": "Keshar Cinema: Indapur"
  },
  "KKCI": {
    "AvailableFormats": "2D|3D",
    "City": "Imphal",
    "Latitude": "24.7699",
    "Longitude": "93.9367",
    "RegionCode": "IMPH",
    "State": "Manipur",
    "SubRegionCode": "IMPH",
    "VenueAddress": "Kumecs Infratech, Kumecs City Centre, Kakwa, Imphal West, Imphal, Manipur 795008, India",
    "VenueCode": "KKCI",
    "VenueName": "Kumecs Cinema: Imphal"
  },
  "KLJL": {
    "AvailableFormats": "2D",
    "City": "Yellandu",
    "Latitude": "17.5843",
    "Longitude": "80.329",
    "RegionCode": "YRLL",
    "State": "Telangana",
    "SubRegionCode": "YRLL",
    "VenueAddress": "Bhagya Nagar, Thanda, Yellandu, Telangana 507123, India",
    "VenueCode": "KLJL",
    "VenueName": "Kalanjali Theater: Yellandu"
  },
  "KMPG": {
    "AvailableFormats": "2D",
    "City": "Ganapavaram",
    "Latitude": "16.7032",
    "Longitude": "81.4632",
    "RegionCode": "GANP",
    "State": "Andhra Pradesh",
    "SubRegionCode": "GANP",
    "VenueAddress": "Ganapavaram - Pippara Road, Near Ganapavaram Panchayat Office, Ganapavaram, Andhra Pradesh 534198, India",
    "VenueCode": "KMPG",
    "VenueName": "Kumari Picture Palace A/C Dts: Ganapavaram"
  },
  "KPPB": {
    "AvailableFormats": "2D",
    "City": "Bahraich",
    "Latitude": "27.5715",
    "Longitude": "81.6027",
    "RegionCode": "BHRH",
    "State": "Uttar Pradesh",
    "SubRegionCode": "BHRH",
    "VenueAddress": "Kanoon Go Pura South, Brahmnipura, Near Disha Complex, Bahraich, Uttar Pradesh 271801, India",
    "VenueCode": "KPPB",
    "VenueName": "K Cinemas: Bahraich"
  },
  "KRMT": {
    "AvailableFormats": "2D",
    "City": "Sakti",
    "Latitude": "22.0182",
    "Longitude": "82.9593",
    "RegionCode": "SAKT",
    "State": "Chhattisgarh",
    "SubRegionCode": "SAKT",
    "VenueAddress": "1st Floor, Jindal Plaza Station Road, Sakti Marg, Sakti, Chhattisgarh 495689, India",
    "VenueCode": "KRMT",
    "VenueName": "Krishna Metro Cinema: Sakti"
  },
  "KSGK": {
    "AvailableFormats": "2D",
    "City": "Vizag (Visakhapatnam)",
    "Latitude": "17.6864",
    "Longitude": "83.208",
    "RegionCode": "SABB",
    "State": "Andhra Pradesh",
    "SubRegionCode": "SABB",
    "VenueAddress": "Main Road, Old Gajuwaka, Near Mamata Hospital, Vizag (Visakhapatnam), Andhra Pradesh 530026, India",
    "VenueCode": "KSGK",
    "VenueName": "Sree Kanya Cinemas: Gajuwaka"
  },
  "KSTR": {
    "AvailableFormats": "2D",
    "City": "Alappuzha",
    "Latitude": "9.49605",
    "Longitude": "76.3412",
    "RegionCode": "CRTL",
    "State": "Kerala",
    "SubRegionCode": "CRTL",
    "VenueAddress": "CCNB Road, Erezha, Mullakkal, Near St George Lodgings, Alappuzha, Kerala 688011, India",
    "VenueCode": "KSTR",
    "VenueName": "Kairali Sree Theater: Alappuzha"
  },
  "KTKO": {
    "AvailableFormats": "2D",
    "City": "B.Kothakota",
    "Latitude": "13.6586",
    "Longitude": "78.2672",
    "RegionCode": "BKOT",
    "State": "Andhra Pradesh",
    "SubRegionCode": "BKOT",
    "VenueAddress": "Bypass Road, Handadi, B.Kothakota, Andhra Pradesh 517370, India",
    "VenueCode": "KTKO",
    "VenueName": "Sri Venkateswara Theater Dolby Digital"
  },
  "KYRR": {
    "AvailableFormats": "2D",
    "City": "Rayakottai",
    "Latitude": "12.5146",
    "Longitude": "78.032",
    "RegionCode": "RTTA",
    "State": "Tamil Nadu",
    "SubRegionCode": "RTTA",
    "VenueAddress": "4/424, Shoolagiri Main Road, Rahamath Colony, Rayakottai, Tamil Nadu 635116, India",
    "VenueCode": "KYRR",
    "VenueName": "Kamaraj Theatre: Rayakottai"
  },
  "LCKR": {
    "AvailableFormats": "2D",
    "City": "Kannur",
    "Latitude": "11.8798",
    "Longitude": "75.3691",
    "RegionCode": "KANN",
    "State": "Kerala",
    "SubRegionCode": "KANN",
    "VenueAddress": "Tulichery Road, Talap, Near Oriental Bank of commerce, Kannur, Kerala 670002, India",
    "VenueCode": "LCKR",
    "VenueName": "Liberty Cinema: Kannur (Ambili Theatre)"
  },
  "LCXA": {
    "AvailableFormats": "2D",
    "City": "Amgaon",
    "Latitude": "21.3759",
    "Longitude": "80.381",
    "RegionCode": "AMGN",
    "State": "Maharashtra",
    "SubRegionCode": "AMGN",
    "VenueAddress": "Liya Cinemax, OPP Bail Bazar, Amgaon, Maharashtra 441902, India",
    "VenueCode": "LCXA",
    "VenueName": "Liya Cinemax: Amgaon"
  },
  "LITH": {
    "AvailableFormats": "2D",
    "City": "Hinganghat",
    "Latitude": "20.5505",
    "Longitude": "78.8364",
    "RegionCode": "HINA",
    "State": "Maharashtra",
    "SubRegionCode": "HINA",
    "VenueAddress": "Civil Lines Road, Dag Borkhedi, Hinganghat, Maharashtra 442301, India",
    "VenueCode": "LITH",
    "VenueName": "Laxmi Talkies: Hinganghat"
  },
  "LKTK": {
    "AvailableFormats": "2D",
    "City": "Karur",
    "Latitude": "10.9587",
    "Longitude": "78.0829",
    "RegionCode": "KARU",
    "State": "Tamil Nadu",
    "SubRegionCode": "KARU",
    "VenueAddress": "No 61, Dindigul Road, Opposite Bombay sweets and Bakery, Karur, Tamil Nadu 639001, India",
    "VenueCode": "LKTK",
    "VenueName": "Lakshmi Raam Theatre: Karur"
  },
  "LMSR": {
    "AvailableFormats": "2D",
    "City": "Sehore",
    "Latitude": "23.2016",
    "Longitude": "77.0796",
    "RegionCode": "SEHO",
    "State": "Madhya Pradesh",
    "SubRegionCode": "SEHO",
    "VenueAddress": "42, Sindhi Colony, Main Road, Near State bank of India, Next to City Post Office, Sehore, Madhya Pradesh 466001, India",
    "VenueCode": "LMSR",
    "VenueName": "Lisa Multiplex Screen 2: Sehore"
  },
  "LTRM": {
    "AvailableFormats": "2D",
    "City": "Ratlam",
    "Latitude": "23.3291",
    "Longitude": "75.0381",
    "RegionCode": "KHCU",
    "State": "Madhya Pradesh",
    "SubRegionCode": "KHCU",
    "VenueAddress": "Lokendra Talkies Road, Sahar Sarai, Laxman Pura, Katju Nagar, Near Getwell Hospital and Research Center, Ratlam, Madhya Pradesh 457001, India",
    "VenueCode": "LTRM",
    "VenueName": "Shri Lokendra Talkies (Laser Projector): Ratlam"
  },
  "LYAS": {
    "AvailableFormats": "2D",
    "City": "Solapur",
    "Latitude": "17.6533",
    "Longitude": "75.9318",
    "RegionCode": "SOLA",
    "State": "Maharashtra",
    "SubRegionCode": "SOLA",
    "VenueAddress": "S.No.218/2 C, Adarsh Nagar, Akashwai Kendra Road, Opposite MIDC, Solapur, Maharashtra 413006, India",
    "VenueCode": "LYAS",
    "VenueName": "Laxminarayan Cinema: Solapur"
  },
  "MACB": {
    "AvailableFormats": "2D|3D",
    "City": "Banswara",
    "Latitude": "23.5537",
    "Longitude": "74.4264",
    "RegionCode": "BANS",
    "State": "Rajasthan",
    "SubRegionCode": "BANS",
    "VenueAddress": "3rd Floor, Nakshatra Mall, Udaipur Dungarpur Link Road, Banswara, Rajasthan 327001, India",
    "VenueCode": "MACB",
    "VenueName": "Mukta A2 Cinemas: Nakshatra Mall, Banswara"
  },
  "MAGH": {
    "AvailableFormats": "2D",
    "City": "Station Ghanpur",
    "Latitude": "17.8528",
    "Longitude": "79.3762",
    "RegionCode": "STGH",
    "State": "Telangana",
    "SubRegionCode": "STGH",
    "VenueAddress": "Palakurthy Road, Uppugal - Ghanpur Road, Station Ghanpur, Telangana 506144, India",
    "VenueCode": "MAGH",
    "VenueName": "Mahalaxmi Cinemas: Station Ghanpur"
  },
  "MALB": {
    "AvailableFormats": "",
    "City": "Bhopal",
    "Latitude": "23.2745",
    "Longitude": "77.3703",
    "RegionCode": "BHOP",
    "State": "Madhya Pradesh",
    "SubRegionCode": "BHOP",
    "VenueAddress": "Miraj Cinemas, 4th Floor, Alark Square, Lalghati, Bhopal, Madhya Pradesh 462030, India",
    "VenueCode": "MALB",
    "VenueName": "Miraj Cinemas: Alark Square, Bhopal"
  },
  "MAVC": {
    "AvailableFormats": "3D|2D",
    "City": "Vizag (Visakhapatnam)",
    "Latitude": "17.7088",
    "Longitude": "83.3002",
    "RegionCode": "SABB",
    "State": "Andhra Pradesh",
    "SubRegionCode": "SABB",
    "VenueAddress": "4th Floor,Town Main Road, Next Super Bazaar, Vizag, Andhra Pradesh 530002, India",
    "VenueCode": "MAVC",
    "VenueName": "Mukta A2 Cinemas: Vizag (ONLY RECLINERS AND SOFAS)"
  },
  "MBDC": {
    "AvailableFormats": "2D",
    "City": "Kozhikode",
    "Latitude": "11.2599",
    "Longitude": "75.787",
    "RegionCode": "KOZH",
    "State": "Kerala",
    "SubRegionCode": "KOZH",
    "VenueAddress": "3rd Floor, Mavoor Road, Near Mofussil Bus Stand, Kozhikode, Kerala 673004, India",
    "VenueCode": "MBDC",
    "VenueName": "Miraj Cinemas: Blue Diamond Mall, Calicut"
  },
  "MCBG": {
    "AvailableFormats": "2D|3D",
    "City": "Balaghat",
    "Latitude": "21.8173",
    "Longitude": "80.1916",
    "RegionCode": "BLGT",
    "State": "Madhya Pradesh",
    "SubRegionCode": "BLGT",
    "VenueAddress": "Kalptaru Mall, Chitragupt Nagar, Near Mahavir Chowk, Balaghat, Madhya Pradesh 481001, India",
    "VenueCode": "MCBG",
    "VenueName": "Miraj Cinemas: Balaghat"
  },
  "MCDV": {
    "AvailableFormats": "2D",
    "City": "Vizag (Visakhapatnam)",
    "Latitude": "17.6853",
    "Longitude": "83.2087",
    "RegionCode": "VIZA",
    "State": "Andhra Pradesh",
    "SubRegionCode": "VIZA",
    "VenueAddress": "Indira Colony, Gajuwaka, Near Alif Family Restaurant, Vizag (Visakhapatnam), Andhra Pradesh 500026, India",
    "VenueCode": "MCDV",
    "VenueName": "Mohini Cinemas Dolby Atmos: Gajuwaka"
  },
  "MCIW": {
    "AvailableFormats": "2D|IMAX 2D|3D",
    "City": "Mumbai",
    "Latitude": "19.0316",
    "Longitude": "72.8809",
    "RegionCode": "MUMBAI",
    "State": "Maharashtra",
    "SubRegionCode": "MCENT",
    "VenueAddress": "Ajmera I-Land Road, Bhakti Park, Wadala East, Mumbai, Maharashtra 400037, India",
    "VenueCode": "MCIW",
    "VenueName": "Miraj Cinemas: IMAX, Wadala"
  },
  "MCMC": {
    "AvailableFormats": "2D",
    "City": "Singrauli",
    "Latitude": "24.0651",
    "Longitude": "82.6302",
    "RegionCode": "SNGR",
    "State": "Madhya Pradesh",
    "SubRegionCode": "SNGR",
    "VenueAddress": "Near Masjid Square, Talkies Road, Waidhan, Singrauli, Madhya Pradesh 486886, India",
    "VenueCode": "MCMC",
    "VenueName": "MCM Cineplex: Waidhan"
  },
  "MCPR": {
    "AvailableFormats": "2D",
    "City": "Poovar",
    "Latitude": "8.3212",
    "Longitude": "77.0635",
    "RegionCode": "TRIV",
    "State": "Kerala",
    "SubRegionCode": "TRIV",
    "VenueAddress": "Poovar Vizhinjam Road, Near Sruthi Royal Auditorium, Poovar, Kerala 695525, India",
    "VenueCode": "MCPR",
    "VenueName": "Mridhanga Cineplex 4K Dolby Atmos: Poovar"
  },
  "MCSO": {
    "AvailableFormats": "3D|2D",
    "City": "Vadodara",
    "Latitude": "22.2922",
    "Longitude": "73.1357",
    "RegionCode": "VAD",
    "State": "Gujarat",
    "SubRegionCode": "VAD",
    "VenueAddress": "The Emperor Mall, 2nd Floor, Beside VCA Ground, Vasna-Bhayli Road, Opposite Shakti Green Party Plot, Vadodara, Gujarat 391410, India",
    "VenueCode": "MCSO",
    "VenueName": "Mukta A2 Cinemas (Opulence): The Emperor Mall"
  },
  "MCVD": {
    "AvailableFormats": "2D",
    "City": "Vadodara",
    "Latitude": "22.3194",
    "Longitude": "73.1589",
    "RegionCode": "VAD",
    "State": "Gujarat",
    "SubRegionCode": "VAD",
    "VenueAddress": "3rd Floor, S-Square Complex, Above Dominos, Subhanpura, Beside Ganga Jamuna Hospital, Vadodara, Gujarat 390023, India",
    "VenueCode": "MCVD",
    "VenueName": "Movietime: S-Square Mall, Subhanpura, Vadodara"
  },
  "MDIT": {
    "AvailableFormats": "2D",
    "City": "Trichy",
    "Latitude": "10.7464",
    "Longitude": "78.59",
    "RegionCode": "TRIC",
    "State": "Tamil Nadu",
    "SubRegionCode": "TRIC",
    "VenueAddress": "484 Navalurkottapattu, Dindigul High Road, Trichy, Tamil Nadu 620009, India",
    "VenueCode": "MDIT",
    "VenueName": "A-Moorthys Drive-In Theatre: Trichy"
  },
  "MEML": {
    "AvailableFormats": "2D",
    "City": "Hoshangabad",
    "Latitude": "22.7521",
    "Longitude": "77.7293",
    "RegionCode": "HSGB",
    "State": "Madhya Pradesh",
    "SubRegionCode": "HSGB",
    "VenueAddress": "Meenakshi Chowk, Narmadapuram, Hoshangabad, Madhya Pradesh 461001, India",
    "VenueCode": "MEML",
    "VenueName": "Meenakshi Cineplex (Screen 1 & 2): Hoshangabad"
  },
  "MGGG": {
    "AvailableFormats": "2D",
    "City": "Vijayawada",
    "Latitude": "16.5172",
    "Longitude": "80.6288",
    "RegionCode": "VIJA",
    "State": "Andhra Pradesh",
    "SubRegionCode": "VIJA",
    "VenueAddress": "Andhra Ratna Road, Gandhi Nagar, Vijayawada, Andhra Pradesh 520003, India",
    "VenueCode": "MGGG",
    "VenueName": "G3 Theatres: Raj Yuvraj, Vijayawada"
  },
  "MIDA": {
    "AvailableFormats": "7D",
    "City": "Greater Noida",
    "Latitude": "28.4529",
    "Longitude": "77.526",
    "RegionCode": "NCR",
    "State": "NCR",
    "SubRegionCode": "GRET",
    "VenueAddress": "Grand Venice Mall, 2nd Floor, SH 3, Site IV, Greater Noida, NCR 201308, India",
    "VenueCode": "MIDA",
    "VenueName": "7D Masti: The Grand Venice Mall, Greater Noida"
  },
  "MITD": {
    "AvailableFormats": "2D|3D",
    "City": "Nathdwara",
    "Latitude": "24.9166",
    "Longitude": "73.8238",
    "RegionCode": "NATW",
    "State": "Rajasthan",
    "SubRegionCode": "NATW",
    "VenueAddress": "5th Floor, Miraj Meridian Mall, Nathuwas Road, NH 8, Near Vallabh Ashram, Nathdwara, Rajasthan 313301, India",
    "VenueCode": "MITD",
    "VenueName": "Miraj Cinemas: Nathdwara"
  },
  "MKCK": {
    "AvailableFormats": "2D",
    "City": "Aravakurichi",
    "Latitude": "10.7803",
    "Longitude": "77.9122",
    "RegionCode": "ARAV",
    "State": "Tamil Nadu",
    "SubRegionCode": "ARAV",
    "VenueAddress": "Aravakurichi Main Road, Aravakurichi, Tamil Nadu, Aravakurichi, Tamil Nadu 639201, India",
    "VenueCode": "MKCK",
    "VenueName": "Makkal Cinemas A/C: Aravakurichi"
  },
  "MLCK": {
    "AvailableFormats": "2D",
    "City": "Shoranur",
    "Latitude": "10.7603",
    "Longitude": "76.2736",
    "RegionCode": "SHNR",
    "State": "Kerala",
    "SubRegionCode": "SHNR",
    "VenueAddress": "Shoranur Ring Road, Railway Station Junction, Shoranur, Kerala 679121, India",
    "VenueCode": "MLCK",
    "VenueName": "M Lal, Aashirvad Cineplexx: Shoranur"
  },
  "MMCA": {
    "AvailableFormats": "3D|2D",
    "City": "Hyderabad",
    "Latitude": "17.4956",
    "Longitude": "78.3533",
    "RegionCode": "HYD",
    "State": "Telangana",
    "SubRegionCode": "HYD",
    "VenueAddress": "Cinetown, Survey No. 71, Miyapur Village Ranga Reddy, Hyderabad, Telangana 500049, India",
    "VenueCode": "MMCA",
    "VenueName": "Miraj Cinemas: CineTown, Miyapur"
  },
  "MMHA": {
    "AvailableFormats": "3D|2D",
    "City": "Mumbai",
    "Latitude": "19.1287",
    "Longitude": "72.926",
    "RegionCode": "MUMBAI",
    "State": "Maharashtra",
    "SubRegionCode": "MCENT",
    "VenueAddress": "Huma Mall, LBS Road, Kanjurmarg (W), Near Kanjurmarg Railway Station, Mumbai, Maharashtra 400078, India",
    "VenueCode": "MMHA",
    "VenueName": "MovieMax: Huma, Kanjurmarg"
  },
  "MMOC": {
    "AvailableFormats": "2D",
    "City": "Ghaziabad",
    "Latitude": "28.7354",
    "Longitude": "77.285",
    "RegionCode": "NCR",
    "State": "NCR",
    "SubRegionCode": "GHAZ",
    "VenueAddress": "D-Block No. 2, Near Bus Stand, Loni, Ghaziabad, NCR 201102, India",
    "VenueCode": "MMOC",
    "VenueName": "Movie Magic Cinema: Ghaziabad"
  },
  "MMXA": {
    "AvailableFormats": "3D|2D",
    "City": "Pune",
    "Latitude": "18.5189",
    "Longitude": "73.9357",
    "RegionCode": "PUNE",
    "State": "Maharashtra",
    "SubRegionCode": "PUNE",
    "VenueAddress": "MovieMax, Amanora Town Centre, Amanora Park Town, Hadapsar, Pune, Maharashtra 411028, India",
    "VenueCode": "MMXA",
    "VenueName": "MovieMax Edition (Luxe): Amanora Town Center, Pune"
  },
  "MNKC": {
    "AvailableFormats": "2D",
    "City": "Akola",
    "Latitude": "20.7143",
    "Longitude": "76.9974",
    "RegionCode": "AKOL",
    "State": "Maharashtra",
    "SubRegionCode": "AKOL",
    "VenueAddress": "Manek Talkies, Tilak Road, Near Akot Bus Stand, Akola, Maharashtra 444001, India",
    "VenueCode": "MNKC",
    "VenueName": "Manek Cinema: Akola"
  },
  "MPTT": {
    "AvailableFormats": "2D",
    "City": "Tirupati",
    "Latitude": "13.6302",
    "Longitude": "79.4239",
    "RegionCode": "TIRU",
    "State": "Andhra Pradesh",
    "SubRegionCode": "TIRU",
    "VenueAddress": "Jayasam Road, Tata Nagar, Tirupati, Andhra Pradesh 517501, India",
    "VenueCode": "MPTT",
    "VenueName": "Pratap Delux A/c 2k Dolby Atmos: Tirupati"
  },
  "MRGT": {
    "AvailableFormats": "3D|2D",
    "City": "Hyderabad",
    "Latitude": "17.4938",
    "Longitude": "78.3193",
    "RegionCode": "HYD",
    "State": "Telangana",
    "SubRegionCode": "HYD",
    "VenueAddress": "H.No 5 - 54, Manjeera Road, Chandanagar, Beside Andhra Bank, Hyderabad, Telangana 500050, India",
    "VenueCode": "MRGT",
    "VenueName": "Miraj Cinemas: Geeta, Chandanagar"
  },
  "MRTE": {
    "AvailableFormats": "2D",
    "City": "Mandya",
    "Latitude": "12.5275",
    "Longitude": "76.8955",
    "RegionCode": "MND",
    "State": "Karnataka",
    "SubRegionCode": "MND",
    "VenueAddress": "Bangalore Mysore Highway, M.C. Road, Ashok Nagar, Mandya, Karnataka 571401, India",
    "VenueCode": "MRTE",
    "VenueName": "Mahaveer Theatre: Mandya"
  },
  "MSMD": {
    "AvailableFormats": "2D",
    "City": "Bengaluru",
    "Latitude": "12.9899",
    "Longitude": "77.5005",
    "RegionCode": "BANG",
    "State": "Karnataka",
    "SubRegionCode": "BANG",
    "VenueAddress": "3, 6 / 1A, 1st Cross, Magadi Main Road, Sunkadakatte, Bengaluru, Karnataka 560091, India",
    "VenueCode": "MSMD",
    "VenueName": "Miraj Cinemas: TGN Lotus Elite, Magadi Road"
  },
  "MTCV": {
    "AvailableFormats": "",
    "City": "Gurugram (Gurgaon)",
    "Latitude": "28.5364",
    "Longitude": "77.0185",
    "RegionCode": "NCR",
    "State": "NCR",
    "SubRegionCode": "GURG",
    "VenueAddress": "2nd Floor, VSR Avenue Sector 114, Gurugram (Gurgaon), NCR 122017, India",
    "VenueCode": "MTCV",
    "VenueName": "Movietime Cinema: VSR 114 Avenue Sec 114 Gurgaon"
  },
  "MTKV": {
    "AvailableFormats": "",
    "City": "Kavali",
    "Latitude": "14.9202",
    "Longitude": "79.9899",
    "RegionCode": "KVLI",
    "State": "Andhra Pradesh",
    "SubRegionCode": "KVLI",
    "VenueAddress": "Vaddi Palem, Theatre Road, Kavali, Andhra Pradesh 524201, India",
    "VenueCode": "MTKV",
    "VenueName": "Manasa Cinemas 4k Dolby Atmos: Kavali,Nellore"
  },
  "MTRA": {
    "AvailableFormats": "2D",
    "City": "Mylavaram",
    "Latitude": "16.7576",
    "Longitude": "80.6416",
    "RegionCode": "MYLA",
    "State": "Andhra Pradesh",
    "SubRegionCode": "MYLA",
    "VenueAddress": "Badrachalam Road, Near Shriram City Union Finance, Mylavaram, Andhra Pradesh 521230, India",
    "VenueCode": "MTRA",
    "VenueName": "Sangamithra Theater A/C 2K Dolby: Mylavaram"
  },
  "MUCK": {
    "AvailableFormats": "3D|2D",
    "City": "Kalyan",
    "Latitude": "19.2602",
    "Longitude": "73.1236",
    "RegionCode": "MUMBAI",
    "State": "Maharashtra",
    "SubRegionCode": "KALYAN",
    "VenueAddress": "Triveni Grande, 4th Floor, D.B Chowk, Adharwadi Jail Road, Kalyan West, Thane, Near Don Bosco School, Kalyan, Maharashtra 421301, India",
    "VenueCode": "MUCK",
    "VenueName": "Mukta A2 Cinemas: Triveni Grande, Kalyan (West)"
  },
  "MVSK": {
    "AvailableFormats": "",
    "City": "Ahmedabad",
    "Latitude": "22.9926",
    "Longitude": "72.3694",
    "RegionCode": "AHD",
    "State": "Gujarat",
    "SubRegionCode": "AHD",
    "VenueAddress": "Vardhman Square, 3rd Floor, Sanand, Ahmedabad, Gujarat 382110, India",
    "VenueCode": "MVSK",
    "VenueName": "Miraj Cinemas: Vardhman Square, Sanand"
  },
  "MXSN": {
    "AvailableFormats": "2D",
    "City": "Mumbai",
    "Latitude": "19.0934",
    "Longitude": "72.8838",
    "RegionCode": "MUMBAI",
    "State": "Maharashtra",
    "SubRegionCode": "MWEST",
    "VenueAddress": "90 Feet Road, Sakinaka Andheri(East), Opposite Jarimari Bus Stop, Mumbai, Maharashtra 400072, India",
    "VenueCode": "MXSN",
    "VenueName": "Maxus Cinemas: Saki Naka"
  },
  "MYEP": {
    "AvailableFormats": "",
    "City": "Patratu",
    "Latitude": "23.5892",
    "Longitude": "85.269",
    "RegionCode": "RANC",
    "State": "Jharkhand",
    "SubRegionCode": "RANC",
    "VenueAddress": "No.14 Plot No 347, Talatand, Patratu, Jharkhand 829119, India",
    "VenueCode": "MYEP",
    "VenueName": "Midwaay Cine Cafe: Patratu"
  },
  "NAGJ": {
    "AvailableFormats": "2D",
    "City": "jaggampeta",
    "Latitude": "17.1755",
    "Longitude": "82.062",
    "RegionCode": "JAGG",
    "State": "Andhra Pradesh",
    "SubRegionCode": "JAGG",
    "VenueAddress": "East Godavari, Near SBI Atm, jaggampeta, Andhra Pradesh 533435, India",
    "VenueCode": "NAGJ",
    "VenueName": "Nageshwara A/c Dts: Jaggampeta"
  },
  "NCDA": {
    "AvailableFormats": "2D",
    "City": "Dhekiajuli",
    "Latitude": "26.7041",
    "Longitude": "92.5013",
    "RegionCode": "DEKJ",
    "State": "Assam",
    "SubRegionCode": "DEKJ",
    "VenueAddress": "National Highway 15, Ratan Juli Gaon, Dhekiajuli, Assam 784110, India",
    "VenueCode": "NCDA",
    "VenueName": "Nakshatra Cinemas: Dhekiajuli, Assam"
  },
  "NCPM": {
    "AvailableFormats": "2D",
    "City": "Parbhani",
    "Latitude": "19.2664",
    "Longitude": "76.7624",
    "RegionCode": "PARB",
    "State": "Maharashtra",
    "SubRegionCode": "PARB",
    "VenueAddress": "National Highway 222, Masoom Colony, Jintoor Road, Parbhani, Maharashtra 431401, India",
    "VenueCode": "NCPM",
    "VenueName": "Naresh Cineplex: Parbhani"
  },
  "NEWC": {
    "AvailableFormats": "2D",
    "City": "Siliguri",
    "Latitude": "26.7048",
    "Longitude": "88.4286",
    "RegionCode": "SILI",
    "State": "West Bengal",
    "SubRegionCode": "SILI",
    "VenueAddress": "Ward 28, New Cinema Road, Para, Siliguri, West Bengal 734001, India",
    "VenueCode": "NEWC",
    "VenueName": "New Cinema: Siliguri"
  },
  "NLJR": {
    "AvailableFormats": "2D",
    "City": "Nallajerla",
    "Latitude": "16.9555",
    "Longitude": "81.4172",
    "RegionCode": "TADP",
    "State": "Andhra Pradesh",
    "SubRegionCode": "TADP",
    "VenueAddress": "Rajahmundry - Bhadrachalam Highway, Opp to Buchalupond, Nallajerla, Andhra Pradesh 534111, India",
    "VenueCode": "NLJR",
    "VenueName": "Sri Lakshmi Multiplex (Nova Cinemaz): Nallajerla"
  },
  "NNKA": {
    "AvailableFormats": "2D",
    "City": "Kolkata",
    "Latitude": "22.5423",
    "Longitude": "88.3456",
    "RegionCode": "KOLK",
    "State": "West Bengal",
    "SubRegionCode": "KOLK",
    "VenueAddress": "Nandan West Bengal Film Centre, 1/1, A.J.C. Bose Road, Near West Bengal Bangla Academy, Kolkata, West Bengal 700020, India",
    "VenueCode": "NNKA",
    "VenueName": "Nandan: Kolkata"
  },
  "NRTB": {
    "AvailableFormats": "2D",
    "City": "Bareilly",
    "Latitude": "28.3348",
    "Longitude": "79.4293",
    "RegionCode": "BARE",
    "State": "Uttar Pradesh",
    "SubRegionCode": "BARE",
    "VenueAddress": "84, 135, Balwant Singh Marg, Cantt, Civil Lines,Cariappa Road, Bareilly Cantt, Bareilly, Uttar Pradesh 243001, India",
    "VenueCode": "NRTB",
    "VenueName": "Natraj Cinema: Bareilly"
  },
  "NTCD": {
    "AvailableFormats": "2D",
    "City": "Dehradun",
    "Latitude": "30.3266",
    "Longitude": "78.0357",
    "RegionCode": "DEH",
    "State": "Uttarakhand",
    "SubRegionCode": "DEH",
    "VenueAddress": "Chakarata Road, Old Connaught Place, Dehradun, Uttarakhand 248001, India",
    "VenueCode": "NTCD",
    "VenueName": "Natraj Cinema: Dehradun"
  },
  "NTTR": {
    "AvailableFormats": "2D",
    "City": "Kochi",
    "Latitude": "9.93296",
    "Longitude": "76.3541",
    "RegionCode": "PALY",
    "State": "Kerala",
    "SubRegionCode": "PALY",
    "VenueAddress": "New Central Talkies, Vaikom Road, Near Kinar junction, Kochi, Kerala 682301, India",
    "VenueCode": "NTTR",
    "VenueName": "New Central Talkies Dolby Atmos 2K and 3D: Thripun"
  },
  "NWAD": {
    "AvailableFormats": "2D",
    "City": "Vikasnagar",
    "Latitude": "30.4707",
    "Longitude": "77.7744",
    "RegionCode": "VKNG",
    "State": "Uttarakhand",
    "SubRegionCode": "VKNG",
    "VenueAddress": "Near Guru Kripa Complex, Punjabi Colony, Vikasnagar, Vikasnagar, Uttarakhand 248198, India",
    "VenueCode": "NWAD",
    "VenueName": "Abhinav Cinema: Vikasnagar"
  },
  "NYBW": {
    "AvailableFormats": "2D",
    "City": "Banswara",
    "Latitude": "23.5279",
    "Longitude": "74.4269",
    "RegionCode": "BANS",
    "State": "Rajasthan",
    "SubRegionCode": "BANS",
    "VenueAddress": "The Grand KB Mall, 3rd Floor, Plot 31B, Road No 5, RIICO Industrial Area, Thikariya, Banswara, Rajasthan 327001, India",
    "VenueCode": "NYBW",
    "VenueName": "NY Cinema Grand KB Mall: Banswara"
  },
  "NYSM": {
    "AvailableFormats": "2D",
    "City": "Meerut",
    "Latitude": "28.9815",
    "Longitude": "77.7044",
    "RegionCode": "MERT",
    "State": "Uttar Pradesh",
    "SubRegionCode": "MERT",
    "VenueAddress": "Satyam Palace, Municipal House No. 28, Bhudana Gate. Mohalla Swamipada, Meerut, Uttar Pradesh 250002, India",
    "VenueCode": "NYSM",
    "VenueName": "NY Satyam Cinema: Meerut"
  },
  "OMCM": {
    "AvailableFormats": "2D",
    "City": "Gandhidham",
    "Latitude": "23.076",
    "Longitude": "70.1075",
    "RegionCode": "KTCH",
    "State": "Gujarat",
    "SubRegionCode": "KTCH",
    "VenueAddress": "Om Cineplex, M/s Naren Enterprise, Plot No - A, WARD NO. 6  (COMMERCIAL) Ram Baugh Crossways,Gandhidham, Gujarat 370201, India",
    "VenueCode": "OMCM",
    "VenueName": "Om Cineplex: Gandhidham"
  },
  "OPCN": {
    "AvailableFormats": "2D",
    "City": "Nagaon",
    "Latitude": "26.309",
    "Longitude": "92.7038",
    "RegionCode": "NAAM",
    "State": "Assam",
    "SubRegionCode": "NAAM",
    "VenueAddress": "P G Enterprise, Siwale khuwa, Borghat Bypass,Borghat, Nagaon, Assam 782003, India",
    "VenueCode": "OPCN",
    "VenueName": "Opera Cinemas: Nagaon"
  },
  "PADY": {
    "AvailableFormats": "2D",
    "City": "Muniguda",
    "Latitude": "19.6264",
    "Longitude": "83.5003",
    "RegionCode": "MUNI",
    "State": "Odisha",
    "SubRegionCode": "MUNI",
    "VenueAddress": "SH 5, Jaga Colony, Bhairabagad Road, Muniguda, Odisha 765020, India",
    "VenueCode": "PADY",
    "VenueName": "Padmalaya Theatre: Muniguda"
  },
  "PAYT": {
    "AvailableFormats": "",
    "City": "Amravati",
    "Latitude": "20.931",
    "Longitude": "77.7555",
    "RegionCode": "AMRA",
    "State": "Maharashtra",
    "SubRegionCode": "AMRA",
    "VenueAddress": "Jaistambh Chowk, Morshi Road, Near ICICI Bank, Amravati, Maharashtra 444601, India",
    "VenueCode": "PAYT",
    "VenueName": "Priya Talkies: Amravati"
  },
  "PCAN": {
    "AvailableFormats": "2D|3D",
    "City": "Chennai",
    "Latitude": "13.0826",
    "Longitude": "80.1948",
    "RegionCode": "CHEN",
    "State": "Tamil Nadu",
    "SubRegionCode": "CHEN",
    "VenueAddress": "3rd Floor, VR Mall, Metro Zone, No 44, Pillaiyar Koil Street, Jawaharlal Nehru Road, Anna Nagar, Chennai, Tamil Nadu 600040, India",
    "VenueCode": "PCAN",
    "VenueName": "PVR: VR Chennai, Anna Nagar"
  },
  "PCCK": {
    "AvailableFormats": "3D|2D",
    "City": "Kota",
    "Latitude": "25.142",
    "Longitude": "75.8544",
    "RegionCode": "KOTA",
    "State": "Rajasthan",
    "SubRegionCode": "KOTA",
    "VenueAddress": "4th Floor, Cine Mall, Indraprastha Industrial Area, Jhalawar Road, Kota, Rajasthan 324005, India",
    "VenueCode": "PCCK",
    "VenueName": "PVR: Cinemall, Kota"
  },
  "PCKR": {
    "AvailableFormats": "2D",
    "City": "Kolhapur",
    "Latitude": "16.6988",
    "Longitude": "74.2279",
    "RegionCode": "KOLH",
    "State": "Maharashtra",
    "SubRegionCode": "KOLH",
    "VenueAddress": "Prabhat Cinema, 1526 C, Laxmipuri, Near Laxmipuri Police Station, Kolhapur, Maharashtra 416002, India",
    "VenueCode": "PCKR",
    "VenueName": "Prabhat Royal Cineplex: Kolhapur"
  },
  "PCPH": {
    "AvailableFormats": "2D",
    "City": "Phagwara",
    "Latitude": "31.2221",
    "Longitude": "75.7606",
    "RegionCode": "PHAG",
    "State": "Punjab",
    "SubRegionCode": "PHAG",
    "VenueAddress": "Jandiala - Phagwara Road, Satnam Pura, Phagwara, Punjab 144402, India",
    "VenueCode": "PCPH",
    "VenueName": "Prime Cinema: Phagwara"
  },
  "PCVB": {
    "AvailableFormats": "2D",
    "City": "Kochi",
    "Latitude": "10.0143",
    "Longitude": "76.3123",
    "RegionCode": "PALY",
    "State": "Kerala",
    "SubRegionCode": "PALY",
    "VenueAddress": "Survey no. 154/8.1, 8.3, 9A1, 9A2, 9B, NH Bypass, Edapally Junction, Ernakulam, Near Wildcraft, Kochi, Kerala 682024, India",
    "VenueCode": "PCVB",
    "VenueName": "PVR: Oberon Mall, Kochi"
  },
  "PDDK": {
    "AvailableFormats": "3D|2D",
    "City": "Kanpur",
    "Latitude": "26.4407",
    "Longitude": "80.3104",
    "RegionCode": "KANP",
    "State": "Uttar Pradesh",
    "SubRegionCode": "KANP",
    "VenueAddress": "Deep Cinema Road, 127/1/2 W-1, Saket Nagar, Kanpur, Uttar Pradesh 208014, India",
    "VenueCode": "PDDK",
    "VenueName": "PVR: Deep, Kanpur"
  },
  "PDWR": {
    "AvailableFormats": "2D|3D",
    "City": "Bengaluru",
    "Latitude": "12.9726",
    "Longitude": "77.6068",
    "RegionCode": "BANG",
    "State": "Karnataka",
    "SubRegionCode": "BANG",
    "VenueAddress": "3rd Floor Forum Rex Walk Brigade Road, Shanthala Nagar, Ashok Nagar, Bengaluru, Karnataka 560001, India",
    "VenueCode": "PDWR",
    "VenueName": "PVR: Directors Cut, Forum Rex Walk Bengaluru"
  },
  "PFCJ": {
    "AvailableFormats": "2D",
    "City": "Vadakara",
    "Latitude": "11.5978",
    "Longitude": "75.5867",
    "RegionCode": "VDKR",
    "State": "Kerala",
    "SubRegionCode": "VDKR",
    "VenueAddress": "Railway Station Road, Behind Old Bus Stand, Puthiyappu, Near Babus Hotel and Coolbar, Vadakara, Kerala 673101, India",
    "VenueCode": "PFCJ",
    "VenueName": "One2One Plus Film City 4K 3D Dolby Atmos: Vadakara"
  },
  "PGHM": {
    "AvailableFormats": "2D|3D",
    "City": "Pune",
    "Latitude": "18.5943",
    "Longitude": "73.7253",
    "RegionCode": "PUNE",
    "State": "Maharashtra",
    "SubRegionCode": "PUNE",
    "VenueAddress": "Grand Highstreet Mall, 2nd Floor, Taluka Mulshi , Village Hinjewadi, Pune, Maharashtra 411057, India",
    "VenueCode": "PGHM",
    "VenueName": "PVR: Grand Highstreet Mall, Hinjawadi"
  },
  "PHUP": {
    "AvailableFormats": "2D",
    "City": "Patiala",
    "Latitude": "30.3312",
    "Longitude": "76.3901",
    "RegionCode": "PATI",
    "State": "Punjab",
    "SubRegionCode": "PATI",
    "VenueAddress": "40-D, Fountain Chowk, Chotti Baradari Road, Baradari, Patiala, Punjab 147001, India",
    "VenueCode": "PHUP",
    "VenueName": "Phul Cinema: Patiala"
  },
  "PIPP": {
    "AvailableFormats": "2D|IMAX 2D|3D",
    "City": "Mumbai",
    "Latitude": "18.9952",
    "Longitude": "72.8241",
    "RegionCode": "MUMBAI",
    "State": "Maharashtra",
    "SubRegionCode": "MCENT",
    "VenueAddress": "High Street Phoenix, Extension of Entry Road to Phoenix, Senapati Bapat Marg, Lower Parel (W), Mumbai, Maharashtra 400013, India",
    "VenueCode": "PIPP",
    "VenueName": "PVR ICON: Phoenix Palladium, Lower Parel Mumbai"
  },
  "PJRM": {
    "AvailableFormats": "2D",
    "City": "Armoor",
    "Latitude": "18.7879",
    "Longitude": "78.292",
    "RegionCode": "ARMO",
    "State": "Telangana",
    "SubRegionCode": "ARMO",
    "VenueAddress": "4th Floor, Jeevan Reddy Mall and Multiplex, Vidya Nagar Colony, Beside - New Bus Stand, Armoor, Telangana 503224, India",
    "VenueCode": "PJRM",
    "VenueName": "PVR: Jeevan Reddy Mall, Armoor"
  },
  "PKTA": {
    "AvailableFormats": "2D",
    "City": "Alappuzha",
    "Latitude": "9.50382",
    "Longitude": "76.3282",
    "RegionCode": "CRTL",
    "State": "Kerala",
    "SubRegionCode": "CRTL",
    "VenueAddress": "NH 66, Kanjiramchira, Near Arattuvazhy Petrol Pump, Alappuzha, Kerala 688007, India",
    "VenueCode": "PKTA",
    "VenueName": "Pankaj Theatre: Alappuzha"
  },
  "PLXP": {
    "AvailableFormats": "2D|3D",
    "City": "Mumbai",
    "Latitude": "19.1649",
    "Longitude": "73.0748",
    "RegionCode": "MUMBAI",
    "State": "Maharashtra",
    "SubRegionCode": "MCENT",
    "VenueAddress": "3rd Floor, Xperia Mall, Kalyan-Shilphata Road, Opposit Lodha World School, Dombivali (E), Mumbai, Maharashtra 421204, India",
    "VenueCode": "PLXP",
    "VenueName": "PVR: Lodha Xperia, Palava"
  },
  "PMCE": {
    "AvailableFormats": "2D",
    "City": "Kochi",
    "Latitude": "9.98176",
    "Longitude": "76.2826",
    "RegionCode": "PALY",
    "State": "Kerala",
    "SubRegionCode": "PALY",
    "VenueAddress": "Shenoy Cinemax, Level 1, MG Road, Kacheripady, Padma Bus Stop, Kochi, Kerala 682011, India",
    "VenueCode": "PMCE",
    "VenueName": "Padma Cinema: Kochi"
  },
  "PMOD": {
    "AvailableFormats": "3D|2D",
    "City": "Dehradun",
    "Latitude": "30.2668",
    "Longitude": "78.0819",
    "RegionCode": "DEH",
    "State": "Uttarakhand",
    "SubRegionCode": "DEH",
    "VenueAddress": "2nd Floor, Mall of Dehradun, Mohkam Pur Khurd, Dehradun, Uttarakhand 248005, India",
    "VenueCode": "PMOD",
    "VenueName": "PVR: Mall Of Dehradun"
  },
  "PMTN": {
    "AvailableFormats": "",
    "City": "Delhi",
    "Latitude": "28.6634",
    "Longitude": "77.1535",
    "RegionCode": "NCR",
    "State": "NCR",
    "SubRegionCode": "DELHI",
    "VenueAddress": "3rd Floor, DLF Midtown Plaza, Shivaji Marg, Najafgarh Road, DLF Midtown, Moti Nagar, Delhi, NCR 110015, India",
    "VenueCode": "PMTN",
    "VenueName": "PVR: Midtown, Moti Nagar, Delhi"
  },
  "POJA": {
    "AvailableFormats": "2D",
    "City": "Pendra",
    "Latitude": "22.7738",
    "Longitude": "81.9607",
    "RegionCode": "PEND",
    "State": "Chhattisgarh",
    "SubRegionCode": "PEND",
    "VenueAddress": "Pendra, Near Jain Lodge, Pendra, Chhattisgarh 495119, India",
    "VenueCode": "POJA",
    "VenueName": "Pooja Shree Cineplex: Pendra"
  },
  "PPAM": {
    "AvailableFormats": "2D|3D|IMAX 2D",
    "City": "Ahmedabad",
    "Latitude": "23.0583",
    "Longitude": "72.5207",
    "RegionCode": "AHD",
    "State": "Gujarat",
    "SubRegionCode": "AHD",
    "VenueAddress": "4th floor, Palladium Mall, SG Highway, Thaltej, Ahmedabad, Gujarat 380054, India",
    "VenueCode": "PPAM",
    "VenueName": "PVR: Palladium Mall, Ahmedabad"
  },
  "PPNL": {
    "AvailableFormats": "2D|3D",
    "City": "Ludhiana",
    "Latitude": "30.9143",
    "Longitude": "75.8398",
    "RegionCode": "LUDH",
    "State": "Punjab",
    "SubRegionCode": "LUDH",
    "VenueAddress": "Old Session Court Road, Near Fountain Chowk, Multiplex Cinema Halls, Ludhiana, Punjab 141001, India",
    "VenueCode": "PPNL",
    "VenueName": "PVR: Pavilion, Ludhiana"
  },
  "PRAB": {
    "AvailableFormats": "2D",
    "City": "Gondia",
    "Latitude": "21.4556",
    "Longitude": "80.1953",
    "RegionCode": "GNDA",
    "State": "Maharashtra",
    "SubRegionCode": "GNDA",
    "VenueAddress": "Vithal Nagar, Bajaj Nagar, Sales Tax Office Road, Gondia, Maharashtra 441601, India",
    "VenueCode": "PRAB",
    "VenueName": "Prabhat Cinema: Gondia"
  },
  "PREB": {
    "AvailableFormats": "2D",
    "City": "Bihpuria",
    "Latitude": "27.0227",
    "Longitude": "93.916",
    "RegionCode": "BIHP",
    "State": "Assam",
    "SubRegionCode": "BIHP",
    "VenueAddress": "Padumoni, Opp Bihpuria Medical Hall, Bihpuria, Assam 784161, India",
    "VenueCode": "PREB",
    "VenueName": "Prerana Cinema: Bihpuria"
  },
  "PRSV": {
    "AvailableFormats": "2D",
    "City": "Telaprolu",
    "Latitude": "16.501",
    "Longitude": "80.6435",
    "RegionCode": "VIJA",
    "State": "Andhra Pradesh",
    "SubRegionCode": "TELP",
    "VenueAddress": "Mahatma Gandhi Road, Labbipet, Telaprolu, Andhra Pradesh 520010, India",
    "VenueCode": "PRSV",
    "VenueName": "PVR: Ripples, Vijayawada"
  },
  "PSCE": {
    "AvailableFormats": "2D",
    "City": "Cuddalore",
    "Latitude": "11.754",
    "Longitude": "79.7619",
    "RegionCode": "CUDD",
    "State": "Tamil Nadu",
    "SubRegionCode": "CUDD",
    "VenueAddress": "7, Bharathi Road, Manjakuppam, Cuddalore, Tamil Nadu 607001, India",
    "VenueCode": "PSCE",
    "VenueName": "PVR: V Square Mall, Cuddalore"
  },