{
  "AACS": {
    "AvailableFormats": "",
    "City": "Salem",
    "FirstTracked": "2026-07-14",
    "Latitude": "11.6699",
    "Longitude": "78.0181",
    "RegionCode": "SALM",
    "State": "Tamil Nadu",
    "SubRegionCode": "SALM",
    "VenueAddress": "Ranganathan Nagar, Alagusamudram, Salem, Tamil Nadu 636013, India",
    "VenueCode": "AACS",
    "VenueName": "Amman Arangham Cinemas A/C Dolby: Alagusamuthiram"
  },
  "AAPW": {
    "AvailableFormats": "2D",
    "City": "Warangal",
    "Latitude": "18.0077",
    "Longitude": "79.567",
    "RegionCode": "WAR",
    "State": "Telangana",
    "SubRegionCode": "WAR",
    "VenueAddress": "Ashoka A plex, Beside Warangal Hyderabad Highway, Near Govt Juniour College, Warangal, Telangana 506001, India",
    "VenueCode": "AAPW",
    "VenueName": "Asian Ashoka Air-Conditioned: Hanumakonda"
  },
  "ABCR": {
    "AvailableFormats": "",
    "City": "Vijayawada",
    "FirstTracked": "2026-07-14",
    "Latitude": "16.4859",
    "Longitude": "80.6828",
    "RegionCode": "VIJA",
    "State": "Andhra Pradesh",
    "SubRegionCode": "VIJA",
    "VenueAddress": "Elevate Mall, Pune-Machilipatnam Highway, Kanuru, Vijayawada, Andhra Pradesh 520007, India",
    "VenueCode": "ABCR",
    "VenueName": "ABR Cinemas Neo Screen X:  Kanuru, Vijayawada"
  },
  "ABTK": {
    "AvailableFormats": "",
    "City": "Kottayam",
    "Latitude": "9.58599",
    "Longitude": "76.5244",
    "RegionCode": "ETTU",
    "State": "Kerala",
    "SubRegionCode": "ETTU",
    "VenueAddress": "M.C Road, Opp Kalyan Jewellery, Near Asha Theatre, Kottayam, Kerala 686001, India",
    "VenueCode": "ABTK",
    "VenueName": "Abhilash Theatre 4K RGB Laser 3D: Kottayam"
  },
  "ACCD": {
    "AvailableFormats": "2D",
    "City": "Deoria",
    "Latitude": "26.2107",
    "Longitude": "83.9653",
    "RegionCode": "DEEO",
    "State": "Uttar Pradesh",
    "SubRegionCode": "DEEO",
    "VenueAddress": "Mod, Beside Union Bank Of India, Lakhu, Lar, Deoria, Uttar Pradesh 274502, India",
    "VenueCode": "ACCD",
    "VenueName": "Aura Cineplex: Lar, Deoria"
  },
  "ACHV": {
    "AvailableFormats": "2D",
    "City": "Vijayawada",
    "Latitude": "16.5133",
    "Longitude": "80.6259",
    "RegionCode": "VIJA",
    "State": "Andhra Pradesh",
    "SubRegionCode": "VIJA",
    "VenueAddress": "Governor Peta, Eluru Road, Opposite Swarna Mutiplex, Vijayawada, Andhra Pradesh 520002, India",
    "VenueCode": "ACHV",
    "VenueName": "Apsara Cinema House: Vijayawada"
  },
  "ACKR": {
    "AvailableFormats": "2D",
    "City": "Karukachal",
    "Latitude": "9.50297",
    "Longitude": "76.64363",
    "RegionCode": "KAKC",
    "State": "Kerala",
    "SubRegionCode": "KAKC",
    "VenueAddress": "Karukachal Manimala Road, Neriyani Poika, Karukachal, Kerala 686540, India",
    "VenueCode": "ACKR",
    "VenueName": "Anchani Cinemas 4k RGB LASER ATMOS: Karukachal"
  },
  "ACNL": {
    "AvailableFormats": "2D",
    "City": "Nilanga",
    "Latitude": "18.1276",
    "Longitude": "76.7493",
    "RegionCode": "NLNG",
    "State": "Maharashtra",
    "SubRegionCode": "NLNG",
    "VenueAddress": "Nilanga Main Road, Opposite Nilanga Bus Stop, Nilanga, Maharashtra 413521, India",
    "VenueCode": "ACNL",
    "VenueName": "Ajanta Cineplex: Nilanga, Latur"
  },
  "ACSK": {
    "AvailableFormats": "2D",
    "City": "Shindkheda",
    "Latitude": "21.2726",
    "Longitude": "74.7454",
    "RegionCode": "SHDK",
    "State": "Maharashtra",
    "SubRegionCode": "SHDK",
    "VenueAddress": "Station Road, Near Bus Stand, Shindkheda, Maharashtra 425406, India",
    "VenueCode": "ACSK",
    "VenueName": "Ashok Chitramandir: Shindkheda"
  },
  "ACXB": {
    "AvailableFormats": "2D",
    "City": "Bhandara",
    "Latitude": "21.1761",
    "Longitude": "79.6388",
    "RegionCode": "BHAA",
    "State": "Maharashtra",
    "SubRegionCode": "BHAA",
    "VenueAddress": "Aswale Park, Samruddhi Nagar, Bhandara, Maharashtra 441906, India",
    "VenueCode": "ACXB",
    "VenueName": "AR Cineplex: Bhandara"
  },
  "ADGC": {
    "AvailableFormats": "2D",
    "City": "Narayanpur (CH)",
    "Latitude": "19.7218",
    "Longitude": "81.2415",
    "RegionCode": "NRYA",
    "State": "Chhattisgarh",
    "SubRegionCode": "NRYA",
    "VenueAddress": "Collectorate Road, Near Sports Ground, Narayanpur (CH), Chhattisgarh 494661, India",
    "VenueCode": "ADGC",
    "VenueName": "Adeshwar Global Cinemas: Narayanpur"
  },
  "AFST": {
    "AvailableFormats": "2D",
    "City": "Siddhpur",
    "Latitude": "23.9425",
    "Longitude": "72.3653",
    "RegionCode": "SIDD",
    "State": "Gujarat",
    "SubRegionCode": "SIDD",
    "VenueAddress": "Gokul Highway Food Mall, Highway Road, Near Sujanpur Patia, Siddhpur, Gujarat 384151, India",
    "VenueCode": "AFST",
    "VenueName": "Ajayshree Films (Gokul Theater): Siddhpur"
  },
  "AICP": {
    "AvailableFormats": "2D",
    "City": "Pallickathodu",
    "Latitude": "9.60499",
    "Longitude": "76.681",
    "RegionCode": "PKTU",
    "State": "Kerala",
    "SubRegionCode": "PKTU",
    "VenueAddress": "Kodungoor Road, Mutholy Pallickathodu, Near Federal Bank Pallikathodu, Pallickathodu, Kerala 686503, India",
    "VenueCode": "AICP",
    "VenueName": "Anchani Cinemas 4K Dolby Atmos: Pallickathodu"
  },
  "AKRF": {
    "AvailableFormats": "2D",
    "City": "Faridabad",
    "Latitude": "28.4553",
    "Longitude": "77.316",
    "RegionCode": "NCR",
    "State": "NCR",
    "SubRegionCode": "FARI",
    "VenueAddress": "SLF Mall St, Indraprastha Colony, Sector 32, Faridabad, NCR 121003, India",
    "VenueCode": "AKRF",
    "VenueName": "AKR Cinemas: SLF Mall, Faridabad"
  },
  "ALCI": {
    "AvailableFormats": "2D",
    "City": "Vadodara",
    "Latitude": "22.2859",
    "Longitude": "73.2092",
    "RegionCode": "VAD",
    "State": "Gujarat",
    "SubRegionCode": "VAD",
    "VenueAddress": "Navapura, Bhatia Chawl, Pratap Nagar Road, Moghul Wada, Vadodara, Gujarat 390001, India",
    "VenueCode": "ALCI",
    "VenueName": "Alpana Cinema: Vadodara"
  },
  "AMBC": {
    "AvailableFormats": "",
    "City": "Eluru",
    "FirstTracked": "2026-07-14",
    "Latitude": "16.707937",
    "Longitude": "81.10276",
    "RegionCode": "ELRU",
    "State": "Andhra Pradesh",
    "SubRegionCode": "ELRU",
    "VenueAddress": "Dongala Mandapam Road, Southen Street, Agraharam, Eluru, Andhra Pradesh 534001, India",
    "VenueCode": "AMBC",
    "VenueName": "Ambica Delux (Screen 1): Eluru"
  },
  "AMDE": {
    "AvailableFormats": "2D",
    "City": "Thiruthuraipoondi",
    "Latitude": "10.5366",
    "Longitude": "79.6368",
    "RegionCode": "THND",
    "State": "Tamil Nadu",
    "SubRegionCode": "THND",
    "VenueAddress": "SH 63,Railway Station Rd, Thiruthuraipoondi, Near Seematti Readymade Silks, Thiruthuraipoondi, Tamil Nadu 614713, India",
    "VenueCode": "AMDE",
    "VenueName": "AM Deluxe Theatre A/C: Thiruthuraipoondi"
  },
  "AMMT": {
    "AvailableFormats": "2D",
    "City": "Srikakulam",
    "Latitude": "18.2907",
    "Longitude": "83.897",
    "RegionCode": "SRKL",
    "State": "Andhra Pradesh",
    "SubRegionCode": "SRKL",
    "VenueAddress": "12-09-13/1, Mandala Street, Zilla Parishad Road, SBI Colony, L.B.S Colony, Srikakulam, Andhra Pradesh 532001, India",
    "VenueCode": "AMMT",
    "VenueName": "Maruthi Movie Max A/C Dts: Srikakulam"
  },
  "AMTT": {
    "AvailableFormats": "2D",
    "City": "Chennai",
    "Latitude": "12.7314",
    "Longitude": "80.1875",
    "RegionCode": "CHEN",
    "State": "Tamil Nadu",
    "SubRegionCode": "CHEN",
    "VenueAddress": "Kannagapattu, Thiruporur, Chennai, Tamil Nadu 603105, India",
    "VenueCode": "AMTT",
    "VenueName": "Arul Muruga Theatre 4K: Thiruporur"
  },
  "ANCN": {
    "AvailableFormats": "2D",
    "City": "Khategaon",
    "Latitude": "22.5896",
    "Longitude": "76.9259",
    "RegionCode": "KTEG",
    "State": "Madhya Pradesh",
    "SubRegionCode": "KTEG",
    "VenueAddress": "Hotel Shri Sundaram and Marriage Garden, Anjana Cinema Parisar, Nemawar Road, In Front of Petrol Pump, Khategaon, Madhya Pradesh 455336, India",
    "VenueCode": "ANCN",
    "VenueName": "Anjana Cinema: Khategaon"
  },
  "ANPT": {
    "AvailableFormats": "2D",
    "City": "Pithapuram",
    "Latitude": "17.1142",
    "Longitude": "82.2588",
    "RegionCode": "PITA",
    "State": "Andhra Pradesh",
    "SubRegionCode": "PITA",
    "VenueAddress": "Uppada - Pithapuram Road, Madhava Nagar, Pithapuram, Andhra Pradesh 533450, India",
    "VenueCode": "ANPT",
    "VenueName": "Sri Annapoorna Theatre 2K A/C DTS: Pithapuram"
  },
  "ANTT": {
    "AvailableFormats": "",
    "City": "Hyderabad",
    "FirstTracked": "2026-07-14",
    "Latitude": "17.437613",
    "Longitude": "78.49311",
    "RegionCode": "AUSH",
    "State": "Telangana",
    "SubRegionCode": "AUSH",
    "VenueAddress": "Somasundaram Street, Kalasiguda, General Bazaar, Secunderabad, Hyderabad, Telangana 500003, India",
    "VenueCode": "ANTT",
    "VenueName": "Anjali Movie Max: Secunderabad"
  },
  "APCY": {
    "AvailableFormats": "2D|3D",
    "City": "Karimnagar",
    "Latitude": "18.4409",
    "Longitude": "79.1323",
    "RegionCode": "KARIM",
    "State": "Telangana",
    "SubRegionCode": "KARIM",
    "VenueAddress": "C4RJ+9WW, Sharma Nagar, Karimnagar, Telangana 505001, India",
    "VenueCode": "APCY",
    "VenueName": "Asian Paradise Cinemas: Karimnagar"
  },
  "APRK": {
    "AvailableFormats": "2D",
    "City": "Kamareddy",
    "Latitude": "18.3256",
    "Longitude": "78.3327",
    "RegionCode": "KMRD",
    "State": "Telangana",
    "SubRegionCode": "KMRD",
    "VenueAddress": "Vivekananda Colony, Ashok Nagar, Kamareddy, Telangana 503111, India",
    "VenueCode": "APRK",
    "VenueName": "Asian Priya Cineplex: Kamareddy"
  },
  "ARAN": {
    "AvailableFormats": "2D",
    "City": "Mundra",
    "Latitude": "22.839",
    "Longitude": "69.7051",
    "RegionCode": "MUDA",
    "State": "Gujarat",
    "SubRegionCode": "MUDA",
    "VenueAddress": "1St Floor, P.No.4/2562, Om Orbit Shopping Mall, Vill.Nana Kapaya, Tal.Mundra, Kutch, Mundra, Gujarat 370421, India",
    "VenueCode": "ARAN",
    "VenueName": "Aradhaya Nova Cinemaz: Mundra"
  },
  "ARJU": {
    "AvailableFormats": "2D",
    "City": "Hyderabad",
    "Latitude": "17.4968",
    "Longitude": "78.397",
    "RegionCode": "HYD",
    "State": "Telangana",
    "SubRegionCode": "HYD",
    "VenueAddress": "Plot No 2, Sr 178, National Highway 9, Kukatpally, Near KPHB Road, KPHB Phase III, Hyderabad, Telangana 500072, India",
    "VenueCode": "ARJU",
    "VenueName": "Arjun 70MM: Kukatpally"
  },
  "ARVB": {
    "AvailableFormats": "2D",
    "City": "Bhadrachalam",
    "Latitude": "17.6734",
    "Longitude": "80.8894",
    "RegionCode": "BHDR",
    "State": "Telangana",
    "SubRegionCode": "BHDR",
    "VenueAddress": "Bhadrachalam Road, Ashok Nagar Colony, Bhadrachalam, Telangana 507111, India",
    "VenueCode": "ARVB",
    "VenueName": "AMR Vijay Bhaskar: Bhadrachalam"
  },
  "ASGM": {
    "AvailableFormats": "2D",
    "City": "Warangal",
    "Latitude": "17.9879",
    "Longitude": "79.5927",
    "RegionCode": "WAR",
    "State": "Telangana",
    "SubRegionCode": "WAR",
    "VenueAddress": "SVN Road, Mattewada, Phatak Mohalla, Warangal, Telangana 506002, India",
    "VenueCode": "ASGM",
    "VenueName": "Asian Gemini Theatre: Warangal"
  },
  "ASMA": {
    "AvailableFormats": "",
    "City": "Ahilyanagar (Ahmednagar)",
    "FirstTracked": "2026-07-14",
    "Latitude": "19.0927",
    "Longitude": "74.7362",
    "RegionCode": "AHMED",
    "State": "Maharashtra",
    "SubRegionCode": "AHMED",
    "VenueAddress": "Asha Chowk, Ahmednagar, Near Kotwali Police Headquarter, Ahilyanagar (Ahmednagar), Maharashtra 414001, India",
    "VenueCode": "ASMA",
    "VenueName": "Asha Square Multiplex: Ahilyanagar"
  },
  "ASRM": {
    "AvailableFormats": "2D",
    "City": "Madanapalle",
    "Latitude": "13.5553",
    "Longitude": "78.5081",
    "RegionCode": "MDNP",
    "State": "Andhra Pradesh",
    "SubRegionCode": "MDNP",
    "VenueAddress": "Rama Gopal Naidu Colony, Near State Bank of India, Madanapalle, Andhra Pradesh 517325, India",
    "VenueCode": "ASRM",
    "VenueName": "ASR A/C 4K Laser Dolby Surround 7.1: Madanapalle"
  },
  "ASTC": {
    "AvailableFormats": "2D",
    "City": "Indore",
    "Latitude": "22.7432",
    "Longitude": "75.8841",
    "RegionCode": "IND",
    "State": "Madhya Pradesh",
    "SubRegionCode": "IND",
    "VenueAddress": "Patni Pura Road, Nanda Nagar, Indore, Madhya Pradesh 452011, India",
    "VenueCode": "ASTC",
    "VenueName": "Aasttha Cinema: Indore"
  },
  "ATAS": {
    "AvailableFormats": "2D",
    "City": "Virudhunagar",
    "Latitude": "9.59006",
    "Longitude": "77.9557",
    "RegionCode": "VIRU",
    "State": "Tamil Nadu",
    "SubRegionCode": "VIRU",
    "VenueAddress": "Railway Feeder Road, Sivagami Puram, Virudhunagar, Tamil Nadu 626001, India",
    "VenueCode": "ATAS",
    "VenueName": "Apsara Theatre A/C 7.1 Surround System"
  },
  "ATJL": {
    "AvailableFormats": "2D",
    "City": "Jagdalpur",
    "Latitude": "19.0867",
    "Longitude": "82.0165",
    "RegionCode": "JAGD",
    "State": "Chhattisgarh",
    "SubRegionCode": "JAGD",
    "VenueAddress": "Anupama Chowk, Chitrakote Road, Jaiswal Colony, Jagdalpur, Chhattisgarh 494001, India",
    "VenueCode": "ATJL",
    "VenueName": "Anupama Theatre: Jagdalpur"
  },
  "ATTK": {
    "AvailableFormats": "",
    "City": "Narsapur",
    "FirstTracked": "2026-07-14",
    "Latitude": "16.4412",
    "Longitude": "81.7032",
    "RegionCode": "NARP",
    "State": "Andhra Pradesh",
    "SubRegionCode": "NARP",
    "VenueAddress": "NH216, Near Narsapur Bus Depot, Narsapur, Andhra Pradesh 534275, India",
    "VenueCode": "ATTK",
    "VenueName": "Annapurna Picture Palace: Narsapur"
  },
  "AUPM": {
    "AvailableFormats": "2D|3D",
    "City": "Nizamabad",
    "Latitude": "18.6642",
    "Longitude": "78.0941",
    "RegionCode": "NIZA",
    "State": "Telangana",
    "SubRegionCode": "NIZA",
    "VenueAddress": "Kotagally, Pedda Bazaar Road, Shivaji Nagar, Near Government High School, Nizamabad, Telangana 503001, India",
    "VenueCode": "AUPM",
    "VenueName": "Asian Usha Prasad Multiplex: Nizamabad"
  },
  "AVSG": {
    "AvailableFormats": "2D",
    "City": "Ghazipur",
    "Latitude": "25.5728",
    "Longitude": "83.5633",
    "RegionCode": "GHAR",
    "State": "Uttar Pradesh",
    "SubRegionCode": "GHAR",
    "VenueAddress": "Above V-Mart Vidhya Complex, Bandhwa Pull, Near - Sichai Vibhag Choraha, Ghazipur, Uttar Pradesh 233001, India",
    "VenueCode": "AVSG",
    "VenueName": "AV Star Cinema: Ghazipur"
  },
  "AYCS": {
    "AvailableFormats": "2D",
    "City": "Shimla",
    "Latitude": "31.0979",
    "Longitude": "77.1513",
    "RegionCode": "SMLA",
    "State": "Himachal Pradesh",
    "SubRegionCode": "SMLA",
    "VenueAddress": "2nd Floor, C.K. Mall New, ISBT Tutikandi, Shimla, Himachal Pradesh 171004, India",
    "VenueCode": "AYCS",
    "VenueName": "Ayaan Cinemas: Shimla"
  },
  "BALJ": {
    "AvailableFormats": "",
    "City": "Bengaluru",
    "FirstTracked": "2026-07-14",
    "Latitude": "12.956864",
    "Longitude": "77.6194",
    "RegionCode": "BANG",
    "State": "Karnataka",
    "SubRegionCode": "BANG",
    "VenueAddress": "21 K.V Temple Street, Vannarpet Main Road, Viveknagar, Bengaluru, Karnataka 560047, India",
    "VenueCode": "BALJ",
    "VenueName": "Sri Balaji 2K Dolby Atmos 7.1: Viveknagar"
  },
  "BBPC": {
    "AvailableFormats": "2D",
    "City": "Pusad",
    "Latitude": "19.9081",
    "Longitude": "77.5721",
    "RegionCode": "PUSD",
    "State": "Maharashtra",
    "SubRegionCode": "PUSD",
    "VenueAddress": "27, Pusad Road, Near Pusad Court, Near State Bank Of India, Pusad, Maharashtra 445204, India",
    "VenueCode": "BBPC",
    "VenueName": "Barkha Cinema: Pusad"
  },
  "BCKR": {
    "AvailableFormats": "2D|3D",
    "City": "Kharagpur",
    "Latitude": "22.3381",
    "Longitude": "87.306",
    "RegionCode": "KGPR",
    "State": "West Bengal",
    "SubRegionCode": "KGPR",
    "VenueAddress": "Railway Plot No- 489, New Settlement, Gate Bazar, Kharagpur, West Bengal 721301, India",
    "VenueCode": "BCKR",
    "VenueName": "Bombay Cineplex: Kharagpur"
  },
  "BGRJ": {
    "AvailableFormats": "",
    "City": "Narsipatnam",
    "FirstTracked": "2026-07-14",
    "Latitude": "17.66393",
    "Longitude": "82.61234",
    "RegionCode": "NARS",
    "State": "Andhra Pradesh",
    "SubRegionCode": "NARS",
    "VenueAddress": "Bangarraju Complex, Near Indian Bank, Narsipatnam, Andhra Pradesh 531116, India",
    "VenueCode": "BGRJ",
    "VenueName": "Bangaraju Picture Palace A/C DTS: Narsipatnam"
  },
  "BHUC": {
    "AvailableFormats": "2D",
    "City": "Solapur",
    "Latitude": "17.6771",
    "Longitude": "75.8986",
    "RegionCode": "SOLA",
    "State": "Maharashtra",
    "SubRegionCode": "SOLA",
    "VenueAddress": "8, Old Police Line, Murarji Peth, Solapur, Solapur, Maharashtra 413001, India",
    "VenueCode": "BHUC",
    "VenueName": "Bhagwat Uma Mandir: Solapur"
  },
  "BJML": {
    "AvailableFormats": "2D",
    "City": "Punganur",
    "Latitude": "13.3602",
    "Longitude": "78.5785",
    "RegionCode": "PGNR",
    "State": "Andhra Pradesh",
    "SubRegionCode": "PGNR",
    "VenueAddress": "MBT Road, Near Om Shakthi Temple, Punganur, Andhra Pradesh 517247, India",
    "VenueCode": "BJML",
    "VenueName": "Sree Balaji Movie Land A/C 4K: Punganur"
  },
  "BLCK": {
    "AvailableFormats": "2D",
    "City": "Kalladikode",
    "Latitude": "10.8926",
    "Longitude": "76.5402",
    "RegionCode": "KALD",
    "State": "Kerala",
    "SubRegionCode": "KALD",
    "VenueAddress": "Palakkad Highway, Kalladikode, Near Kalladikode Police Station, Kalladikode, Kerala 678596, India",
    "VenueCode": "BLCK",
    "VenueName": "Bala Cinemas Dolby Atmos Laser Tripple Beam 3D"
  },
  "BMCJ": {
    "AvailableFormats": "3D|2D",
    "City": "Jodhpur",
    "Latitude": "26.2723",
    "Longitude": "73.0033",
    "RegionCode": "JODH",
    "State": "Rajasthan",
    "SubRegionCode": "JODH",
    "VenueAddress": "4th Floor, Ashapurna Mall and Multiplex, Gaurav Path Road, Sector-E, Shastri Nagar, Near Shastri Nagar Post Office, Jodhpur, Rajasthan 342003, India",
    "VenueCode": "BMCJ",
    "VenueName": "Miraj Bioscope Cinemas: Jodhpur"
  },
  "BODA": {
    "AvailableFormats": "2D",
    "City": "Damoh",
    "Latitude": "23.8026",
    "Longitude": "79.4537",
    "RegionCode": "DAMO",
    "State": "Madhya Pradesh",
    "SubRegionCode": "DAMO",
    "VenueAddress": "Choupra Khurd, Jabalpur Road, Damoh, Madhya Pradesh 470661, India",
    "VenueCode": "BODA",
    "VenueName": "Bollywood Cinema: Damoh"
  },
  "BSCN": {
    "AvailableFormats": "2D",
    "City": "Nabha",
    "Latitude": "30.3918",
    "Longitude": "76.1195",
    "RegionCode": "NABH",
    "State": "Punjab",
    "SubRegionCode": "NABH",
    "VenueAddress": "Gulldi Gate, Nabha, Nabha-Malerkotla Road, Nabha, Punjab 147201, India",
    "VenueCode": "BSCN",
    "VenueName": "Balraj Cinemas: Nabha"
  },
  "BTCF": {
    "AvailableFormats": "",
    "City": "Firozabad",
    "FirstTracked": "2026-07-14",
    "Latitude": "27.136106",
    "Longitude": "78.4235",
    "RegionCode": "FRZD",
    "State": "Uttar Pradesh",
    "SubRegionCode": "FRZD",
    "VenueAddress": "Bharat talkies, Asfabad, Firozabad, Uttar Pradesh 283203, India",
    "VenueCode": "BTCF",
    "VenueName": "Bharat DD Cinemas: Firozabad"
  },
  "BUUC": {
    "AvailableFormats": "2D",
    "City": "Udupi",
    "Latitude": "13.3457",
    "Longitude": "74.7527",
    "RegionCode": "MANI",
    "State": "Karnataka",
    "SubRegionCode": "MANI",
    "VenueAddress": "Mandavi Times Square Mall, 2nd Floor, Mandavi, Manipal Highway, Klasanka Junction, Kunjibettu, Udupi, Karnataka 576102, India",
    "VenueCode": "BUUC",
    "VenueName": "Times Square Bharath Cinemas: Udupi"
  },
  "CAEP": {
    "AvailableFormats": "2D|3D",
    "City": "Patna",
    "Latitude": "25.5785",
    "Longitude": "85.0798",
    "RegionCode": "PATN",
    "State": "Bihar",
    "SubRegionCode": "PATN",
    "VenueAddress": "2nd Floor, S R Arcade, Near Mahavir Cancer Sansthan Pulwarishariff, Patna, Bihar 801505, India",
    "VenueCode": "CAEP",
    "VenueName": "Connplex Cinemas: Phulwari Sharif, Patna"
  },
  "CBWC": {
    "AvailableFormats": "",
    "City": "Biswanath Chariali",
    "FirstTracked": "2026-07-14",
    "Latitude": "26.7412",
    "Longitude": "93.1505",
    "RegionCode": "BICH",
    "State": "Assam",
    "SubRegionCode": "BICH",
    "VenueAddress": "3rd and 4th Floor, Millennium Market City, Biswanath Civil Sub Division, Biswanath Chariali, Assam 784176, India",
    "VenueCode": "CBWC",
    "VenueName": "Connplex Cinemas: Biswanath Chariali"
  },
  "CCCB": {
    "AvailableFormats": "2D",
    "City": "Coimbatore",
    "Latitude": "11.0137",
    "Longitude": "77.0026",
    "RegionCode": "COIM",
    "State": "Tamil Nadu",
    "SubRegionCode": "COIM",
    "VenueAddress": "14, Renganayaki Nagar, Thirumagal Nagar, Udayampalayam, Coimbatore, Tamil Nadu 641028, India",
    "VenueCode": "CCCB",
    "VenueName": "Cosmo Cinemas PEELAMEDU AC 4K RGB Lase:Coimbatore"
  },
  "CCJR": {
    "AvailableFormats": "2D",
    "City": "Janjgir",
    "Latitude": "22.0117",
    "Longitude": "82.5759",
    "RegionCode": "JANR",
    "State": "Chhattisgarh",
    "SubRegionCode": "JANR",
    "VenueAddress": "Near A One Bakery, Link Road, Janjgir, Chhattisgarh 495668, India",
    "VenueCode": "CCJR",
    "VenueName": "City Cinema: Janjgir Naila"
  },
  "CCML": {
    "AvailableFormats": "",
    "City": "Korba",
    "FirstTracked": "2026-07-14",
    "Latitude": "22.354334",
    "Longitude": "82.7046",
    "RegionCode": "KRBA",
    "State": "Chhattisgarh",
    "SubRegionCode": "KRBA",
    "VenueAddress": "Palm Mall, 2nd floor, T.P. Nagar Road, Lalu Ram colony, Korba, Chhattisgarh 495677, India",
    "VenueCode": "CCML",
    "VenueName": "Cineflix Cinema: The Palm Mall, Korba"
  },
  "CCPF": {
    "AvailableFormats": "",
    "City": "Agra",
    "FirstTracked": "2026-07-14",
    "Latitude": "27.2062",
    "Longitude": "77.9727",
    "RegionCode": "AGRA",
    "State": "Uttar Pradesh",
    "SubRegionCode": "AGRA",
    "VenueAddress": "Avas Vikas Colony, Sector 12A, Plot No. MP 01, Agra, Uttar Pradesh 282007, India",
    "VenueCode": "CCPF",
    "VenueName": "Cineworld Multiplex: Paras Pearls Mall, Agra"
  },
  "CCSI": {
    "AvailableFormats": "2D|3D",
    "City": "Siliguri",
    "Latitude": "26.7394",
    "Longitude": "88.4027",
    "RegionCode": "SILI",
    "State": "West Bengal",
    "SubRegionCode": "SILI",
    "VenueAddress": "Savin Plaza, Savin Kingdom,Hill Kart Road, Dagapur, Behind Baba Loknath Mandir, Siliguri, West Bengal 734003, India",
    "VenueCode": "CCSI",
    "VenueName": "Savin Cinemas: Siliguri"
  },
  "CDCM": {
    "AvailableFormats": "2D",
    "City": "Marayur",
    "Latitude": "10.278",
    "Longitude": "77.1658",
    "RegionCode": "MAYR",
    "State": "Kerala",
    "SubRegionCode": "MAYR",
    "VenueAddress": "Munnar - Udumalpet Road, Nearby Rahul Hotel, Marayur, Kerala 685620, India",
    "VenueCode": "CDCM",
    "VenueName": "Chandana Cinema: Marayur"
  },
  "CEHR": {
    "AvailableFormats": "2D|3D",
    "City": "Bengaluru",
    "Latitude": "12.8963",
    "Longitude": "77.6579",
    "RegionCode": "BANG",
    "State": "Karnataka",
    "SubRegionCode": "BANG",
    "VenueAddress": "No.102, 2B, Haralur Main Road, Bengaluru, Karnataka 560102, India",
    "VenueCode": "CEHR",
    "VenueName": "Cinephile HSR Layout: PNR Felicity Mall Haralur Rd"
  },
  "CGBO": {
    "AvailableFormats": "2D",
    "City": "Ahmedabad",
    "Latitude": "23.0288",
    "Longitude": "72.4785",
    "RegionCode": "AHD",
    "State": "Gujarat",
    "SubRegionCode": "AHD",
    "VenueAddress": "Behind Amrapali Shopping Complex, Bopal Junction,Sardar Patel Ring Road, Near Bharat Petroleum Petrol Pump, Ahmedabad, Gujarat 380058, India",
    "VenueCode": "CGBO",
    "VenueName": "City Gold: Bopal"
  },
  "CGMM": {
    "AvailableFormats": "2D|3D",
    "City": "Muzaffarpur",
    "Latitude": "26.1101",
    "Longitude": "85.3957",
    "RegionCode": "MUZA",
    "State": "Bihar",
    "SubRegionCode": "MUZA",
    "VenueAddress": "The Grand Mall, 5th Floor, Club Road, Near MDDM College, Muzaffarpur, Bihar 842002, India",
    "VenueCode": "CGMM",
    "VenueName": "Cinepolis: Grand Mall, Muzaffarpur"
  },
  "CHGV": {
    "AvailableFormats": "2D",
    "City": "Belagavi (Belgaum)",
    "Latitude": "15.8594",
    "Longitude": "74.5122",
    "RegionCode": "BELG",
    "State": "Karnataka",
    "SubRegionCode": "BELG",
    "VenueAddress": "1724/A, Huns Talkies Road, Burud Galli, Nana Shankar Sheth Marg, Ravivar Peth, Near Karur Vysya Bank, Belagavi (Belgaum), Karnataka 590001, India",
    "VenueCode": "CHGV",
    "VenueName": "Chitra Talkies: Belagavi"
  },
  "CHTM": {
    "AvailableFormats": "2D",
    "City": "Chhibramau",
    "Latitude": "27.1475",
    "Longitude": "79.5114",
    "RegionCode": "CHHI",
    "State": "Uttar Pradesh",
    "SubRegionCode": "CHHI",
    "VenueAddress": "100 Bed Hospital Road, Kannauj, Behind Janta Cold, Chhibramau, Uttar Pradesh 209721, India",
    "VenueCode": "CHTM",
    "VenueName": "Chhotu Maharaj: Chhibramau, UP"
  },
  "CIKO": {
    "AvailableFormats": "2D",
    "City": "Kodakara",
    "Latitude": "10.3734",
    "Longitude": "76.3065",
    "RegionCode": "THSR",
    "State": "Kerala",
    "SubRegionCode": "THSR",
    "VenueAddress": "98F4+9H8, Vellikulangara Road, Kodakara, Kerala 680684, India",
    "VenueCode": "CIKO",
    "VenueName": "City Shivadam RGB 4K Laser 3D: Kodakara"
  },
  "CJJB": {
    "AvailableFormats": "",
    "City": "Jabalpur",
    "FirstTracked": "2026-07-14",
    "Latitude": "23.2455",
    "Longitude": "79.881",
    "RegionCode": "JABL",
    "State": "Madhya Pradesh",
    "SubRegionCode": "JABL",
    "VenueAddress": "Servay no 14 Gram Magela Road, Post Gram Surtalai Tehsil Panagar, Jabalpur, Madhya Pradesh 482002, India",
    "VenueCode": "CJJB",
    "VenueName": "Chhotu Maharaj Cine Cafe: Jabalpur, MP"
  },
  "CLCU": {
    "AvailableFormats": "2D",
    "City": "Umred",
    "Latitude": "20.8595",
    "Longitude": "79.3164",
    "RegionCode": "UMRD",
    "State": "Maharashtra",
    "SubRegionCode": "UMRD",
    "VenueAddress": "Kawarapeth, Gangapur, Umred, Maharashtra 441203, India",
    "VenueCode": "CLCU",
    "VenueName": "Balaji Multiplex: Umred"
  },
  "CLMK": {
    "AvailableFormats": "2D|3D",
    "City": "Kolkata",
    "Latitude": "22.5167",
    "Longitude": "88.3489",
    "RegionCode": "KOLK",
    "State": "West Bengal",
    "SubRegionCode": "KOLK",
    "VenueAddress": "5th Floor Lake mall, Rash behari Avenue Road, 104- Rashbehari Avenue, Kolkata, West Bengal 700026, India",
    "VenueCode": "CLMK",
    "VenueName": "Cinepolis: Lake Mall, Kolkata"
  },
  "CMBW": {
    "AvailableFormats": "",
    "City": "Bankura",
    "FirstTracked": "2026-07-14",
    "Latitude": "23.2527",
    "Longitude": "87.0263",
    "RegionCode": "BNKU",
    "State": "West Bengal",
    "SubRegionCode": "BNKU",
    "VenueAddress": "Salboni Village, Bankura-Chhatna Road, Bankura, West Bengal 722102, India",
    "VenueCode": "CMBW",
    "VenueName": "Chhotu Maharaj: Bankura, WB"
  },
  "CMLO": {
    "AvailableFormats": "2D",
    "City": "Cherpulassery",
    "Latitude": "10.8796",
    "Longitude": "76.3103",
    "RegionCode": "CHER",
    "State": "Kerala",
    "SubRegionCode": "CHER",
    "VenueAddress": "Pattambi - Cherpulassery Road, Behind BSNL Exchange, Cherpulassery, Kerala 679503, India",
    "VenueCode": "CMLO",
    "VenueName": "Magic Frames Devi Cinemas: Cherpulassery"
  },
  "CMMX": {
    "AvailableFormats": "2D",
    "City": "Lakhimpur Kheri",
    "Latitude": "27.946",
    "Longitude": "80.2186",
    "RegionCode": "LKPK",
    "State": "Uttar Pradesh",
    "SubRegionCode": "LKPK",
    "VenueAddress": "Shiv Sagar Cineplex and Cafe. 2.Gata no.536, Ishlamabad, (Gureaila Chauraha Se Ramlila Maidan Road), Mohammadi, Lakhimpur Kheri, Uttar Pradesh 262804, India",
    "VenueCode": "CMMX",
    "VenueName": "Chhotu Maharaj Cine Cafe: Mohammadi, Kheri"
  },
  "CMUA": {
    "AvailableFormats": "",
    "City": "Howrah",
    "FirstTracked": "2026-07-14",
    "Latitude": "22.4874",
    "Longitude": "88.1111",
    "RegionCode": "HWRH",
    "State": "West Bengal",
    "SubRegionCode": "HWRH",
    "VenueAddress": "National Highway 16, Avarland, Uluberia, Near Coffee House Classic, Howrah, West Bengal 711316, India",
    "VenueCode": "CMUA",
    "VenueName": "Chhotu Maharaj: Uluberia, Howrah"
  },
  "CMXS": {
    "AvailableFormats": "2D",
    "City": "Dabhara",
    "Latitude": "21.7876",
    "Longitude": "82.9951",
    "RegionCode": "DABH",
    "State": "Chhattisgarh",
    "SubRegionCode": "DABH",
    "VenueAddress": "Bhagat Shopping Mall, Chhapora to Dabhara Main Road, Malkharoda, Dabhara, Chhattisgarh 495691, India",
    "VenueCode": "CMXS",
    "VenueName": "Chandra Multiplex Cinema: Dabhara"
  },
  "CNED": {
    "AvailableFormats": "2D|3D",
    "City": "Bhubaneswar",
    "Latitude": "20.2912",
    "Longitude": "85.8558",
    "RegionCode": "JATN",
    "State": "Odisha",
    "SubRegionCode": "JATN",
    "VenueAddress": "Esplanade One, Rasulgarh Industrial Estate, Industrial Area Estate, Rasulgarh, Bhubaneswar, Odisha 751007, India",
    "VenueCode": "CNED",
    "VenueName": "Cinepolis: Nexus Esplanade, Bhubaneswar"
  },
  "CNPE": {
    "AvailableFormats": "2D",
    "City": "Vadodara",
    "Latitude": "22.3105",
    "Longitude": "73.1589",
    "RegionCode": "VAD",
    "State": "Gujarat",
    "SubRegionCode": "VAD",
    "VenueAddress": "Cine Mall, 50, Race Course Road, Alkapuri, Near Natubhai Circle, Race Course, Vadodara, Gujarat 390007, India",
    "VenueCode": "CNPE",
    "VenueName": "Cineprime Cinema: Cinemall, Vadodara"
  },
  "CNTD": {
    "AvailableFormats": "2D",
    "City": "Tadepalligudem",
    "Latitude": "16.8194",
    "Longitude": "81.524",
    "RegionCode": "TADP",
    "State": "Andhra Pradesh",
    "SubRegionCode": "TADP",
    "VenueAddress": "Housing Board Colony, Sasi College Road, Tadepalligudem, Andhra Pradesh 534101, India",
    "VenueCode": "CNTD",
    "VenueName": "Connplex Cinemas (Signature): Sri Sri"
  },
  "CONN": {
    "AvailableFormats": "2D",
    "City": "Balotra",
    "Latitude": "25.7975",
    "Longitude": "72.1624",
    "RegionCode": "BALO",
    "State": "Rajasthan",
    "SubRegionCode": "BALO",
    "VenueAddress": "2nd Floor, Naresha Palace, Raj Resort, Nakoda Road, Near Rajendra Dham, Balotra, Rajasthan 344024, India",
    "VenueCode": "CONN",
    "VenueName": "Connplex Cinemas: Balotra"
  },
  "CPAR": {
    "AvailableFormats": "2D|3D",
    "City": "Pune",
    "Latitude": "18.4631",
    "Longitude": "73.8168",
    "RegionCode": "PUNE",
    "State": "Maharashtra",
    "SubRegionCode": "PUNE",
    "VenueAddress": "Near Flyover, Sinhagad Road, Vadgaon Budruk, Pune, Maharashtra 411041, India",
    "VenueCode": "CPAR",
    "VenueName": "Abhiruchi City Pride: Sinhagad Road"
  },
  "CPEM": {
    "AvailableFormats": "2D",
    "City": "Ahmedabad",
    "Latitude": "23.0233",
    "Longitude": "72.5682",
    "RegionCode": "AHD",
    "State": "Gujarat",
    "SubRegionCode": "AHD",
    "VenueAddress": "The Orient Club, Near - Gujarat College, Ahmedabad, Gujarat 380006, India",
    "VenueCode": "CPEM",
    "VenueName": "City Pulse: Orient Miniplex, Ellisbridge"
  },
  "CPKJ": {
    "AvailableFormats": "",
    "City": "Keonjhar",
    "FirstTracked": "2026-07-14",
    "Latitude": "21.63116",
    "Longitude": "85.60185",
    "RegionCode": "KNJH",
    "State": "Odisha",
    "SubRegionCode": "KNJH",
    "VenueAddress": "Cineplexx, Old Tarini Chhabighar, Hospital Road, Keonjhar, Odisha 758001, India",
    "VenueCode": "CPKJ",
    "VenueName": "Cineplexx: Keonjhar"
  },
  "CPMJ": {
    "AvailableFormats": "2D",
    "City": "Jagdalpur",
    "Latitude": "19.0887",
    "Longitude": "82.0118",
    "RegionCode": "JAGD",
    "State": "Chhattisgarh",
    "SubRegionCode": "JAGD",
    "VenueAddress": "Binaka Mall, Chitrakote Road, Jagdalpur, Chhattisgarh 493773, India",
    "VenueCode": "CPMJ",
    "VenueName": "Cine Plus Multiplex: Jagdalpur"
  },
  "CPPD": {
    "AvailableFormats": "2D",
    "City": "Proddatur",
    "Latitude": "14.7472",
    "Longitude": "78.5579",
    "RegionCode": "PROD",
    "State": "Andhra Pradesh",
    "SubRegionCode": "PROD",
    "VenueAddress": "Srinivasa Nagar, Opposite Arabian Hotel, Near S.K.C.V.S High School, Proddatur, Andhra Pradesh 516360, India",
    "VenueCode": "CPPD",
    "VenueName": "Chand Picture Palace A/C DTS: Proddatur"
  },
  "CPUM": {
    "AvailableFormats": "2D|3D",
    "City": "Delhi",
    "Latitude": "28.7149",
    "Longitude": "77.1164",
    "RegionCode": "NCR",
    "State": "NCR",
    "SubRegionCode": "DELHI",
    "VenueAddress": "Unity One Rohini, Bhagawan Mahavir Marg, Rohini West Metro Station, Sector 10, Rohini, Delhi, NCR 110085, India",
    "VenueCode": "CPUM",
    "VenueName": "Cinepolis: Unity One Mall Rohini, Delhi"
  },
  "CRHP": {
    "AvailableFormats": "",
    "City": "Shopian",
    "FirstTracked": "2026-07-14",
    "Latitude": "33.72005",
    "Longitude": "74.833595",
    "RegionCode": "SPHN",
    "State": "Jammu and Kashmir",
    "SubRegionCode": "SPHN",
    "VenueAddress": "Townhall Municipal Council Office, Near Town Hall Park, Shopian, Jammu and Kashmir 192303, India",
    "VenueCode": "CRHP",
    "VenueName": "Citara Cinemas: Shopian"
  },
  "CSCT": {
    "AvailableFormats": "2D",
    "City": "Tirupati",
    "Latitude": "13.6385",
    "Longitude": "79.4235",
    "RegionCode": "TIRU",
    "State": "Andhra Pradesh",
    "SubRegionCode": "TIRU",
    "VenueAddress": "RS Gardens, Leela Mahal Road, Tirupati, Andhra Pradesh 517501, India",
    "VenueCode": "CSCT",
    "VenueName": "CS Cinemas (Devendra Theater) A/C 4K Dolby Atmos"
  },
  "CSNC": {
    "AvailableFormats": "",
    "City": "Pileru",
    "FirstTracked": "2026-07-14",
    "Latitude": "13.657028",
    "Longitude": "78.9408",
    "RegionCode": "PLRU",
    "State": "Andhra Pradesh",
    "SubRegionCode": "PLRU",
    "VenueAddress": "National Highway 205, Near Vinayaka Temple, Pileru, Andhra Pradesh 517214, India",
    "VenueCode": "CSNC",
    "VenueName": "CSN Cinema (Shukur Picture Palace): Pileru"
  },
  "CSTM": {
    "AvailableFormats": "2D",
    "City": "Satana",
    "Latitude": "20.5959",
    "Longitude": "74.1976",
    "RegionCode": "STNA",
    "State": "Maharashtra",
    "SubRegionCode": "STNA",
    "VenueAddress": "Sonar Lane, Ambedkar Nagar, Satana, Maharashtra 423301, India",
    "VenueCode": "CSTM",
    "VenueName": "Chitra Cinema: Satana"
  },
  "CTEE": {
    "AvailableFormats": "3D|2D",
    "City": "Gurugram (Gurgaon)",
    "Latitude": "28.454",
    "Longitude": "76.9927",
    "RegionCode": "NCR",
    "State": "NCR",
    "SubRegionCode": "GURG",
    "VenueAddress": "The Esplanade Mall, Sector 37 C Road, Sector 37, Gurugram (Gurgaon), NCR 122001, India",
    "VenueCode": "CTEE",
    "VenueName": "Cinepolis: The Esplanade, Gurugram"
  },
  "CTMR": {
    "AvailableFormats": "2D",
    "City": "Muzaffarnagar",
    "Latitude": "29.4762",
    "Longitude": "77.6966",
    "RegionCode": "MUZ",
    "State": "Uttar Pradesh",
    "SubRegionCode": "MUZ",
    "VenueAddress": "NH 58, Civil Lines North, Muzaffarnagar, Uttar Pradesh 251001, India",
    "VenueCode": "CTMR",
    "VenueName": "Chandra Talkies: Muzaffarnagar"
  },
  "CTYB": {
    "AvailableFormats": "",
    "City": "Basna",
    "FirstTracked": "2026-07-14",
    "Latitude": "21.27868",
    "Longitude": "82.8222",
    "RegionCode": "BASN",
    "State": "Chhattisgarh",
    "SubRegionCode": "BASN",
    "VenueAddress": "Near Lady Hospital, National Highway 6, Basna, Chhattisgarh 493554, India",
    "VenueCode": "CTYB",
    "VenueName": "City Cinema: Basna"
  },
  "CVLG": {
    "AvailableFormats": "2D",
    "City": "Bengaluru",
    "Latitude": "12.9817",
    "Longitude": "77.5638",
    "RegionCode": "BANG",
    "State": "Karnataka",
    "SubRegionCode": "BANG",
    "VenueAddress": "3rd Floor, Lulu Mall, Rajajinagar, Bengaluru, Karnataka 560023, India",
    "VenueCode": "CVLG",
    "VenueName": "Cinepolis VIP: Lulu Mall, Bengaluru"
  },
  "CWTK": {
    "AvailableFormats": "2D",
    "City": "Kozhinjampara",
    "Latitude": "10.7368",
    "Longitude": "76.8327",
    "RegionCode": "PLKK",
    "State": "Kerala",
    "SubRegionCode": "PLKK",
    "VenueAddress": "Chittur Road, Near Bus Stand, Kozhinjampara, Kerala 678555, India",
    "VenueCode": "CWTK",
    "VenueName": "Cowmalya Theatre: Kozhinjampara"
  },
  "CXTE": {
    "AvailableFormats": "2D",
    "City": "Umerkote",
    "Latitude": "19.6555",
    "Longitude": "82.2213",
    "RegionCode": "UMEK",
    "State": "Odisha",
    "SubRegionCode": "UMEK",
    "VenueAddress": "JK Plaza, Infront of Reliance Trends, Dongriguda Road, Shanti Nagar, Umerkote, Odisha 764073, India",
    "VenueCode": "CXTE",
    "VenueName": "Connplex Cinemas: Umerkote"
  },
  "DBJR": {
    "AvailableFormats": "2D",
    "City": "Kalady",
    "Latitude": "10.1687",
    "Longitude": "76.443",
    "RegionCode": "KLDY",
    "State": "Kerala",
    "SubRegionCode": "KLDY",
    "VenueAddress": "Kalady Malayattoor Road, Thalayattumpilli, Kalady, Kerala 683574, India",
    "VenueCode": "DBJR",
    "VenueName": "Dreambig Jawahar CInemas: Kalady"
  },
  "DCCU": {
    "AvailableFormats": "2D",
    "City": "Thodupuzha",
    "Latitude": "9.90082",
    "Longitude": "76.7134",
    "RegionCode": "THOD",
    "State": "Kerala",
    "SubRegionCode": "THOD",
    "VenueAddress": "4th Floor, Dream Mall, Mt Sinai Road, Near Reliance Trends, Thodupuzha, Kerala 685584, India",
    "VenueCode": "DCCU",
    "VenueName": "DREAM MALL NAXA CINEMAS DOLBY 7.1"
  },
  "DCMV": {
    "AvailableFormats": "3D|2D",
    "City": "Noida",
    "Latitude": "28.5673",
    "Longitude": "77.3213",
    "RegionCode": "NCR",
    "State": "NCR",
    "SubRegionCode": "NOIDA",
    "VenueAddress": "5th Floor, DLF Mall of India, Plot No M03, A602/A701B, Sector 18, Noida, NCR 201301, India",
    "VenueCode": "DCMV",
    "VenueName": "PVR Directors Cut, DLF Mall Of India: Noida"
  },
  "DDJP": {
    "AvailableFormats": "2D",
    "City": "Jaipur",
    "Latitude": "26.8024",
    "Longitude": "75.857",
    "RegionCode": "JAIP",
    "State": "Rajasthan",
    "SubRegionCode": "JAIP",
    "VenueAddress": "DD Cinemas, 5th Floor, Viva City Mall, C-3, Mahal Road, Near Akshay Patra Temple, Mahal Yojana, Jagatpura, Shri Kishanpura, Jaipur, Rajasthan 302022, India",
    "VenueCode": "DDJP",
    "VenueName": "DD Cinemas: Vivacity Mall, Jaipur"
  },
  "DESB": {
    "AvailableFormats": "2D",
    "City": "Dhanbad",
    "Latitude": "23.7401",
    "Longitude": "86.4183",
    "RegionCode": "DHAN",
    "State": "Jharkhand",
    "SubRegionCode": "DHAN",
    "VenueAddress": "Nai Duniya Mohlla, Main Road, Jharia, Dhanbad, Jharkhand 828111, India",
    "VenueCode": "DESB",
    "VenueName": "Deshbandhu Cinema: Jharia, Dhanbad"
  },
  "DHCL": {
    "AvailableFormats": "2D",
    "City": "Badaun",
    "Latitude": "28.0319",
    "Longitude": "79.125",
    "RegionCode": "BADN",
    "State": "Uttar Pradesh",
    "SubRegionCode": "BADN",
    "VenueAddress": "Dhishoom Cinemas, 3rd floor City Mall, Labela Road, Badaun, Uttar Pradesh 243601, India",
    "VenueCode": "DHCL",
    "VenueName": "Dhishoom Cinemas, City Mall: Budaun"
  },
  "DLCN": {
    "AvailableFormats": "2D",
    "City": "Nenmara",
    "Latitude": "10.5908",
    "Longitude": "76.5954",
    "RegionCode": "NENM",
    "State": "Kerala",
    "SubRegionCode": "NENM",
    "VenueAddress": "State Highway 58, MG Road, Nenmara, Kerala 678508, India",
    "VenueCode": "DLCN",
    "VenueName": "Dhanalakshmi Cinemas: Nenmara"
  },
  "DMKT": {
    "AvailableFormats": "2D",
    "City": "Nagapattinam",
    "Latitude": "10.7691",
    "Longitude": "79.8414",
    "RegionCode": "NGPT",
    "State": "Tamil Nadu",
    "SubRegionCode": "NGPT",
    "VenueAddress": "Public Office Road, ASN Colony, Elancheran Nagar, Nagapattinam, Tamil Nadu 611001, India",
    "VenueCode": "DMKT",
    "VenueName": "Devi Cinemas (Karthik Cinemas) A/C Dolby Atmos"
  },
  "DOMY": {
    "AvailableFormats": "3D|2D",
    "City": "Ayodhya",
    "Latitude": "26.784",
    "Longitude": "82.1443",
    "RegionCode": "FAZA",
    "State": "Uttar Pradesh",
    "SubRegionCode": "FAZA",
    "VenueAddress": "3rd Floor, Mall of Avadh, Ram Path, Ayodhya, Uttar Pradesh 224001, India",
    "VenueCode": "DOMY",
    "VenueName": "Dhishoom Cinemas: Ayodhya"
  },
  "DRMY": {
    "AvailableFormats": "2D|3D",
    "City": "Mysuru (Mysore)",
    "Latitude": "12.3221",
    "Longitude": "76.6208",
    "RegionCode": "MYS",
    "State": "Karnataka",
    "SubRegionCode": "MYS",
    "VenueAddress": "Gokulam Road, Jayalakshmipuram, Behind BM Hospital, Mysuru (Mysore), Karnataka 570012, India",
    "VenueCode": "DRMY",
    "VenueName": "DRC Cinemas: BM Habitat Mall"
  },
  "DTPD": {
    "AvailableFormats": "2D",
    "City": "Pendra",
    "Latitude": "22.7551",
    "Longitude": "81.9028",
    "RegionCode": "PEND",
    "State": "Chhattisgarh",
    "SubRegionCode": "PEND",
    "VenueAddress": "Gaurella, Pendra Road, Opposite Shivam Mithai, Pendra, Chhattisgarh 495117, India",
    "VenueCode": "DTPD",
    "VenueName": "Durgesh Talkies: Pendra"
  },
  "DVCF": {
    "AvailableFormats": "2D",
    "City": "Ramjibanpur",
    "Latitude": "22.8259",
    "Longitude": "87.6007",
    "RegionCode": "PUUR",
    "State": "West Bengal",
    "SubRegionCode": "PUUR",
    "VenueAddress": "Devleen Cinema, Near Sandipa Jewellers, Pashchim Medinipur, Ramjibanpur, West Bengal 721242, India",
    "VenueCode": "DVCF",
    "VenueName": "Devleen Cinema: Ramjibanpur"
  },
  "EBCA": {
    "AvailableFormats": "",
    "City": "Kundli",
    "Latitude": "28.9099",
    "Longitude": "77.1097",
    "RegionCode": "NCR",
    "State": "NCR",
    "SubRegionCode": "KUND",
    "VenueAddress": "Parker Mall Sector 62, National Highway 1, Kundli, NCR 131028, India",
    "VenueCode": "EBCA",
    "VenueName": "eBox Cinema: Parker Mall, Kundli"
  },
  "EDMP": {
    "AvailableFormats": "2D|3D",
    "City": "Ghaziabad",
    "Latitude": "28.6412",
    "Longitude": "77.317",
    "RegionCode": "MRDG",
    "State": "NCR",
    "SubRegionCode": "MRDG",
    "VenueAddress": "East Delhi Mall, Opp Anand Vihar, Kaushambi, Near Big Bazaar, Ghaziabad, NCR 201010, India",
    "VenueCode": "EDMP",
    "VenueName": "PVR: EDM, Ghaziabad"
  },
  "ELYE": {
    "AvailableFormats": "2D|3D",
    "City": "Jorhat",
    "Latitude": "26.7568",
    "Longitude": "94.2151",
    "RegionCode": "JORT",
    "State": "Assam",
    "SubRegionCode": "JORT",
    "VenueAddress": "Gar Ali Road, Babupatty, Jorhat, Assam 785001, India",
    "VenueCode": "ELYE",
    "VenueName": "Eleye Multiplex: Jorhat"
  },
  "EOSE": {
    "AvailableFormats": "2D|3D",
    "City": "Shahdol",
    "Latitude": "23.2961",
    "Longitude": "81.3732",
    "RegionCode": "SHAH",
    "State": "Madhya Pradesh",
    "SubRegionCode": "SHAH",
    "VenueAddress": "K Square Mall, MP SH 9A, Bhatnagar, Budhar Main Road, Shahdol, Madhya Pradesh 484001, India",
    "VenueCode": "EOSE",
    "VenueName": "K-Square Cinemas: Shahdol"
  },
  "ESEM": {
    "AvailableFormats": "2D|3D",
    "City": "Pune",
    "Latitude": "18.5927",
    "Longitude": "73.7453",
    "RegionCode": "PUNE",
    "State": "Maharashtra",
    "SubRegionCode": "PUNE",
    "VenueAddress": "1st Floor, XION Mall, Hinjawadi Road, Wakad, Pune, Maharashtra 411057, India",
    "VenueCode": "ESEM",
    "VenueName": "E-SQUARE: Xion Mall, Hinjawadi"
  },
  "ETPB": {
    "AvailableFormats": "2D",
    "City": "Bhavnagar",
    "Latitude": "21.7716",
    "Longitude": "72.1462",
    "RegionCode": "BHNG",
    "State": "Gujarat",
    "SubRegionCode": "BHNG",
    "VenueAddress": "Shiva Blessing 2, Shilpi Nagar, Opposite Bhavnagar Municipal Corporation, Bhavnagar, Gujarat 364001, India",
    "VenueCode": "ETPB",
    "VenueName": "The Entertainment Park: Bhavnagar"
  },
  "EYHZ": {
    "AvailableFormats": "2D",
    "City": "Hazaribagh",
    "Latitude": "23.9914",
    "Longitude": "85.3541",
    "RegionCode": "HAZA",
    "State": "Jharkhand",
    "SubRegionCode": "HAZA",
    "VenueAddress": "Indralok Tower, 4th floor, Main Road Gwal Toli Chowk, Azad Mahalla, Hazaribagh, Jharkhand 825301, India",
    "VenueCode": "EYHZ",
    "VenueName": "Eylex Cinema: Hazaribagh"
  },
  "FCMG": {
    "AvailableFormats": "2D",
    "City": "Nipani",
    "Latitude": "16.4083",
    "Longitude": "74.4892",
    "RegionCode": "NIPN",
    "State": "Karnataka",
    "SubRegionCode": "NIPN",
    "VenueAddress": "Mall Road, Next to Nipani Bus Stand, Chikodi Road, Nipani, Karnataka 591237, India",
    "VenueCode": "FCMG",
    "VenueName": "Magnum Fun Cinemas: Nipani"
  },
  "FLMB": {
    "AvailableFormats": "2D|3D",
    "City": "Ranchi",
    "Latitude": "23.3331",
    "Longitude": "85.3171",
    "RegionCode": "RANC",
    "State": "Jharkhand",
    "SubRegionCode": "RANC",
    "VenueAddress": "Spring City Mall, Hinoo Main Road, Beside Hinoo Bridge, Ranchi, Jharkhand 834002, India",
    "VenueCode": "FLMB",
    "VenueName": "Fun Cinemas: Springcity, Ranchi"
  },
  "FMLB": {
    "AvailableFormats": "2D",
    "City": "Bengaluru",
    "Latitude": "12.9732",
    "Longitude": "77.6213",
    "RegionCode": "HOKT",
    "State": "Karnataka",
    "SubRegionCode": "HOKT",
    "VenueAddress": "2nd Floor - Lido Mall, Swamy Vivekananda Road, Halasuru, Next to Hyatt Hotel, Bengaluru, Karnataka 560008, India",
    "VenueCode": "FMLB",
    "VenueName": "INOX Lido: Off MG Road, Ulsoor"
  },
  "FNAS": {
    "AvailableFormats": "2D|3D",
    "City": "Amritsar",
    "Latitude": "31.62",
    "Longitude": "74.9068",
    "RegionCode": "AMRI",
    "State": "Punjab",
    "SubRegionCode": "AMRI",
    "VenueAddress": "Alpha One, Level-2, G.T. Road, Maqbool Pura, Amritsar, Punjab 143006, India",
    "VenueCode": "FNAS",
    "VenueName": "Cinepolis: Nexus Amritsar"
  },
  "FNJJ": {
    "AvailableFormats": "2D|3D",
    "City": "Jaipur",
    "Latitude": "26.9422",
    "Longitude": "75.771",
    "RegionCode": "JAIP",
    "State": "Rajasthan",
    "SubRegionCode": "JAIP",
    "VenueAddress": "Jhotwara Road, Plot No: 1/1, Triton Mega Mall, Jaipur, Rajasthan 302012, India",
    "VenueCode": "FNJJ",
    "VenueName": "Cinepolis: Triton Mega Mall, Jaipur"
  },
  "FQSA": {
    "AvailableFormats": "2D",
    "City": "Navi Mumbai",
    "Latitude": "19.066",
    "Longitude": "73.0083",
    "RegionCode": "MUMBAI",
    "State": "Maharashtra",
    "SubRegionCode": "THAN",
    "VenueAddress": "Sector 3, Sanpada, Navi Mumbai, Maharashtra 400705, India",
    "VenueCode": "FQSA",
    "VenueName": "Fun Square Cinema: Sanpada"
  },
  "FSTD": {
    "AvailableFormats": "2D",
    "City": "Jaipur",
    "Latitude": "26.9606",
    "Longitude": "75.7786",
    "RegionCode": "JAIP",
    "State": "Rajasthan",
    "SubRegionCode": "JAIP",
    "VenueAddress": "Vidyadhar Nagar, Times square Mall, Jaipur, Rajasthan 302039, India",
    "VenueCode": "FSTD",
    "VenueName": "Funstar Cinemas: Vidhyadhar Nagar, Jaipur"
  },
  "GAGC": {
    "AvailableFormats": "2D",
    "City": "Delhi",
    "Latitude": "28.6964",
    "Longitude": "77.3149",
    "RegionCode": "NCR",
    "State": "NCR",
    "SubRegionCode": "DELHI",
    "VenueAddress": "Main Road Nand Nagari, Kanchipuram, Community Centre, Village Mandoli, Delhi, NCR 110093, India",
    "VenueCode": "GAGC",
    "VenueName": "Gagan Theatre: Nand Nagri, Delhi"
  },
  "GATP": {
    "AvailableFormats": "2D",
    "City": "Palakollu",
    "Latitude": "16.5176",
    "Longitude": "81.7184",
    "RegionCode": "PLKL",
    "State": "Andhra Pradesh",
    "SubRegionCode": "PLKL",
    "VenueAddress": "PP Road, Near Krishna Bhavani Hospital, Palakollu, Andhra Pradesh 534260, India",
    "VenueCode": "GATP",
    "VenueName": "Geetha Annapurna Theatre: Palakollu"
  },
  "GCBA": {
    "AvailableFormats": "2D",
    "City": "Barnala",
    "Latitude": "30.2621",
    "Longitude": "75.2356",
    "RegionCode": "BAR",
    "State": "Punjab",
    "SubRegionCode": "BAR",
    "VenueAddress": "Bathinda Road, Near T-Point, Barnala, Punjab 148101, India",
    "VenueCode": "GCBA",
    "VenueName": "GE Cinemas: Barnala"
  },
  "GCDT": {
    "AvailableFormats": "2D",
    "City": "Thrissur",
    "Latitude": "10.5091",
    "Longitude": "76.2374",
    "RegionCode": "MANR",
    "State": "Kerala",
    "SubRegionCode": "MANR",
    "VenueAddress": "Valarkavu, Nehru Nagar, Kuriachira P.O, Thrissur, Kerala 680006, India",
    "VenueCode": "GCDT",
    "VenueName": "Ganam Cinemas 4K RGB Laser Dolby Atmos: Thrissur"
  },
  "GCKG": {
    "AvailableFormats": "2D",
    "City": "Kokrajhar",
    "Latitude": "26.4275",
    "Longitude": "90.2815",
    "RegionCode": "KKJR",
    "State": "Assam",
    "SubRegionCode": "KKJR",
    "VenueAddress": "Dimalgaon, Near Jwngma Hotel, Kokrajhar, Assam 783370, India",
    "VenueCode": "GCKG",
    "VenueName": "Gold Cinema: Kokrajhar"
  },
  "GCMM": {
    "AvailableFormats": "2D",
    "City": "Madurai",
    "Latitude": "9.93746",
    "Longitude": "78.1219",
    "RegionCode": "MADU",
    "State": "Tamil Nadu",
    "SubRegionCode": "MADU",
    "VenueAddress": "50 Feet Road, Sellur, Madurai, Tamil Nadu 625002, India",
    "VenueCode": "GCMM",
    "VenueName": "Gopuram Cinemas ATMOS and Laser Projector: Madurai"
  },
  "GCTA": {
    "AvailableFormats": "2D",
    "City": "Alwar",
    "Latitude": "27.5611",
    "Longitude": "76.6048",
    "RegionCode": "ALWR",
    "State": "Rajasthan",
    "SubRegionCode": "ALWR",
    "VenueAddress": "3rd Floor, Capital Galleria Plot No 4, Manumarg Kabir Colony, Alwar, Rajasthan 301001, India",
    "VenueCode": "GCTA",
    "VenueName": "Gold Cinema: Alwar CG, Manu Marg"
  },
  "GDBW": {
    "AvailableFormats": "2D",
    "City": "Bhiwadi",
    "Latitude": "28.2131",
    "Longitude": "76.8545",
    "RegionCode": "BHWD",
    "State": "Rajasthan",
    "SubRegionCode": "BHWD",
    "VenueAddress": "Capital Mall, H.C. Buildcon Pvt. Ltd. 812 C.P. 4 Riico Industrial Area, Bhiwadi, Rajasthan 301019, India",
    "VenueCode": "GDBW",
    "VenueName": "Gold Cinema: Bhiwadi"
  },
  "GDKA": {
    "AvailableFormats": "2D",
    "City": "Kota",
    "Latitude": "25.1683",
    "Longitude": "75.8532",
    "RegionCode": "KOTA",
    "State": "Rajasthan",
    "SubRegionCode": "KOTA",
    "VenueAddress": "Aakash Multiplex, Aerodrome Circle, New Grain Mandi,Kota, Rajasthan 324007, India",
    "VenueCode": "GDKA",
    "VenueName": "Gold Cinema: Kota"
  },
  "GEKR": {
    "AvailableFormats": "2D",
    "City": "Tumakuru (Tumkur)",
    "Latitude": "13.3375",
    "Longitude": "77.1039",
    "RegionCode": "TUMK",
    "State": "Karnataka",
    "SubRegionCode": "TUMK",
    "VenueAddress": "B.H. Road, CSI Layout, Near Shiva Agencies, Tumakuru (Tumkur), Karnataka 572101, India",
    "VenueCode": "GEKR",
    "VenueName": "Gayatri Theater 2K Digital A/C Dolby: Tumakuru"
  },
  "GGGZ": {
    "AvailableFormats": "2D",
    "City": "Jalore",
    "Latitude": "25.339",
    "Longitude": "72.6284",
    "RegionCode": "LALO",
    "State": "Rajasthan",
    "SubRegionCode": "LALO",
    "VenueAddress": "RSS Entertainments, Graveet Tower, Bhinmal by Pass Road, Jalore, Rajasthan 343001, India",
    "VenueCode": "GGGZ",
    "VenueName": "Glitz Cinemas: Jalore"
  },
  "GKCC": {
    "AvailableFormats": "2D",
    "City": "Coimbatore",
    "Latitude": "10.9543",
    "Longitude": "76.7892",
    "RegionCode": "COIM",
    "State": "Tamil Nadu",
    "SubRegionCode": "COIM",
    "VenueAddress": "Siruvani Road, Alandurai, Near Canara Bank, Coimbatore, Tamil Nadu 641010, India",
    "VenueCode": "GKCC",
    "VenueName": "Gokulam Cinemas A/C 2K: Coimbatore"
  },
  "GLDC": {
    "AvailableFormats": "2D",
    "City": "Chaygaon",
    "Latitude": "26.0476",
    "Longitude": "91.3844",
    "RegionCode": "CHOG",
    "State": "Assam",
    "SubRegionCode": "CHOG",
    "VenueAddress": "Goalpara - Guwahati Road, Near Bank Of Baroda, Chaygaon, Assam 781124, India",
    "VenueCode": "GLDC",
    "VenueName": "Gold Cinema: Chaygaon"
  },
  "GNDS": {
    "AvailableFormats": "2D",
    "City": "Shikrapur",
    "Latitude": "18.703",
    "Longitude": "74.1389",
    "RegionCode": "SKHR",
    "State": "Maharashtra",
    "SubRegionCode": "SKHR",
    "VenueAddress": "Besides Nandini Villa, Hiware Road, Shikrapur, Maharashtra 412208, India",
    "VenueCode": "GNDS",
    "VenueName": "Gunjan Dijeplex: Shikrapur"
  },
  "GPAM": {
    "AvailableFormats": "2D",
    "City": "Bengaluru",
    "Latitude": "12.9359",
    "Longitude": "77.5176",
    "RegionCode": "HOKT",
    "State": "Karnataka",
    "SubRegionCode": "HOKT",
    "VenueAddress": "Arcade Mall, Rajarajeshwari Nagar, Opposite The Club Mysore Road, Bengaluru, Karnataka 560098, India",
    "VenueCode": "GPAM",
    "VenueName": "Gopalan Cinemas: Arcade Mall, Mysore Road"
  },
  "GPRH": {
    "AvailableFormats": "2D|3D",
    "City": "Hyderabad",
    "Latitude": "17.4993",
    "Longitude": "78.3907",
    "RegionCode": "HYD",
    "State": "Telangana",
    "SubRegionCode": "HYD",
    "VenueAddress": "Nizampet X Roads, Kukatpally, Hyderabad, Telangana 500072, India",
    "VenueCode": "GPRH",
    "VenueName": "GPR Multiplex: Nizampet, Hyderabad"
  },
  "GRNT": {
    "AvailableFormats": "",
    "City": "Ongole",
    "FirstTracked": "2026-07-14",
    "Latitude": "15.51021",
    "Longitude": "80.05091",
    "RegionCode": "ADKI",
    "State": "Andhra Pradesh",
    "SubRegionCode": "ADKI",
    "VenueAddress": "Cumbu, Gopal Nagar, Near Andhra Bank, Ongole, Andhra Pradesh 523001, India",
    "VenueCode": "GRNT",
    "VenueName": "Gorantla Cinemas: Ongole"
  },
  "GTCK": {
    "AvailableFormats": "2D",
    "City": "Trivandrum",
    "Latitude": "8.60425",
    "Longitude": "76.8156",
    "RegionCode": "VKAL",
    "State": "Kerala",
    "SubRegionCode": "VKAL",
    "VenueAddress": "Puthukurichy (P.O), Kaniyapuram, Near V Tracks Cinemas, Trivandrum, Kerala 695303, India",
    "VenueCode": "GTCK",
    "VenueName": "GTracks Screen 2 Sony 4K: Kadinamkulam"
  },
  "GTNA": {
    "AvailableFormats": "2D",
    "City": "Nidadavolu",
    "Latitude": "16.9054",
    "Longitude": "81.6714",
    "RegionCode": "NDVD",
    "State": "Andhra Pradesh",
    "SubRegionCode": "NDVD",
    "VenueAddress": "Nidadavole Road, West Godavari, Opposite Ratna Nursing Home, Nidadavolu, Andhra Pradesh 534301, India",
    "VenueCode": "GTNA",
    "VenueName": "Ganapathi Theatre A/C Dts: Nidadavolu"
  },
  "GTWH": {
    "AvailableFormats": "2D|3D",
    "City": "Wardha",
    "Latitude": "20.7372",
    "Longitude": "78.6028",
    "RegionCode": "WARD",
    "State": "Maharashtra",
    "SubRegionCode": "WARD",
    "VenueAddress": "Sevagram Road, Mahadevpura, Near District General Hospital, Wardha, Maharashtra 442001, India",
    "VenueCode": "GTWH",
    "VenueName": "Ganesh Talkies: Wardha"
  },
  "HAMC": {
    "AvailableFormats": "2D",
    "City": "Shikarpur",
    "Latitude": "28.2792",
    "Longitude": "78.0104",
    "RegionCode": "SHIP",
    "State": "Uttar Pradesh",
    "SubRegionCode": "SHIP",
    "VenueAddress": "HEM Palace Cinema, 100 Kot Shar Khan, Bulandshahr, Shikarpur, Uttar Pradesh 203129, India",
    "VenueCode": "HAMC",
    "VenueName": "Hem Cineplex: Shikarpur"
  },
  "HCKI": {
    "AvailableFormats": "2D",
    "City": "Kotputli",
    "Latitude": "27.7087",
    "Longitude": "76.1956",
    "RegionCode": "KPLI",
    "State": "Rajasthan",
    "SubRegionCode": "KPLI",
    "VenueAddress": "NH 8, Near Patel Oil Company, Kotputli, Rajasthan 303108, India",
    "VenueCode": "HCKI",
    "VenueName": "Heeramoti Cinema: Kotputli"
  },
  "HHCG": {
    "AvailableFormats": "2D",
    "City": "Guntur",
    "Latitude": "16.3097",
    "Longitude": "80.4342",
    "RegionCode": "GUNT",
    "State": "Andhra Pradesh",
    "SubRegionCode": "GUNT",
    "VenueAddress": "Opp LVR Club, Road Lakshmipuram, Koritepadu Road, Guntur, Andhra Pradesh 522007, India",
    "VenueCode": "HHCG",
    "VenueName": "Harihar Cinemas: Guntur"
  },
  "HOUT": {
    "AvailableFormats": "2D",
    "City": "Moranhat",
    "Latitude": "27.1869",
    "Longitude": "94.9144",
    "RegionCode": "MORH",
    "State": "Assam",
    "SubRegionCode": "MORH",
    "VenueAddress": "Peoli Nagar, AT Road, Near State Bank Of India, Moranhat, Assam 785670, India",
    "VenueCode": "HOUT",
    "VenueName": "Houseful Talkies: Moranhat"
  },
  "IAET": {
    "AvailableFormats": "2D",
    "City": "Baraut",
    "Latitude": "29.1011",
    "Longitude": "77.2744",
    "RegionCode": "BARL",
    "State": "Uttar Pradesh",
    "SubRegionCode": "BARL",
    "VenueAddress": "Binoli Road, Near Vishnu Palace, Baraut, Uttar Pradesh 250611, India",
    "VenueCode": "IAET",
    "VenueName": "Imusica Entertainment: Baraut"
  },
  "IEFM": {
    "AvailableFormats": "3D|2D",
    "City": "Faridabad",
    "Latitude": "28.4076",
    "Longitude": "77.3101",
    "RegionCode": "NCR",
    "State": "NCR",
    "SubRegionCode": "FARI",
    "VenueAddress": "EROS EF3 Mall 3rd Floor, Sector 20 - A, Mathura Road, Faridabad, NCR 121001, India",
    "VenueCode": "IEFM",
    "VenueName": "INOX: EF3 Mall, Faridabad"
  },
  "ILUM": {
    "AvailableFormats": "3D|2D",
    "City": "Lucknow",
    "Latitude": "26.8713",
    "Longitude": "80.9584",
    "RegionCode": "LUCK",
    "State": "Uttar Pradesh",
    "SubRegionCode": "LUCK",
    "VenueAddress": "INOX Leisure LTD, 2nd Floor, Umrao Mall, Mahanagar, Near Badshah Nagar Metro Station, Lucknow, Uttar Pradesh 226006, India",
    "VenueCode": "ILUM",
    "VenueName": "INOX: Umrao Mall, Mahanagar"
  },
  "IMMO": {
    "AvailableFormats": "2D|2D SCREEN X",
    "City": "Bengaluru",
    "Latitude": "13.0702",
    "Longitude": "77.5924",
    "RegionCode": "BANG",
    "State": "Karnataka",
    "SubRegionCode": "BANG",
    "VenueAddress": "239/240, Byatarayanapura, Yelahanka Taluk, Bellary Road, Bengaluru, Karnataka 560092, India",
    "VenueCode": "IMMO",
    "VenueName": "INOX: Megaplex Mall of Asia Bangalore"
  },
  "INAM": {
    "AvailableFormats": "3D|2D",
    "City": "Kota",
    "Latitude": "25.1619",
    "Longitude": "75.8635",
    "RegionCode": "KOTA",
    "State": "Rajasthan",
    "SubRegionCode": "KOTA",
    "VenueAddress": "Kota Ahluwalias Great Mall, DCM Road, Ramchandrapura, Dhanmandi, Kota, Rajasthan 324005, India",
    "VenueCode": "INAM",
    "VenueName": "INOX: Ahluwalias Great Mall, Kota"
  },
  "INBP": {
    "AvailableFormats": "2D|3D",
    "City": "Patna",
    "Latitude": "25.6175",
    "Longitude": "85.1352",
    "RegionCode": "PATN",
    "State": "Bihar",
    "SubRegionCode": "PATN",
    "VenueAddress": "3rd Floor, City Centre Mall, Lodipur, Patna, Bihar 800001, India",
    "VenueCode": "INBP",
    "VenueName": "INOX: City Centre Mall, Patna"
  },
  "INEM": {
    "AvailableFormats": "2D",
    "City": "Jaipur",
    "Latitude": "26.8954",
    "Longitude": "75.7486",
    "RegionCode": "JAIP",
    "State": "Rajasthan",
    "SubRegionCode": "JAIP",
    "VenueAddress": "3rd Floor, Elements Mall, Ajmer Road, Mahatma Gandhi Nagar, Jaipur, Rajasthan 302021, India",
    "VenueCode": "INEM",
    "VenueName": "INOX: Elements Mall, Ajmer Road"
  },
  "INHY": {
    "AvailableFormats": "2D",
    "City": "Hyderabad",
    "Latitude": "17.4196",
    "Longitude": "78.4486",
    "RegionCode": "HYD",
    "State": "Telangana",
    "SubRegionCode": "HYD",
    "VenueAddress": "4th Floor, GVK One Mall, Road No.1, Banjara Hills, Opposite Hyatt Place, Hyderabad, Telangana 500034, India",
    "VenueCode": "INHY",
    "VenueName": "INOX GVK One, Banjara Hills: Hyderabad"
  },
  "INMG": {
    "AvailableFormats": "2D|3D",
    "City": "Goa",
    "Latitude": "15.2848",
    "Longitude": "73.9576",
    "RegionCode": "GOA",
    "State": "Goa",
    "SubRegionCode": "GOA",
    "VenueAddress": "G Wing, Osia Commercial Arcade, SGPDA Market Complex, Goa, Goa 403601, India",
    "VenueCode": "INMG",
    "VenueName": "INOX: Osia G Wing Margao, Goa"
  },
  "INOM": {
    "AvailableFormats": "2D",
    "City": "Salem",
    "Latitude": "11.6745",
    "Longitude": "78.1326",
    "RegionCode": "SALM",
    "State": "Tamil Nadu",
    "SubRegionCode": "SALM",
    "VenueAddress": "1st Floor, Reliance Mall, Five Roads Junction, Meyyanur, Salem, Tamil Nadu 636004, India",
    "VenueCode": "INOM",
    "VenueName": "INOX: Reliance Mall, Salem"
  },
  "INQM": {
    "AvailableFormats": "2D|3D",
    "City": "Kolkata",
    "Latitude": "22.5393",
    "Longitude": "88.3657",
    "RegionCode": "BARR",
    "State": "West Bengal",
    "SubRegionCode": "BARR",
    "VenueAddress": "4th Floor,Quest Mall, Syed Amir Ali Avenue, Opposite Our Lady Queen Of The Missions School, Kolkata, West Bengal 700017, India",
    "VenueCode": "INQM",
    "VenueName": "INOX: Quest Mall"
  },
  "INSC": {
    "AvailableFormats": "2D|3D",
    "City": "Thrissur",
    "Latitude": "10.5504",
    "Longitude": "76.1838",
    "RegionCode": "MANR",
    "State": "Kerala",
    "SubRegionCode": "MANR",
    "VenueAddress": "INOX Leisure Ltd, 2nd Floor, Sobha City Mall, Puzhakkal, Thrissur, Kerala 680553, India",
    "VenueCode": "INSC",
    "VenueName": "INOX: Sobha City Mall"
  },
  "INTN": {
    "AvailableFormats": "3D|2D",
    "City": "Patna",
    "Latitude": "25.6057",
    "Longitude": "85.1337",
    "RegionCode": "PATN",
    "State": "Bihar",
    "SubRegionCode": "PATN",
    "VenueAddress": "PVR INOX Limited, KP Mall, 4th Floor, Budha Marg, Patna, Bihar 800001, India",
    "VenueCode": "INTN",
    "VenueName": "INOX: Ashok, Patna"
  },
  "INVP": {
    "AvailableFormats": "2D",
    "City": "Vijayawada",
    "Latitude": "16.5026",
    "Longitude": "80.6599",
    "RegionCode": "KADU",
    "State": "Andhra Pradesh",
    "SubRegionCode": "KADU",
    "VenueAddress": "3rd Floor, LEPL Icon, RTC Colony, Benz Circle, Patamata, Near Maris Stella College, Vijayawada, Andhra Pradesh 520010, India",
    "VenueCode": "INVP",
    "VenueName": "INOX: LEPL Icon, Patamata"
  },
  "IOCP": {
    "AvailableFormats": "2D|3D",
    "City": "Delhi",
    "Latitude": "28.6343",
    "Longitude": "77.2211",
    "RegionCode": "NCR",
    "State": "NCR",
    "SubRegionCode": "DELHI",
    "VenueAddress": "INOX Leisure Limited, Delhi Odeon, 2nd Floor, Odeon Cinema Complex, D-Block, Connaught Place, Delhi, NCR 110001, India",
    "VenueCode": "IOCP",
    "VenueName": "INOX: Odeon, Connaught Place"
  },
  "IPGM": {
    "AvailableFormats": "2D|3D",
    "City": "Dhanbad",
    "Latitude": "23.8292",
    "Longitude": "86.4333",
    "RegionCode": "DHAN",
    "State": "Jharkhand",
    "SubRegionCode": "DHAN",
    "VenueAddress": "3rd Floor, Prabhatam Grand Mall, Nagnagar, Barwadda, Dhaiya, Dhanbad, Jharkhand 826004, India",
    "VenueCode": "IPGM",
    "VenueName": "INOX: Prabhatam Grand Mall, Dhanbad"
  },
  "IRMR": {
    "AvailableFormats": "2D|3D",
    "City": "Rajkot",
    "Latitude": "22.2794",
    "Longitude": "70.7769",
    "RegionCode": "RAJK",
    "State": "Gujarat",
    "SubRegionCode": "RAJK",
    "VenueAddress": "INOX Leisure Ltd., 2nd Floor, Reliance Mall, 150 Feet Ring Road, Near Nana Mauva Circle, Rajkot, Gujarat 360005, India",
    "VenueCode": "IRMR",
    "VenueName": "INOX: Reliance Mega Mall, Rajkot"
  },
  "IUBS": {
    "AvailableFormats": "2D|3D",
    "City": "Udaipur",
    "Latitude": "24.6321",
    "Longitude": "73.7126",
    "RegionCode": "UDAI",
    "State": "Rajasthan",
    "SubRegionCode": "UDAI",
    "VenueAddress": "PVR INOX LTD, 3rd Floor Urban Square Mall, Plot No. F - 210 to 223, Udyog Vihar, Gaurav Path, RIICO Industrial Area, Sukher, Udaipur, Rajasthan 313001, India",
    "VenueCode": "IUBS",
    "VenueName": "INOX: Urban Square Mall, Udaipur"
  },
  "JAGG": {
    "AvailableFormats": "2D",
    "City": "Guna",
    "Latitude": "24.6499",
    "Longitude": "77.3141",
    "RegionCode": "GUNA",
    "State": "Madhya Pradesh",
    "SubRegionCode": "GUNA",
    "VenueAddress": "Karnal Ganj, Haat Road, Piproda Khurd, Guna, Madhya Pradesh 473001, India",
    "VenueCode": "JAGG",
    "VenueName": "Jagat Talkies: Guna"
  },
  "JCCZ": {
    "AvailableFormats": "2D",
    "City": "Forbesganj",
    "Latitude": "26.3014",
    "Longitude": "87.2607",
    "RegionCode": "FORB",
    "State": "Bihar",
    "SubRegionCode": "FORB",
    "VenueAddress": "Ram Manohar Lohiya Road, Hospital Road, Near India Breakfast Shop, Forbesganj, Bihar 854318, India",
    "VenueCode": "JCCZ",
    "VenueName": "Jyoti Cinema: Forbesganj"
  },
  "JCVM": {
    "AvailableFormats": "2D",
    "City": "Villupuram",
    "Latitude": "11.9412",
    "Longitude": "79.4939",
    "RegionCode": "VILL",
    "State": "Tamil Nadu",
    "SubRegionCode": "VILL",
    "VenueAddress": "716, Nehruji Road,Villupuram, Mandhakarai, Villupuram, Tamil Nadu 605602, India",
    "VenueCode": "JCVM",
    "VenueName": "Janas Cinemas: Maghalakshmi Plaazaa Villupuram"
  },
  "JHCJ": {
    "AvailableFormats": "2D",
    "City": "Jagdalpur",
    "Latitude": "19.0847",
    "Longitude": "82.0287",
    "RegionCode": "JAGD",
    "State": "Chhattisgarh",
    "SubRegionCode": "JAGD",
    "VenueAddress": "Balaji Ward, Suncity, Near Bank Of Baroda, Jagdalpur, Chhattisgarh 494001, India",
    "VenueCode": "JHCJ",
    "VenueName": "Jhankar Cinema: Jagdalpur"
  },
  "JKCT": {
    "AvailableFormats": "2D",
    "City": "Thrissur",
    "Latitude": "10.4195",
    "Longitude": "76.106",
    "RegionCode": "THAI",
    "State": "Kerala",
    "SubRegionCode": "THAI",
    "VenueAddress": "Ground Floor,Dheehini Shopping Complex, Nattika,Thriprayar, Near Sree Narayana Hall, Thrissur, Kerala 680566, India",
    "VenueCode": "JKCT",
    "VenueName": "JK Cinemas 4K Dolby Atmos: Thriprayar"
  },
  "JMJU": {
    "AvailableFormats": "2D",
    "City": "Jammu",
    "Latitude": "32.6993",
    "Longitude": "74.8583",
    "RegionCode": "JAMM",
    "State": "Jammu and Kashmir",
    "SubRegionCode": "JAMM",
    "VenueAddress": "Gandhi Nagar, Apsara Road, Jammu, Jammu and Kashmir 180004, India",
    "VenueCode": "JMJU",
    "VenueName": "Apsra Hospitality & Entertainment(Apsra Multiplex)"
  },
  "JRGF": {
    "AvailableFormats": "",
    "City": "Fatehpur(Rajasthan)",
    "FirstTracked": "2026-07-14",
    "Latitude": "27.98459",
    "Longitude": "74.95353",
    "RegionCode": "FATR",
    "State": "Rajasthan",
    "SubRegionCode": "FATR",
    "VenueAddress": "National Highway 11, Near to Gahlot Motors, Fatehpur(Rajasthan), Rajasthan 332301, India",
    "VenueCode": "JRGF",
    "VenueName": "JRG Movie Palace: Fatehpur"
  },
  "JTBP": {
    "AvailableFormats": "2D",
    "City": "Warangal",
    "Latitude": "18.000055",
    "Longitude": "79.588167",
    "RegionCode": "WAR",
    "State": "Telangana",
    "SubRegionCode": "WAR",
    "VenueAddress": "Hyderabad-Warangal-Bhopalpatnam Road, Rahamatnagar, Main Road, Warangal, Telangana 506003, India",
    "VenueCode": "JTBP",
    "VenueName": "Bhavani Picture Palace: Kazipet"
  },
  "JTLC": {
    "AvailableFormats": "2D",
    "City": "Chodavaram",
    "Latitude": "17.8299",
    "Longitude": "82.9374",
    "RegionCode": "CDVM",
    "State": "Andhra Pradesh",
    "SubRegionCode": "CDVM",
    "VenueAddress": "Gunisetti Vari Veedhi, Near Vinayak Temple Nowdu Veedhi, Chodavaram, Andhra Pradesh 531036, India",
    "VenueCode": "JTLC",
    "VenueName": "Lakshmi Theatre: Chodavaram"
  },
  "JTNP": {
    "AvailableFormats": "2D",
    "City": "Narsampet",
    "Latitude": "17.9291",
    "Longitude": "79.8887",
    "RegionCode": "NASP",
    "State": "Telangana",
    "SubRegionCode": "NASP",
    "VenueAddress": "Narsampet Main Road, Opposite State Bank Of India, Near Mee Seva Center, Narsampet, Telangana 506132, India",
    "VenueCode": "JTNP",
    "VenueName": "Jayasri Talkies: Narsampet"
  },
  "JTSB": {
    "AvailableFormats": "2D",
    "City": "Sathupally",
    "Latitude": "17.2113",
    "Longitude": "80.8334",
    "RegionCode": "SATH",
    "State": "Telangana",
    "SubRegionCode": "SATH",
    "VenueAddress": "Sathupally Main Road, Near State Bank of India, Sathupally, Telangana 507303, India",
    "VenueCode": "JTSB",
    "VenueName": "Sri Balaji Theater A/C Dts: Sathupally"
  },
  "JTTS": {
    "AvailableFormats": "2D",
    "City": "Sangareddy",
    "Latitude": "17.6148",
    "Longitude": "78.0788",
    "RegionCode": "SARE",
    "State": "Telangana",
    "SubRegionCode": "SARE",
    "VenueAddress": "2, Rajampet Road, Veerabhadranagar, Ahmed Nagar, Near Income Tax Office, Sangareddy, Telangana 502001, India",
    "VenueCode": "JTTS",
    "VenueName": "Rukmini Theatre: Sangareddy"
  },
  "JVTB": {
    "AvailableFormats": "2D",
    "City": "Bodinayakanur",
    "Latitude": "10.01",
    "Longitude": "77.3497",
    "RegionCode": "BODI",
    "State": "Tamil Nadu",
    "SubRegionCode": "BODI",
    "VenueAddress": "Ammankulam, Subanchetty Street, Near Pandyan Grama Bank, Bodinayakanur, Tamil Nadu 625513, India",
    "VenueCode": "JVTB",
    "VenueName": "Theatre Jivan: Bodi"
  },
  "KACI": {
    "AvailableFormats": "2D",
    "City": "Balurghat",
    "Latitude": "25.2256",
    "Longitude": "88.7754",
    "RegionCode": "BALU",
    "State": "West Bengal",
    "SubRegionCode": "BALU",
    "VenueAddress": "Chakbhabani, Near Head Post Office, Balurghat, West Bengal 733101, India",
    "VenueCode": "KACI",
    "VenueName": "Kalyani Balurghat(LaserProjector,5.1Digital Sound)"
  },
  "KASR": {
    "AvailableFormats": "2D",
    "City": "Sarni",
    "Latitude": "22.1044",
    "Longitude": "78.1665",
    "RegionCode": "SARN",
    "State": "Madhya Pradesh",
    "SubRegionCode": "SARN",
    "VenueAddress": "Near Nagar Palika, Sarni, Near Sami Bus Stand, Sarni, Madhya Pradesh 460447, India",
    "VenueCode": "KASR",
    "VenueName": "Kantishiva Cinemas: Sarni"
  },
  "KCAM": {
    "AvailableFormats": "",
    "City": "Nakodar",
    "FirstTracked": "2026-07-14",
    "Latitude": "31.119658",
    "Longitude": "75.509544",
    "RegionCode": "NAKO",
    "State": "Punjab",
    "SubRegionCode": "NAKO",
    "VenueAddress": "MDR48, Krishan Nagar, Nakodar - Nurmahal Road, Nakodar, Punjab 144040, India",
    "VenueCode": "KCAM",
    "VenueName": "KC Cineplex: Nakodar"
  },
  "KCMA": {
    "AvailableFormats": "2D|3D",
    "City": "Mumbai",
    "Latitude": "19.1879",
    "Longitude": "72.8475",
    "RegionCode": "MUMBAI",
    "State": "Maharashtra",
    "SubRegionCode": "MWEST",
    "VenueAddress": "Above Vasant Plaza Shopping Centre, Station Road, Opposite Natraj Market, Malad West, Mumbai, Maharashtra 400064, India",
    "VenueCode": "KCMA",
    "VenueName": "Kasturba Cinema (Newly Renovated): Malad"
  },
  "KCSR": {
    "AvailableFormats": "2D",
    "City": "Shrirampur",
    "Latitude": "19.6165",
    "Longitude": "74.6566",
    "RegionCode": "SHUR",
    "State": "Maharashtra",
    "SubRegionCode": "SHUR",
    "VenueAddress": "Kishor Cineplex, Shivaji Road, Shrirampur, Maharashtra 413709, India",
    "VenueCode": "KCSR",
    "VenueName": "Kishor Cineplex: Shrirampur"
  },
  "KDDF": {
    "AvailableFormats": "",
    "City": "Farrukhabad",
    "FirstTracked": "2026-07-14",
    "Latitude": "27.38537",
    "Longitude": "79.57575",
    "RegionCode": "FARU",
    "State": "Uttar Pradesh",
    "SubRegionCode": "FARU",
    "VenueAddress": "Rajeev Gandhi Nagar Road, Opposite to Entrance of Colony, Devrampur, Farrukhabad, Uttar Pradesh 209625, India",
    "VenueCode": "KDDF",
    "VenueName": "Krishna DD Cinema: Farrukhabad"
  },
  "KICM": {
    "AvailableFormats": "",
    "City": "Vizag",
    "FirstTracked": "2026-07-14",
    "Latitude": "17.73531",
    "Longitude": "83.31751",
    "RegionCode": "SABB",
    "State": "Andhra Pradesh",
    "SubRegionCode": "SABB",
    "VenueAddress": "D.No. 53-23-23, Beside Maddilapalem Bus Depot, Visakhapatnam, Vizag, Andhra Pradesh 530013, India",
    "VenueCode": "KICM",
    "VenueName": "Kinnera AC Laser 4K Projection 7.1Ultrasound:Vizag"
  },
  "KKMT": {
    "AvailableFormats": "2D",
    "City": "Navi Mumbai",
    "Latitude": "19.0124",
    "Longitude": "73.0897",
    "RegionCode": "MUMBAI",
    "State": "Maharashtra",
    "SubRegionCode": "THAN",
    "VenueAddress": "Shop No.01, Bhoomi Harmony, Plot No. 82, Sec-18, Kamothe, Panvel, Navi Mumbai, Maharashtra 410209, India",
    "VenueCode": "KKMT",
    "VenueName": "K.K. Cinema: Kamothe"
  },
  "KLRT": {
    "AvailableFormats": "2D",
    "City": "Palakkad",
    "Latitude": "10.7001",
    "Longitude": "76.7378",
    "RegionCode": "PLKK",
    "State": "Kerala",
    "SubRegionCode": "PLKK",
    "VenueAddress": "State Highway 25, Anikode, Chittur, Thathamangalam, Near Muthoottu Mini Financiers Ltd, Palakkad, Kerala 678101, India",
    "VenueCode": "KLRT",
    "VenueName": "Kairali Sree Theatre: Chittur"
  },
  "KMRM": {
    "AvailableFormats": "2D",
    "City": "Chennai",
    "Latitude": "12.9718",
    "Longitude": "80.1922",
    "RegionCode": "CHEN",
    "State": "Tamil Nadu",
    "SubRegionCode": "CHEN",
    "VenueAddress": "No 364, Mount - Madipakkam Road, Ullagaram, Puzhuthivakkam, Opposite to Muthoot Finance, Chennai, Tamil Nadu 600091, India",
    "VenueCode": "KMRM",
    "VenueName": "Kumaran Theatre PROVA 4K DOLBY ATMOS: Madipakkam"
  },
  "KPPB": {
    "AvailableFormats": "2D",
    "City": "Bahraich",
    "Latitude": "27.5715",
    "Longitude": "81.6027",
    "RegionCode": "BHRH",
    "State": "Uttar Pradesh",
    "SubRegionCode": "BHRH",
    "VenueAddress": "Kanoon Go Pura South, Brahmnipura, Near Disha Complex, Bahraich, Uttar Pradesh 271801, India",
    "VenueCode": "KPPB",
    "VenueName": "K Cinemas: Bahraich"
  },
  "KRIH": {
    "AvailableFormats": "2D",
    "City": "Rajnandgaon",
    "Latitude": "21.0942",
    "Longitude": "81.034",
    "RegionCode": "RAJA",
    "State": "Chhattisgarh",
    "SubRegionCode": "RAJA",
    "VenueAddress": "Cinema Lane, Near Manav Mandir Chowk, Rajnandgaon, Chhattisgarh 491441, India",
    "VenueCode": "KRIH",
    "VenueName": "Krishna Talkies: Rajnandgaon"
  },
  "KRVM": {
    "AvailableFormats": "2D",
    "City": "Kottayi",
    "Latitude": "10.7651",
    "Longitude": "76.5441",
    "RegionCode": "PLKK",
    "State": "Kerala",
    "SubRegionCode": "PLKK",
    "VenueAddress": "Mankara-Palakkad Road, Ayyappankaavu, Kottayi, Kerala 678572, India",
    "VenueCode": "KRVM",
    "VenueName": "KRV Movies: Kottayi"
  },
  "KSNT": {
    "AvailableFormats": "2D",
    "City": "Trivandrum",
    "Latitude": "8.48888",
    "Longitude": "76.9532",
    "RegionCode": "TRIV",
    "State": "Kerala",
    "SubRegionCode": "TRIV",
    "VenueAddress": "Aristo Junction, Thampanoor, Near Hotel Galaxy Park, Trivandrum, Kerala 695014, India",
    "VenueCode": "KSNT",
    "VenueName": "Kairali Sree Nila RGB Laser 4K Dolby Atmos"
  },
  "KTBH": {
    "AvailableFormats": "2D",
    "City": "Bhubaneswar",
    "Latitude": "20.2752",
    "Longitude": "85.8349",
    "RegionCode": "JATN",
    "State": "Odisha",
    "SubRegionCode": "JATN",
    "VenueAddress": "98, Unit-3, Sachivalaya Marg, OPTCL Colony, Anand Bazar, Kharbela Nagar, Bhubaneswar, Odisha 751001, India",
    "VenueCode": "KTBH",
    "VenueName": "Keshari Talkies (BARCO 4K LASER DOLBY ATMOS)"
  },
  "KTMV": {
    "AvailableFormats": "2D",
    "City": "Mumbai",
    "Latitude": "19.3785",
    "Longitude": "72.8287",
    "RegionCode": "MUMBAI",
    "State": "Maharashtra",
    "SubRegionCode": "MWEST",
    "VenueAddress": "Navghar Road, Anand Nagar, Opposite.West Panchal Nagar Walkway, Vasai West, Mumbai, Maharashtra 401202, India",
    "VenueCode": "KTMV",
    "VenueName": "KT Vision Cinema: Vasai (Screens)"
  },
  "KYBO": {
    "AvailableFormats": "",
    "City": "Bommidi",
    "FirstTracked": "2026-07-14",
    "Latitude": "11.979077",
    "Longitude": "78.251305",
    "RegionCode": "BOMM",
    "State": "Tamil Nadu",
    "SubRegionCode": "BOMM",
    "VenueAddress": "Bommudi Pappiredipatti Road, Near Raja Hospital, Bommidi, Tamil Nadu 635301, India",
    "VenueCode": "KYBO",
    "VenueName": "Kavitha Theatre: Bommidi"
  },
  "LALC": {
    "AvailableFormats": "2D",
    "City": "Jagraon",
    "Latitude": "30.8111",
    "Longitude": "75.4725",
    "RegionCode": "JGRO",
    "State": "Punjab",
    "SubRegionCode": "JGRO",
    "VenueAddress": "Moga Road, Kothe Fateh Din De, Jagraon, Punjab 142026, India",
    "VenueCode": "LALC",
    "VenueName": "Lal Palace Cineplex: Jagraon"
  },
  "LCBK": {
    "AvailableFormats": "2D",
    "City": "Kolkata",
    "Latitude": "22.7273",
    "Longitude": "88.48",
    "RegionCode": "BSRT",
    "State": "West Bengal",
    "SubRegionCode": "BSRT",
    "VenueAddress": "Krishnanagar Road, Norpara Halabot Tala, Barasat, Opposite Union Bank Of India Barasat Branch, Kolkata, West Bengal 700125, India",
    "VenueCode": "LCBK",
    "VenueName": "Lali Cinema: Barasat"
  },
  "LCSO": {
    "AvailableFormats": "2D",
    "City": "Ottapalam",
    "Latitude": "10.7734",
    "Longitude": "76.4259",
    "RegionCode": "PLKK",
    "State": "Kerala",
    "SubRegionCode": "PLKK",
    "VenueAddress": "Ponnani Road, Lakkidi Koottupatha, Ottapalam, Kerala 679301, India",
    "VenueCode": "LCSO",
    "VenueName": "Ladder Cinemas: Ottapalam - 4k Dolby Atmos/2k 7.1"
  },
  "LICL": {
    "AvailableFormats": "2D",
    "City": "Kolkata",
    "Latitude": "22.3431",
    "Longitude": "88.4554",
    "RegionCode": "KOLK",
    "State": "West Bengal",
    "SubRegionCode": "KOLK",
    "VenueAddress": "Baruipur - Champahati - Ghatakpukur Road, Phooltala Gate No.2, West Road South Par, Santoshpur, Baruipur - Canning Road, Kolkata, West Bengal 743387, India",
    "VenueCode": "LICL",
    "VenueName": "Lila Cinema: Baruipur"
  },
  "LKRT": {
    "AvailableFormats": "2D",
    "City": "Korutla",
    "Latitude": "18.8266",
    "Longitude": "78.7124",
    "RegionCode": "KCKA",
    "State": "Telangana",
    "SubRegionCode": "KCKA",
    "VenueAddress": "Indira Road, Raheempura, Korutla, Telangana 505326, India",
    "VenueCode": "LKRT",
    "VenueName": "Laxmi AC Deluxe Theatre: Korutla"
  },
  "LMCK": {
    "AvailableFormats": "2D",
    "City": "Kodungallur",
    "Latitude": "10.221",
    "Longitude": "76.2011",
    "RegionCode": "KODU",
    "State": "Kerala",
    "SubRegionCode": "KODU",
    "VenueAddress": "National Highway 66, Padakulam, Sringapuram, Kodungallur, Kerala 680664, India",
    "VenueCode": "LMCK",
    "VenueName": "LAKSHMI CINEMAS 4K LASER DOLBY ATMOS: KODUNGALLUR"
  },
  "LRCM": {
    "AvailableFormats": "2D",
    "City": "Manjeri",
    "Latitude": "11.1204",
    "Longitude": "76.1159",
    "RegionCode": "MAJR",
    "State": "Kerala",
    "SubRegionCode": "MAJR",
    "VenueAddress": "Indian Mall Road, Karuvambram, Manjeri, Kerala 676121, India",
    "VenueCode": "LRCM",
    "VenueName": "Ladder Cinemas: Manjeri"
  },
  "LTVB": {
    "AvailableFormats": "2D",
    "City": "Vijayapura (Bijapur)",
    "Latitude": "16.8284",
    "Longitude": "75.7165",
    "RegionCode": "VJPR",
    "State": "Karnataka",
    "SubRegionCode": "VJPR",
    "VenueAddress": "Godbole Mala, M. G. Road, Near Gandhi Chowk Police Station, Opposite Axis Bank, Vijayapura (Bijapur), Karnataka 586101, India",
    "VenueCode": "LTVB",
    "VenueName": "Sri Lakshmi Theatre: Vijayapura (Bijapur)"
  },
  "M2PP": {
    "AvailableFormats": "2D",
    "City": "Delhi",
    "Latitude": "28.6895",
    "Longitude": "77.1334",
    "RegionCode": "NCR",
    "State": "NCR",
    "SubRegionCode": "DELHI",
    "VenueAddress": "4 Community Centre, Road No. 44, Opposite Punjab National Bank, Delhi, NCR 110088, India",
    "VenueCode": "M2PP",
    "VenueName": "M2K: Pitampura"
  },
  "MACE": {
    "AvailableFormats": "3D|2D",
    "City": "Mumbai",
    "Latitude": "19.1655",
    "Longitude": "72.8512",
    "RegionCode": "MUMBAI",
    "State": "Maharashtra",
    "SubRegionCode": "MWEST",
    "VenueAddress": "Station Road, Goregaon East, Near Railway Station, Peru Baug, Jay Prakash Nagar, Mumbai, Maharashtra 400063, India",
    "VenueCode": "MACE",
    "VenueName": "Miraj Anupam Cinemas: Goregaon (E)"
  },
  "MAGX": {
    "AvailableFormats": "7D",
    "City": "Ghaziabad",
    "Latitude": "28.634",
    "Longitude": "77.3703",
    "RegionCode": "NCR",
    "State": "NCR",
    "SubRegionCode": "GHAZ",
    "VenueAddress": "2nd Floor, Shipra Mall, Plot No. 9, Vaibhav Land, Inirapuram, Ghaziabad, NCR 201014, India",
    "VenueCode": "MAGX",
    "VenueName": "7D Masti: Shipra Mall, Ghaziabad"
  },
  "MALO": {
    "AvailableFormats": "",
    "City": "Ludhiana",
    "FirstTracked": "2026-07-14",
    "Latitude": "30.885687",
    "Longitude": "75.788345",
    "RegionCode": "LUDH",
    "State": "Punjab",
    "SubRegionCode": "LUDH",
    "VenueAddress": "Second Floor,34 to 57, Wave Mall, Plot No. 2 and 3, Firozpur Road, Ludhiana, Punjab 141012, India",
    "VenueCode": "MALO",
    "VenueName": "7D Masti: Wave Mall, Ludhiana"
  },
  "MATE": {
    "AvailableFormats": "2D",
    "City": "Kallakurichi",
    "Latitude": "11.735",
    "Longitude": "78.9649",
    "RegionCode": "KALL",
    "State": "Tamil Nadu",
    "SubRegionCode": "KALL",
    "VenueAddress": "17J,Chidambaram Pillai St, Raja Nagar,Kallakurichi, Near Hotel SR Park, Kallakurichi, Tamil Nadu 606202, India",
    "VenueCode": "MATE",
    "VenueName": "Mahalakshmi Cinemas Dolby Atmos 4K Barco RGB Laser"
  },
  "MAYU": {
    "AvailableFormats": "",
    "City": "Kota",
    "FirstTracked": "2026-07-14",
    "Latitude": "25.191599",
    "Longitude": "75.850395",
    "RegionCode": "KOTA",
    "State": "Rajasthan",
    "SubRegionCode": "KOTA",
    "VenueAddress": "MDR7, Chatra Vilas Garden, Nayapura Circle, Nayapura, Kota, Rajasthan 324001, India",
    "VenueCode": "MAYU",
    "VenueName": "Mayur Cinema: Kota"
  },
  "MBSX": {
    "AvailableFormats": "",
    "City": "Ahmedabad",
    "Latitude": "22.9575",
    "Longitude": "72.6555",
    "RegionCode": "AHD",
    "State": "Gujarat",
    "SubRegionCode": "AHD",
    "VenueAddress": "5th Floor, C Block Shalin Square, SP Ring Road Vinzol, Hathijan Circle, Opposite Viva Farm, Ahmedabad, Gujarat 382445, India",
    "VenueCode": "MBSX",
    "VenueName": "Miraj Cinemas: Shalin Square, Hathijan"
  },
  "MCBS": {
    "AvailableFormats": "",
    "City": "Sikar",
    "FirstTracked": "2026-07-14",
    "Latitude": "27.600943",
    "Longitude": "75.14577",
    "RegionCode": "SIKR",
    "State": "Rajasthan",
    "SubRegionCode": "SIKR",
    "VenueAddress": "Rajasthan State Highway 8A, Dhodh, Rani Sati Road, Mahaveer Rodi Factory, Sikar, Rajasthan 332001, India",
    "VenueCode": "MCBS",
    "VenueName": "Miraj Bioscope Cinemas: Sikar"
  },
  "MCDV": {
    "AvailableFormats": "2D",
    "City": "Vizag (Visakhapatnam)",
    "Latitude": "17.6853",
    "Longitude": "83.2087",
    "RegionCode": "VIZA",
    "State": "Andhra Pradesh",
    "SubRegionCode": "VIZA",
    "VenueAddress": "Indira Colony, Gajuwaka, Near Alif Family Restaurant, Vizag (Visakhapatnam), Andhra Pradesh 500026, India",
    "VenueCode": "MCDV",
    "VenueName": "Mohini Cinemas Dolby Atmos: Gajuwaka"
  },
  "MCGR": {
    "AvailableFormats": "",
    "City": "Gurdaspur",
    "FirstTracked": "2026-07-14",
    "Latitude": "32.037926",
    "Longitude": "75.4062",
    "RegionCode": "GSPR",
    "State": "Punjab",
    "SubRegionCode": "GSPR",
    "VenueAddress": "AGM Mall, Tibri Road, Hanuman Chownk, Gurdaspur, Punjab 143521, India",
    "VenueCode": "MCGR",
    "VenueName": "Miraj Cinema: Gurdaspur"
  },
  "MCIX": {
    "AvailableFormats": "",
    "City": "Greater Noida",
    "FirstTracked": "2026-07-14",
    "Latitude": "28.4574",
    "Longitude": "77.4993",
    "RegionCode": "NCR",
    "State": "NCR",
    "SubRegionCode": "GRET",
    "VenueAddress": "Plot No. C-03, 04, Knowledge Park -II, Greater Noida, Greater Noida, NCR 201310, India",
    "VenueCode": "MCIX",
    "VenueName": "Miraj Cinemas: India Expo Plaza (Newly Opened)"
  },
  "MCMC": {
    "AvailableFormats": "2D",
    "City": "Singrauli",
    "Latitude": "24.0651",
    "Longitude": "82.6302",
    "RegionCode": "SNGR",
    "State": "Madhya Pradesh",
    "SubRegionCode": "SNGR",
    "VenueAddress": "Near Masjid Square, Talkies Road, Waidhan, Singrauli, Madhya Pradesh 486886, India",
    "VenueCode": "MCMC",
    "VenueName": "MCM Cineplex: Waidhan"
  },
  "MCPB": {
    "AvailableFormats": "2D|3D",
    "City": "Behror",
    "Latitude": "27.8948",
    "Longitude": "76.2976",
    "RegionCode": "BEHR",
    "State": "Rajasthan",
    "SubRegionCode": "BEHR",
    "VenueAddress": "Parv Plaza, 5th Floor, A-15 B1, Phase 1, Riico Industrial Area, Behror, Rajasthan 301701, India",
    "VenueCode": "MCPB",
    "VenueName": "Mukta A2 Cinemas: Parv Plaza, Behror"
  },
  "MCSK": {
    "AvailableFormats": "",
    "City": "Chennai",
    "Latitude": "12.9059",
    "Longitude": "80.2092",
    "RegionCode": "CHEN",
    "State": "Tamil Nadu",
    "SubRegionCode": "CHEN",
    "VenueAddress": "Sekaran Mall, 4th and 5th Floor, Survey No.452(3), Village Perumbakkam, Taluk Sholinganallur, Kancheepuram, Chennai, Tamil Nadu 600100, India",
    "VenueCode": "MCSK",
    "VenueName": "Miraj Cinemas: Sekaran Mall, Perrumbakkam"
  },
  "MCTG": {
    "AvailableFormats": "3D|2D",
    "City": "Mumbai",
    "Latitude": "19.1655",
    "Longitude": "72.8429",
    "RegionCode": "MUMBAI",
    "State": "Maharashtra",
    "SubRegionCode": "MWEST",
    "VenueAddress": "2nd Floor, Topiwala Center, Topiwala Lane, Near Goregaon Station (West), Mumbai, Maharashtra 400062, India",
    "VenueCode": "MCTG",
    "VenueName": "Topiwala Mukta A2 Cinemas, Goregaon"
  },
  "MDCA": {
    "AvailableFormats": "",
    "City": "Anjar",
    "FirstTracked": "2026-07-14",
    "Latitude": "23.101",
    "Longitude": "70.0353",
    "RegionCode": "ANJR",
    "State": "Gujarat",
    "SubRegionCode": "ANJR",
    "VenueAddress": "Chitrakut Circle, Vaishali Enclave, Anjar, Gujarat 370110, India",
    "VenueCode": "MDCA",
    "VenueName": "Modern Cineplex: Anjar"
  },
  "MDVA": {
    "AvailableFormats": "2D|3D",
    "City": "Mumbai",
    "Latitude": "19.3605",
    "Longitude": "72.8123",
    "RegionCode": "MUMBAI",
    "State": "Maharashtra",
    "SubRegionCode": "MWEST",
    "VenueAddress": "3rd Floor Dattani Square Mall, Stella Road, Vasai Road West, Near Papdy Talao And D Mart, Mumbai, Maharashtra 401202, India",
    "VenueCode": "MDVA",
    "VenueName": "Miraj Dattani Cinemas: Vasai"
  },
  "MEMR": {
    "AvailableFormats": "2D",
    "City": "Muzaffarnagar",
    "Latitude": "29.4865",
    "Longitude": "77.6966",
    "RegionCode": "MUZ",
    "State": "Uttar Pradesh",
    "SubRegionCode": "MUZ",
    "VenueAddress": "498, Opp Saharanpur Bus Stand, GT Road, Rampuri, Roorkee Road, Near Bajaj Agency, Muzaffarnagar, Uttar Pradesh 251001, India",
    "VenueCode": "MEMR",
    "VenueName": "Maya Multiplex: Muzaffarnagar"
  },
  "MGMD": {
    "AvailableFormats": "",
    "City": "Dhuri",
    "FirstTracked": "2026-07-14",
    "Latitude": "30.364855",
    "Longitude": "75.859245",
    "RegionCode": "DHRI",
    "State": "Punjab",
    "SubRegionCode": "DHRI",
    "VenueAddress": "Sangrur Road, Ward No 15B, Near Civil Hospital, Dhuri, Punjab 148024, India",
    "VenueCode": "MGMD",
    "VenueName": "Miraj Cinemas: Dhuri"
  },
  "MIDA": {
    "AvailableFormats": "7D",
    "City": "Greater Noida",
    "Latitude": "28.4529",
    "Longitude": "77.526",
    "RegionCode": "NCR",
    "State": "NCR",
    "SubRegionCode": "GRET",
    "VenueAddress": "Grand Venice Mall, 2nd Floor, SH 3, Site IV, Greater Noida, NCR 201308, India",
    "VenueCode": "MIDA",
    "VenueName": "7D Masti: The Grand Venice Mall, Greater Noida"
  },
  "MITD": {
    "AvailableFormats": "2D|3D",
    "City": "Nathdwara",
    "Latitude": "24.9166",
    "Longitude": "73.8238",
    "RegionCode": "NATW",
    "State": "Rajasthan",
    "SubRegionCode": "NATW",
    "VenueAddress": "5th Floor, Miraj Meridian Mall, Nathuwas Road, NH 8, Near Vallabh Ashram, Nathdwara, Rajasthan 313301, India",
    "VenueCode": "MITD",
    "VenueName": "Miraj Cinemas: Nathdwara"
  },
  "MKBG": {
    "AvailableFormats": "2D",
    "City": "Bengaluru",
    "Latitude": "13.0036",
    "Longitude": "77.6362",
    "RegionCode": "HOKT",
    "State": "Karnataka",
    "SubRegionCode": "HOKT",
    "VenueAddress": "No.30, Banaswadi Main Road, Marutiseva Nagar, Bengaluru, Karnataka 560033, India",
    "VenueCode": "MKBG",
    "VenueName": "Mukunda 4K Dolby Atmos: M.S.Nagar"
  },
  "MKSM": {
    "AvailableFormats": "2D|3D",
    "City": "Rajahmundry",
    "Latitude": "16.9508",
    "Longitude": "81.7829",
    "RegionCode": "RJMU",
    "State": "Andhra Pradesh",
    "SubRegionCode": "RJMU",
    "VenueAddress": "SH 41, VGTPS Colony, Near Dowlaiswaram Bus Stand, Rajahmundry, Andhra Pradesh 533125, India",
    "VenueCode": "MKSM",
    "VenueName": "Muralikrishna Cinema A/C 4K 3D: Dowlaiswaram"
  },
  "MMAA": {
    "AvailableFormats": "2D",
    "City": "Mumbai",
    "Latitude": "19.1165",
    "Longitude": "72.8565",
    "RegionCode": "MUMBAI",
    "State": "Maharashtra",
    "SubRegionCode": "MWEST",
    "VenueAddress": "MovieMax, Andheri-Kurla Road, Andheri(E), Behind Gurunanak Petrol Pump, Mumbai, Maharashtra 400059, India",
    "VenueCode": "MMAA",
    "VenueName": "MovieMax: Andheri (E)"
  },
  "MMEF": {
    "AvailableFormats": "2D",
    "City": "Jamnagar",
    "Latitude": "22.462",
    "Longitude": "70.0369",
    "RegionCode": "JAM",
    "State": "Gujarat",
    "SubRegionCode": "JAM",
    "VenueAddress": "15, Street No.4, Shivam Park, Ajanta Society, Near - Hotel Vishal International, Jamnagar, Gujarat 361006, India",
    "VenueCode": "MMEF",
    "VenueName": "Mehul Cinemax: Jamnagar"
  },
  "MMMD": {
    "AvailableFormats": "2D",
    "City": "Etawah",
    "Latitude": "26.7847",
    "Longitude": "79.0212",
    "RegionCode": "ETWH",
    "State": "Uttar Pradesh",
    "SubRegionCode": "ETWH",
    "VenueAddress": "Baba The Mall, Shastri Chauraha, Chogurjee Nagar, Near Hydel Colony, Etawah, Uttar Pradesh 206001, India",
    "VenueCode": "MMMD",
    "VenueName": "Mad Moviez: Etawah"
  },
  "MMSG": {
    "AvailableFormats": "3D|2D",
    "City": "Lucknow",
    "Latitude": "26.8194",
    "Longitude": "80.9072",
    "RegionCode": "LUCK",
    "State": "Uttar Pradesh",
    "SubRegionCode": "LUCK",
    "VenueAddress": "Shalimar Gateway Mall, Bus Stand, Alambagh, Near Alambagh, Railway Colony, Lucknow, Uttar Pradesh 226005, India",
    "VenueCode": "MMSG",
    "VenueName": "MovieMax: Shalimar Gateway"
  },
  "MMXA": {
    "AvailableFormats": "3D|2D",
    "City": "Pune",
    "Latitude": "18.5189",
    "Longitude": "73.9357",
    "RegionCode": "PUNE",
    "State": "Maharashtra",
    "SubRegionCode": "PUNE",
    "VenueAddress": "MovieMax, Amanora Town Centre, Amanora Park Town, Hadapsar, Pune, Maharashtra 411028, India",
    "VenueCode": "MMXA",
    "VenueName": "MovieMax Edition (Luxe): Amanora Town Center, Pune"
  },
  "MNJL": {
    "AvailableFormats": "",
    "City": "Ludhiana",
    "FirstTracked": "2026-07-14",
    "Latitude": "30.8963",
    "Longitude": "75.8665",
    "RegionCode": "LUDH",
    "State": "Punjab",
    "SubRegionCode": "LUDH",
    "VenueAddress": "Dholewal Chowk, G.T. Road, Ludhiana, Punjab 141001, India",
    "VenueCode": "MNJL",
    "VenueName": "Manju Theatre: Ludhiana"
  },
  "MPCH": {
    "AvailableFormats": "2D",
    "City": "Ahmedabad",
    "Latitude": "23.0638",
    "Longitude": "72.6775",
    "RegionCode": "AHD",
    "State": "Gujarat",
    "SubRegionCode": "AHD",
    "VenueAddress": "5th and 6th Floor, Fortune Sky, Fortune Circle, Nikol, Near - Goverdhan Galaxy Bungalows, Ahmedabad, Gujarat 382350, India",
    "VenueCode": "MPCH",
    "VenueName": "Mango Plus Cinemas: Nikol"
  },
  "MRCH": {
    "AvailableFormats": "2D",
    "City": "Haridwar",
    "Latitude": "29.9188",
    "Longitude": "78.0578",
    "RegionCode": "HRDR",
    "State": "Uttarakhand",
    "SubRegionCode": "HRDR",
    "VenueAddress": "3rd Floor, Raghunath City Mall, Bahadrabad, Haridwar, Uttarakhand 249402, India",
    "VenueCode": "MRCH",
    "VenueName": "Movietime Cinemas: Raghunath City Mall, Haridwar"
  },
  "MRRC": {
    "AvailableFormats": "",
    "City": "Raichur",
    "FirstTracked": "2026-07-14",
    "Latitude": "16.211191",
    "Longitude": "77.35692",
    "RegionCode": "RAUR",
    "State": "Karnataka",
    "SubRegionCode": "RAUR",
    "VenueAddress": "Miraj Cinemas, MPL No. 12-104 and 12-10-5, Situated at Siya Talab, Gunj Road, Raichur, Karnataka 584102, India",
    "VenueCode": "MRRC",
    "VenueName": "Miraj Cinemas: Raichur"
  },
  "MSCJ": {
    "AvailableFormats": "2D",
    "City": "Jajpur Town (Odisha)",
    "Latitude": "20.853",
    "Longitude": "86.3293",
    "RegionCode": "JTTT",
    "State": "Odisha",
    "SubRegionCode": "JTTT",
    "VenueAddress": "Gandhi chhak, Sanskruti Bhawan, Jajpur Town (Odisha), Odisha 755001, India",
    "VenueCode": "MSCJ",
    "VenueName": "Mission Shakti Cinemas: Jajpur Town"
  },
  "MSNL": {
    "AvailableFormats": "2D",
    "City": "Lucknow",
    "Latitude": "26.8819",
    "Longitude": "80.9466",
    "RegionCode": "LUCK",
    "State": "Uttar Pradesh",
    "SubRegionCode": "LUCK",
    "VenueAddress": "Kapoorthalla Commercial Complex, 4, Aliganj, Behind Sahara Towers, Lucknow, Uttar Pradesh 226020, India",
    "VenueCode": "MSNL",
    "VenueName": "Novelty Dolby Atmos 4K: Aliganj"
  },
  "MTCA": {
    "AvailableFormats": "2D|3D",
    "City": "Amritsar",
    "Latitude": "31.6444",
    "Longitude": "74.8771",
    "RegionCode": "AMRI",
    "State": "Punjab",
    "SubRegionCode": "AMRI",
    "VenueAddress": "4th Floor, Omaxe Novelty Mall, 7, Lawrence Road, Joshi Colony, Amritsar, Punjab 143001, India",
    "VenueCode": "MTCA",
    "VenueName": "Movietime Cinemas: Omaxe Novelty Mall, Amritsar"
  },
  "MTHY": {
    "AvailableFormats": "2D",
    "City": "Hyderabad",
    "Latitude": "17.452",
    "Longitude": "78.3628",
    "RegionCode": "HYD",
    "State": "Telangana",
    "SubRegionCode": "HYD",
    "VenueAddress": "3rd Floor, SLN Terminus, Gachibowli - Miyapur Road, Jayabheri Enclave, Hyderabad, Telangana 500032, India",
    "VenueCode": "MTHY",
    "VenueName": "Platinum Movietime Cinema: Gachibowli SLN Terminus"
  },
  "MTMT": {
    "AvailableFormats": "",
    "City": "Madurai",
    "FirstTracked": "2026-07-14",
    "Latitude": "10.0232",
    "Longitude": "77.9631",
    "RegionCode": "MADU",
    "State": "Tamil Nadu",
    "SubRegionCode": "MADU",
    "VenueAddress": "Sangankottai Road, Sholavandan, Near Railway Junction, Madurai, Tamil Nadu 625214, India",
    "VenueCode": "MTMT",
    "VenueName": "MVM MARUDHU MODERN THEATER A/C 2K 3D"
  },
  "MTVT": {
    "AvailableFormats": "2D",
    "City": "Theni",
    "Latitude": "10.0014",
    "Longitude": "77.6283",
    "RegionCode": "THEN",
    "State": "Tamil Nadu",
    "SubRegionCode": "THEN",
    "VenueAddress": "Theni Highway, Kondamanaickanpatty, Theni, Tamil Nadu 624225, India",
    "VenueCode": "MTVT",
    "VenueName": "MSP Theatre(VBL Theatre) A/C 7.1: Andipatti"
  },
  "MUTA": {
    "AvailableFormats": "2D",
    "City": "Azamgarh",
    "Latitude": "26.0749",
    "Longitude": "83.1866",
    "RegionCode": "AZMG",
    "State": "Uttar Pradesh",
    "SubRegionCode": "AZMG",
    "VenueAddress": "City Life Mall, Paharpur, Azamgarh Dohrighat Gorakhpur Road, Near Bhairo Baba Mandir Maharajgang, Azamgarh, Uttar Pradesh 276001, India",
    "VenueCode": "MUTA",
    "VenueName": "Murli DD Cinemas: Azmagarh"
  },
  "MXBN": {
    "AvailableFormats": "2D|3D",
    "City": "Bhavnagar",
    "Latitude": "21.7509",
    "Longitude": "72.1364",
    "RegionCode": "BHNG",
    "State": "Gujarat",
    "SubRegionCode": "BHNG",
    "VenueAddress": "Himalaya Mall, Waghawadi Rd, Nr ISKCON Mega City, Opp Victoria Park, Bhavnagar, Gujarat 364002, India",
    "VenueCode": "MXBN",
    "VenueName": "Maxus Cinemas: Bhavnagar"
  },
  "MYAN": {
    "AvailableFormats": "2D|3D",
    "City": "Ahilyanagar (Ahmednagar)",
    "Latitude": "19.1313",
    "Longitude": "74.7301",
    "RegionCode": "AHMED",
    "State": "Maharashtra",
    "SubRegionCode": "AHMED",
    "VenueAddress": "Pipeline Road, Savedi, Ahilyanagar (Ahmednagar), Maharashtra 414003, India",
    "VenueCode": "MYAN",
    "VenueName": "MY Cinema: Ahilya Nagar"
  },
  "MYHJ": {
    "AvailableFormats": "2D",
    "City": "Karunagapally",
    "Latitude": "9.04943",
    "Longitude": "76.5355",
    "RegionCode": "KARG",
    "State": "Kerala",
    "SubRegionCode": "KARG",
    "VenueAddress": "Level 3, H and J Complex Mall, Lalaji Junction, Kollam, Near Municipal Office, Karunagapally, Kerala 690518, India",
    "VenueCode": "MYHJ",
    "VenueName": "MY Cinemas, H&J Complex: Karunagapally"
  },
  "NAGJ": {
    "AvailableFormats": "2D",
    "City": "jaggampeta",
    "Latitude": "17.1755",
    "Longitude": "82.062",
    "RegionCode": "JAGG",
    "State": "Andhra Pradesh",
    "SubRegionCode": "JAGG",
    "VenueAddress": "East Godavari, Near SBI Atm, jaggampeta, Andhra Pradesh 533435, India",
    "VenueCode": "NAGJ",
    "VenueName": "Nageshwara A/c Dts: Jaggampeta"
  },
  "NCCK": {
    "AvailableFormats": "2D",
    "City": "Naharlagun",
    "Latitude": "27.1088",
    "Longitude": "93.696",
    "RegionCode": "NAHA",
    "State": "Arunachal Pradesh",
    "SubRegionCode": "NAHA",
    "VenueAddress": "NH 52A, Cona, Opposite Moody Monk, Naharlagun, Arunachal Pradesh 791110, India",
    "VenueCode": "NCCK",
    "VenueName": "A National Cinema: Market Area, Naharlagun"
  },
  "NCMB": {
    "AvailableFormats": "2D",
    "City": "Buchireddypalem",
    "Latitude": "14.5346",
    "Longitude": "79.8791",
    "RegionCode": "BCHR",
    "State": "Andhra Pradesh",
    "SubRegionCode": "BCHR",
    "VenueAddress": "Nellore Road, Nagamambapuram, Buchireddypalem, Andhra Pradesh 524305, India",
    "VenueCode": "NCMB",
    "VenueName": "Naaz Cinemas: Buchireddypalem"
  },
  "NECA": {
    "AvailableFormats": "2D",
    "City": "Kolkata",
    "Latitude": "22.5605",
    "Longitude": "88.3515",
    "RegionCode": "KOLK",
    "State": "West Bengal",
    "SubRegionCode": "KOLK",
    "VenueAddress": "1 and 2, Humayun Place, New Market Area, Dharmatala, Taltala, Kolkata, West Bengal 700087, India",
    "VenueCode": "NECA",
    "VenueName": "New Empire Cinema: Kolkata"
  },
  "NGHK": {
    "AvailableFormats": "",
    "City": "Kesinga",
    "FirstTracked": "2026-07-14",
    "Latitude": "20.19338",
    "Longitude": "83.22572",
    "RegionCode": "KEGA",
    "State": "Odisha",
    "SubRegionCode": "KEGA",
    "VenueAddress": "National Highway 201, Near Balangir Chowk, Kesinga, Odisha 766012, India",
    "VenueCode": "NGHK",
    "VenueName": "New Galaxy Theater: Kesinga"
  },
  "NLJR": {
    "AvailableFormats": "2D",
    "City": "Nallajerla",
    "Latitude": "16.9555",
    "Longitude": "81.4172",
    "RegionCode": "TADP",
    "State": "Andhra Pradesh",
    "SubRegionCode": "TADP",
    "VenueAddress": "Rajahmundry - Bhadrachalam Highway, Opp to Buchalupond, Nallajerla, Andhra Pradesh 534111, India",
    "VenueCode": "NLJR",
    "VenueName": "Sri Lakshmi Multiplex (Nova Cinemaz): Nallajerla"
  },
  "NMXS": {
    "AvailableFormats": "2D",
    "City": "Silvassa",
    "Latitude": "20.2751",
    "Longitude": "73.0098",
    "RegionCode": "SILV",
    "State": "Gujarat",
    "SubRegionCode": "SILV",
    "VenueAddress": "Plot No. 2, Sr. No. 876/1/1/3, Bavisa Falia, Near Shree Sai Mobile Shop, Silvassa, Gujarat 396230, India",
    "VenueCode": "NMXS",
    "VenueName": "New Max Cinema: Silvassa"
  },
  "NPCS": {
    "AvailableFormats": "",
    "City": "Sangli",
    "FirstTracked": "2026-07-14",
    "Latitude": "16.868156",
    "Longitude": "74.57406",
    "RegionCode": "ASMA",
    "State": "Maharashtra",
    "SubRegionCode": "ASMA",
    "VenueAddress": "117/2A, New Pride Multiplex, Behind Circuit House, Madhavnagar Road, Sangli, Maharashtra 416416, India",
    "VenueCode": "NPCS",
    "VenueName": "New Pride Multiplex: Sangli (Newly Renovated)"
  },