{
  "AACS": {
    "AvailableFormats": "",
    "City": "Salem",
    "FirstTracked": "2026-07-14",
    "Latitude": "11.6699",
    "Longitude": "78.0181",
    "RegionCode": "SALM",
    "State": "Tamil Nadu",
    "SubRegionCode": "SALM",
    "VenueAddress": "Ranganathan Nagar, Alagusamudram, Salem, Tamil Nadu 636013, India",
    "VenueCode": "AACS",
    "VenueName": "Amman Arangham Cinemas A/C Dolby: Alagusamuthiram"
  },
  "AAPW": {
    "AvailableFormats": "2D",
    "City": "Warangal",
    "Latitude": "18.0077",
    "Longitude": "79.567",
    "RegionCode": "WAR",
    "State": "Telangana",
    "SubRegionCode": "WAR",
    "VenueAddress": "Ashoka A plex, Beside Warangal Hyderabad Highway, Near Govt Juniour College, Warangal, Telangana 506001, India",
    "VenueCode": "AAPW",
    "VenueName": "Asian Ashoka Air-Conditioned: Hanumakonda"
  },
  "ABCR": {
    "AvailableFormats": "",
    "City": "Vijayawada",
    "FirstTracked": "2026-07-14",
    "Latitude": "16.4859",
    "Longitude": "80.6828",
    "RegionCode": "VIJA",
    "State": "Andhra Pradesh",
    "SubRegionCode": "VIJA",
    "VenueAddress": "Elevate Mall, Pune-Machilipatnam Highway, Kanuru, Vijayawada, Andhra Pradesh 520007, India",
    "VenueCode": "ABCR",
    "VenueName": "ABR Cinemas Neo Screen X:  Kanuru, Vijayawada"
  },
  "ABTK": {
    "AvailableFormats": "",
    "City": "Kottayam",
    "Latitude": "9.58599",
    "Longitude": "76.5244",
    "RegionCode": "ETTU",
    "State": "Kerala",
    "SubRegionCode": "ETTU",
    "VenueAddress": "M.C Road, Opp Kalyan Jewellery, Near Asha Theatre, Kottayam, Kerala 686001, India",
    "VenueCode": "ABTK",
    "VenueName": "Abhilash Theatre 4K RGB Laser 3D: Kottayam"
  },
  "ACCD": {
    "AvailableFormats": "2D",
    "City": "Deoria",
    "Latitude": "26.2107",
    "Longitude": "83.9653",
    "RegionCode": "DEEO",
    "State": "Uttar Pradesh",
    "SubRegionCode": "DEEO",
    "VenueAddress": "Mod, Beside Union Bank Of India, Lakhu, Lar, Deoria, Uttar Pradesh 274502, India",
    "VenueCode": "ACCD",
    "VenueName": "Aura Cineplex: Lar, Deoria"
  },
  "ACHV": {
    "AvailableFormats": "2D",
    "City": "Vijayawada",
    "Latitude": "16.5133",
    "Longitude": "80.6259",
    "RegionCode": "VIJA",
    "State": "Andhra Pradesh",
    "SubRegionCode": "VIJA",
    "VenueAddress": "Governor Peta, Eluru Road, Opposite Swarna Mutiplex, Vijayawada, Andhra Pradesh 520002, India",
    "VenueCode": "ACHV",
    "VenueName": "Apsara Cinema House: Vijayawada"
  },
  "ACKR": {
    "AvailableFormats": "2D",
    "City": "Karukachal",
    "Latitude": "9.50297",
    "Longitude": "76.64363",
    "RegionCode": "KAKC",
    "State": "Kerala",
    "SubRegionCode": "KAKC",
    "VenueAddress": "Karukachal Manimala Road, Neriyani Poika, Karukachal, Kerala 686540, India",
    "VenueCode": "ACKR",
    "VenueName": "Anchani Cinemas 4k RGB LASER ATMOS: Karukachal"
  },
  "ACNL": {
    "AvailableFormats": "2D",
    "City": "Nilanga",
    "Latitude": "18.1276",
    "Longitude": "76.7493",
    "RegionCode": "NLNG",
    "State": "Maharashtra",
    "SubRegionCode": "NLNG",
    "VenueAddress": "Nilanga Main Road, Opposite Nilanga Bus Stop, Nilanga, Maharashtra 413521, India",
    "VenueCode": "ACNL",
    "VenueName": "Ajanta Cineplex: Nilanga, Latur"
  },
  "ACSK": {
    "AvailableFormats": "2D",
    "City": "Shindkheda",
    "Latitude": "21.2726",
    "Longitude": "74.7454",
    "RegionCode": "SHDK",
    "State": "Maharashtra",
    "SubRegionCode": "SHDK",
    "VenueAddress": "Station Road, Near Bus Stand, Shindkheda, Maharashtra 425406, India",
    "VenueCode": "ACSK",
    "VenueName": "Ashok Chitramandir: Shindkheda"
  },
  "ACXB": {
    "AvailableFormats": "2D",
    "City": "Bhandara",
    "Latitude": "21.1761",
    "Longitude": "79.6388",
    "RegionCode": "BHAA",
    "State": "Maharashtra",
    "SubRegionCode": "BHAA",
    "VenueAddress": "Aswale Park, Samruddhi Nagar, Bhandara, Maharashtra 441906, India",
    "VenueCode": "ACXB",
    "VenueName": "AR Cineplex: Bhandara"
  },
  "ADGC": {
    "AvailableFormats": "2D",
    "City": "Narayanpur (CH)",
    "Latitude": "19.7218",
    "Longitude": "81.2415",
    "RegionCode": "NRYA",
    "State": "Chhattisgarh",
    "SubRegionCode": "NRYA",
    "VenueAddress": "Collectorate Road, Near Sports Ground, Narayanpur (CH), Chhattisgarh 494661, India",
    "VenueCode": "ADGC",
    "VenueName": "Adeshwar Global Cinemas: Narayanpur"
  },
  "AFST": {
    "AvailableFormats": "2D",
    "City": "Siddhpur",
    "Latitude": "23.9425",
    "Longitude": "72.3653",
    "RegionCode": "SIDD",
    "State": "Gujarat",
    "SubRegionCode": "SIDD",
    "VenueAddress": "Gokul Highway Food Mall, Highway Road, Near Sujanpur Patia, Siddhpur, Gujarat 384151, India",
    "VenueCode": "AFST",
    "VenueName": "Ajayshree Films (Gokul Theater): Siddhpur"
  },
  "AICP": {
    "AvailableFormats": "2D",
    "City": "Pallickathodu",
    "Latitude": "9.60499",
    "Longitude": "76.681",
    "RegionCode": "PKTU",
    "State": "Kerala",
    "SubRegionCode": "PKTU",
    "VenueAddress": "Kodungoor Road, Mutholy Pallickathodu, Near Federal Bank Pallikathodu, Pallickathodu, Kerala 686503, India",
    "VenueCode": "AICP",
    "VenueName": "Anchani Cinemas 4K Dolby Atmos: Pallickathodu"
  },
  "AKRF": {
    "AvailableFormats": "2D",
    "City": "Faridabad",
    "Latitude": "28.4553",
    "Longitude": "77.316",
    "RegionCode": "NCR",
    "State": "NCR",
    "SubRegionCode": "FARI",
    "VenueAddress": "SLF Mall St, Indraprastha Colony, Sector 32, Faridabad, NCR 121003, India",
    "VenueCode": "AKRF",
    "VenueName": "AKR Cinemas: SLF Mall, Faridabad"
  },
  "ALCS": {
    "AvailableFormats": "2D",
    "City": "Shirpur",
    "Latitude": "21.3442",
    "Longitude": "74.8805",
    "RegionCode": "SRUR",
    "State": "Maharashtra",
    "SubRegionCode": "SRUR",
    "VenueAddress": "Main Road, Krantinagar, Shirpur, Maharashtra 425405, India",
    "VenueCode": "ALCS",
    "VenueName": "Alankar Chitramandir: Shirpur"
  },
  "AMBH": {
    "AvailableFormats": "2D|3D",
    "City": "Hyderabad",
    "Latitude": "17.4578",
    "Longitude": "78.3642",
    "RegionCode": "HYD",
    "State": "Telangana",
    "SubRegionCode": "HYD",
    "VenueAddress": "Sarath City Capital Mall, Forest Dept Colony, Kondapur, Gachibowli - Miyapur Road, White Field Road, Opposite Mahindra Showroom, Hyderabad, Telangana 500084, India",
    "VenueCode": "AMBH",
    "VenueName": "AMB Cinemas: Gachibowli"
  },
  "AMDK": {
    "AvailableFormats": "2D",
    "City": "Devarakonda",
    "Latitude": "16.6908",
    "Longitude": "78.9227",
    "RegionCode": "DEVK",
    "State": "Telangana",
    "SubRegionCode": "DEVK",
    "VenueAddress": "Devarakonda Road, Mallepally Road, Near State Bank of India ATM, Devarakonda, Telangana 508248, India",
    "VenueCode": "AMDK",
    "VenueName": "Asian Manoj: Devarakonda"
  },
  "AMNG": {
    "AvailableFormats": "3D|2D",
    "City": "Nagpur",
    "Latitude": "21.086",
    "Longitude": "79.0911",
    "RegionCode": "NAGP",
    "State": "Maharashtra",
    "SubRegionCode": "NAGP",
    "VenueAddress": "2nd Floor, Jayanti Nagri 5 Mall, Besa Road, Above Haldirams, Nagpur, Maharashtra 440027, India",
    "VenueCode": "AMNG",
    "VenueName": "AM Cinema: Manish Nagar, Nagpur"
  },
  "AMZB": {
    "AvailableFormats": "2D",
    "City": "Zaheerabad",
    "Latitude": "17.6803",
    "Longitude": "77.6154",
    "RegionCode": "ZAGE",
    "State": "Telangana",
    "SubRegionCode": "ZAGE",
    "VenueAddress": "Main Road, Opposite to Bus Stand, Zaheerabad, Telangana 502220, India",
    "VenueCode": "AMZB",
    "VenueName": "Asian Sri Mohan: Zaheerabad"
  },
  "ANCV": {
    "AvailableFormats": "",
    "City": "Varanasi",
    "FirstTracked": "2026-07-14",
    "Latitude": "25.328384",
    "Longitude": "82.995",
    "RegionCode": "VAR",
    "State": "Uttar Pradesh",
    "SubRegionCode": "VAR",
    "VenueAddress": "S 13/18, Anand Mandir Andhrapull, Teliyabag, Raja Bazar Road, Varanasi, Uttar Pradesh 221002, India",
    "VenueCode": "ANCV",
    "VenueName": "Anand Mandir Cinema: Varanasi"
  },
  "ANRR": {
    "AvailableFormats": "2D",
    "City": "Kanpur",
    "Latitude": "26.4643",
    "Longitude": "80.3573",
    "RegionCode": "KANP",
    "State": "Uttar Pradesh",
    "SubRegionCode": "KANP",
    "VenueAddress": "Birhana Road, Naughara, General Ganj, Kanpur, Uttar Pradesh 208001, India",
    "VenueCode": "ANRR",
    "VenueName": "Navrang Cineplex: Kanpur"
  },
  "AOCH": {
    "AvailableFormats": "2D",
    "City": "Nabadwip",
    "Latitude": "23.4051",
    "Longitude": "88.3661",
    "RegionCode": "NABB",
    "State": "West Bengal",
    "SubRegionCode": "NABB",
    "VenueAddress": "78, Banerjee Para Road, Near Allahabad Bank, Nabadwip, West Bengal 741302, India",
    "VenueCode": "AOCH",
    "VenueName": "Alochaya Cinema: Nabadwip"
  },
  "APJC": {
    "AvailableFormats": "2D",
    "City": "Madurai",
    "Latitude": "9.90666",
    "Longitude": "78.0975",
    "RegionCode": "MADU",
    "State": "Tamil Nadu",
    "SubRegionCode": "MADU",
    "VenueAddress": "No. 6 Kambar street, Pasumpon Nagar, Madurai, Tamil Nadu 625003, India",
    "VenueCode": "APJC",
    "VenueName": "APR Cinemas Jeyam AC Christie 4K Dolby: Madurai"
  },
  "APSC": {
    "AvailableFormats": "3D|2D",
    "City": "Changanassery",
    "Latitude": "9.44915",
    "Longitude": "76.5436",
    "RegionCode": "CNSY",
    "State": "Kerala",
    "SubRegionCode": "CNSY",
    "VenueAddress": "Aramanapady, Palace Road, Near South Indian Bank, Changanassery, Kerala 686101, India",
    "VenueCode": "APSC",
    "VenueName": "Apsara Theatre Dolby 7.1: Changanassery"
  },
  "ARBL": {
    "AvailableFormats": "2D",
    "City": "Buldana",
    "Latitude": "20.5467",
    "Longitude": "76.1763",
    "RegionCode": "BULD",
    "State": "Maharashtra",
    "SubRegionCode": "BULD",
    "VenueAddress": "ARD Green Valley, Malkapur Road, Opposite Hero Honda Showroom, Buldana, Maharashtra 443001, India",
    "VenueCode": "ARBL",
    "VenueName": "ARD Cinemall: Buldana"
  },
  "ARMH": {
    "AvailableFormats": "2D",
    "City": "Hyderabad",
    "Latitude": "17.4767",
    "Longitude": "78.5632",
    "RegionCode": "HYD",
    "State": "Telangana",
    "SubRegionCode": "HYD",
    "VenueAddress": "Anupuram Colony, Dr A S Rao Nagar Road, ECIL Main Road, Near Parivaar Banquet Halls, Hyderabad, Telangana 500062, India",
    "VenueCode": "ARMH",
    "VenueName": "Asian Radhika Multiplex: ECIL"
  },
  "ARYH": {
    "AvailableFormats": "2D",
    "City": "Hyderabad",
    "Latitude": "17.3967",
    "Longitude": "78.5608",
    "RegionCode": "HYD",
    "State": "Telangana",
    "SubRegionCode": "HYD",
    "VenueAddress": "Raj Laxmi Theater, 2-1-40, Uppal Ring Road, Raj Nagar, Uppal, Near Indane Gas Service, Hyderabad, Telangana 500039, India",
    "VenueCode": "ARYH",
    "VenueName": "Asian Rajya Lakshmi: Uppal"
  },
  "ASHC": {
    "AvailableFormats": "2D",
    "City": "Pune",
    "Latitude": "18.6148",
    "Longitude": "73.8039",
    "RegionCode": "PUNE",
    "State": "Maharashtra",
    "SubRegionCode": "PUNE",
    "VenueAddress": "Shastri Nagar, Pimpri Colony, Pune, Maharashtra 411017, India",
    "VenueCode": "ASHC",
    "VenueName": "Ashok Theatre: Pimpri"
  },
  "ASMR": {
    "AvailableFormats": "2D",
    "City": "Miryalaguda",
    "Latitude": "16.8703",
    "Longitude": "79.5631",
    "RegionCode": "MRGD",
    "State": "Telangana",
    "SubRegionCode": "MRGD",
    "VenueAddress": "Islampura Road, Beside Madhusudhan Reddy Hospital, Miryalaguda, Telangana 508207, India",
    "VenueCode": "ASMR",
    "VenueName": "Asian Srinivasa Theater: Miryalaguda"
  },
  "ASSA": {
    "AvailableFormats": "2D",
    "City": "Mancherial",
    "Latitude": "18.8705",
    "Longitude": "79.4472",
    "RegionCode": "MANC",
    "State": "Telangana",
    "SubRegionCode": "MANC",
    "VenueAddress": "Station Road, Mancherial, Mancherial, Telangana 504302, India",
    "VenueCode": "ASSA",
    "VenueName": "Asian Srinivasa: Mancherial"
  },
  "ASTS": {
    "AvailableFormats": "2D",
    "City": "Davanagere",
    "Latitude": "14.4673",
    "Longitude": "75.9249",
    "RegionCode": "DAVA",
    "State": "Karnataka",
    "SubRegionCode": "DAVA",
    "VenueAddress": "SH 65, Ashoka Road, KB Extension, Near Railway Gate, Davanagere, Karnataka 577001, India",
    "VenueCode": "ASTS",
    "VenueName": "Ashoka Talkies: Davanagere"
  },
  "ATCK": {
    "AvailableFormats": "3D|2D",
    "City": "Kolkata",
    "Latitude": "22.7641",
    "Longitude": "88.3696",
    "RegionCode": "BARR",
    "State": "West Bengal",
    "SubRegionCode": "BARR",
    "VenueAddress": "91-73, Ghosh Para Road, North 24Pgs, Barrackpore, Near Barrackpore Railway Station, Kolkata, West Bengal 700120, India",
    "VenueCode": "ATCK",
    "VenueName": "Atindra Cinema: Barrackpore"
  },
  "ATKY": {
    "AvailableFormats": "",
    "City": "Kottayam",
    "FirstTracked": "2026-07-14",
    "Latitude": "9.589517",
    "Longitude": "76.51791",
    "RegionCode": "KTYM",
    "State": "Kerala",
    "SubRegionCode": "KTYM",
    "VenueAddress": "Palace Road, Thirunakara, Behind Bharath Hospital Puthenangady, Kottayam, Kerala 686001, India",
    "VenueCode": "ATKY",
    "VenueName": "Anaswara Theatre 2K Triple Beam 3D: Kottayam"
  },
  "ATTS": {
    "AvailableFormats": "2D",
    "City": "Hoshiarpur",
    "Latitude": "31.5552",
    "Longitude": "75.8694",
    "RegionCode": "TNDA",
    "State": "Punjab",
    "SubRegionCode": "TNDA",
    "VenueAddress": "Tanda Road, Bharat Petroleum, Hoshiarpur, Hoshiarpur, Punjab 146001, India",
    "VenueCode": "ATTS",
    "VenueName": "AG Star Cinemaz Hoshiarpur (Near Amber Palace)"
  },
  "AVCH": {
    "AvailableFormats": "2D",
    "City": "Khandwa",
    "Latitude": "21.8169",
    "Longitude": "76.3434",
    "RegionCode": "KHDW",
    "State": "Madhya Pradesh",
    "SubRegionCode": "KHDW",
    "VenueAddress": "Burhanpur - Pandhana Road, Plot No.106, Kunbi, East Nimar, Khandwa, Madhya Pradesh 450001, India",
    "VenueCode": "AVCH",
    "VenueName": "Abhishek Veer Cinemas: Khandwa"
  },
  "AWCT": {
    "AvailableFormats": "2D",
    "City": "Thodupuzha",
    "Latitude": "9.90285",
    "Longitude": "76.7153",
    "RegionCode": "THOD",
    "State": "Kerala",
    "SubRegionCode": "THOD",
    "VenueAddress": "Silver Hills, Mount Sinai Road, Near Mount Senai Hospital, Thodupuzha, Kerala 685584, India",
    "VenueCode": "AWCT",
    "VenueName": "Silver Hills Naxa Cinemas 4K Dolby ATMOS"
  },
  "AYOU": {
    "AvailableFormats": "2D",
    "City": "Pithampur",
    "Latitude": "22.6153",
    "Longitude": "75.6509",
    "RegionCode": "PITH",
    "State": "Madhya Pradesh",
    "SubRegionCode": "PITH",
    "VenueAddress": "S 24 Mall, Mhow Neemuch Road, Bardari Gram, Pithampur, Madhya Pradesh 454775, India",
    "VenueCode": "AYOU",
    "VenueName": "AYOU Cinemas: Pithampur"
  },
  "BARA": {
    "AvailableFormats": "2D",
    "City": "Kolkata",
    "Latitude": "22.5794",
    "Longitude": "88.4595",
    "RegionCode": "KOLK",
    "State": "West Bengal",
    "SubRegionCode": "KOLK",
    "VenueAddress": "4TH Floor, Axis Mall, 1C, 11, CF Block(Newtown), Action Area 1C, CF-9 New Town, Rajarhat, Near Novotel Kolkata Hotel And Residences, Kolkata, West Bengal 700156, India",
    "VenueCode": "BARA",
    "VenueName": "Bioscope: Axis Mall, Rajarhat"
  },
  "BBTC": {
    "AvailableFormats": "2D",
    "City": "Channapatna",
    "Latitude": "12.6456",
    "Longitude": "77.1945",
    "RegionCode": "CPTN",
    "State": "Karnataka",
    "SubRegionCode": "CPTN",
    "VenueAddress": "16th Cross, Mangalavara Pete Road, Near Big Bazar, Channapatna, Karnataka 562160, India",
    "VenueCode": "BBTC",
    "VenueName": "Sri Balaji Talkies: Channapatna"
  },
  "BCWG": {
    "AvailableFormats": "2D|3D",
    "City": "Ghaziabad",
    "Latitude": "28.6797",
    "Longitude": "77.3819",
    "RegionCode": "NCR",
    "State": "NCR",
    "SubRegionCode": "GHAZ",
    "VenueAddress": "Bhutani City Centre, Ghaziabad T-Point, Mohan Nagar, Near Air Force Station Hindon, Ghaziabad, NCR 201007, India",
    "VenueCode": "BCWG",
    "VenueName": "B18 Cinemas (Bhutani Cineplex) City Center GZB"
  },
  "BHAC": {
    "AvailableFormats": "2D",
    "City": "Bengaluru",
    "Latitude": "13.0415",
    "Longitude": "77.5175",
    "RegionCode": "HOKT",
    "State": "Karnataka",
    "SubRegionCode": "HOKT",
    "VenueAddress": "Prashanth Nagar, T. Dasarahalli, Dasara Halli Cross, Next To Rockline Mall, Bengaluru, Karnataka 560057, India",
    "VenueCode": "BHAC",
    "VenueName": "Bharathi Theatre (Peenya) A/C 4K 7.1 Dolby Digital"
  },
  "BIJH": {
    "AvailableFormats": "2D",
    "City": "Jhabua",
    "Latitude": "22.7609",
    "Longitude": "74.5879",
    "RegionCode": "JHAB",
    "State": "Madhya Pradesh",
    "SubRegionCode": "JHAB",
    "VenueAddress": "Infront of College Ground, Ranapur Road, Jhabua, Madhya Pradesh 457661, India",
    "VenueCode": "BIJH",
    "VenueName": "B4 Cinema: Jhabua"
  },
  "BJTS": {
    "AvailableFormats": "2D",
    "City": "Chikkaballapur",
    "Latitude": "13.4311",
    "Longitude": "77.7307",
    "RegionCode": "CHIK",
    "State": "Karnataka",
    "SubRegionCode": "CHIK",
    "VenueAddress": "B B Road, Near Chikkaballapur Road, Chikkaballapur, Karnataka 562101, India",
    "VenueCode": "BJTS",
    "VenueName": "Balaji Talkies: Chikkaballapura"
  },
  "BLJI": {
    "AvailableFormats": "2D",
    "City": "Vijayawada",
    "Latitude": "16.4726",
    "Longitude": "80.7163",
    "RegionCode": "KADU",
    "State": "Andhra Pradesh",
    "SubRegionCode": "KADU",
    "VenueAddress": "Bundar Road, Poranki, Near Priya Foods, Vijayawada, Andhra Pradesh 521137, India",
    "VenueCode": "BLJI",
    "VenueName": "Balaji Cine Villa: Vijayawada"
  },
  "BMRV": {
    "AvailableFormats": "2D",
    "City": "Veeraghattam",
    "Latitude": "18.6896",
    "Longitude": "83.6086",
    "RegionCode": "VEER",
    "State": "Andhra Pradesh",
    "SubRegionCode": "VEER",
    "VenueAddress": "Jiyyammavalasa Road, Down street, Veeraghattam, Andhra Pradesh 532460, India",
    "VenueCode": "BMRV",
    "VenueName": "BMR CINEMAX: Veeraghattam"
  },
  "BPKC": {
    "AvailableFormats": "",
    "City": "Bhopal",
    "FirstTracked": "2026-07-14",
    "Latitude": "23.144285",
    "Longitude": "77.497505",
    "RegionCode": "BHOP",
    "State": "Madhya Pradesh",
    "SubRegionCode": "BHOP",
    "VenueAddress": "2nd Floor, British Park Minimall,11th Mile, Hoshanagabad Road, Opposite IPER College, Bhopal, Madhya Pradesh 462026, India",
    "VenueCode": "BPKC",
    "VenueName": "British Park Cineplex: Bhopal"
  },
  "BSMP": {
    "AvailableFormats": "2D",
    "City": "Ambikapur",
    "Latitude": "23.1147",
    "Longitude": "83.198",
    "RegionCode": "AMBI",
    "State": "Chhattisgarh",
    "SubRegionCode": "AMBI",
    "VenueAddress": "Kharsia Road, Beside Hotel Grand Basant, NH 78, Ambikapur, Chhattisgarh 497001, India",
    "VenueCode": "BSMP",
    "VenueName": "Basant Multiplex: Ambikapur"
  },
  "BTDA": {
    "AvailableFormats": "2D",
    "City": "Acharapakkam",
    "Latitude": "12.4071",
    "Longitude": "79.8161",
    "RegionCode": "ACHA",
    "State": "Tamil Nadu",
    "SubRegionCode": "ACHA",
    "VenueAddress": "Periyar Nagar, Acharapakam, Near Abhiram Honda Showroom, Acharapakkam, Tamil Nadu 603301, India",
    "VenueCode": "BTDA",
    "VenueName": "Balaji Theatre A/C Dolby 7.1: Acharapakkam"
  },
  "BWCM": {
    "AvailableFormats": "2D",
    "City": "Georai",
    "Latitude": "19.2639",
    "Longitude": "75.7489",
    "RegionCode": "GEOR",
    "State": "Maharashtra",
    "SubRegionCode": "GEOR",
    "VenueAddress": "S No. 59, Shivaji Complex, Georai Main Road, Shastri Chowk Bus Stand Road, Dist-Beed, Georai, Maharashtra 431127, India",
    "VenueCode": "BWCM",
    "VenueName": "Bhagwati Chitra Mandir: Georai"
  },
  "CAIS": {
    "AvailableFormats": "2D",
    "City": "Kochi",
    "Latitude": "10.1068",
    "Longitude": "76.3631",
    "RegionCode": "PALY",
    "State": "Kerala",
    "SubRegionCode": "PALY",
    "VenueAddress": "Little Flower Ln, Periyar Nagar, Perumbavoor Aluva Road, Near Passport Office, Kochi, Kerala 683101, India",
    "VenueCode": "CAIS",
    "VenueName": "Casino Talkies A/C Real Laser 3D DOLBY 7.1: Aluva"
  },
  "CCAD": {
    "AvailableFormats": "2D",
    "City": "Anand",
    "Latitude": "22.5673",
    "Longitude": "72.9433",
    "RegionCode": "AND",
    "State": "Gujarat",
    "SubRegionCode": "AND",
    "VenueAddress": "Lambhvel Road, Purushottam Nagar, Anand, Gujarat 388001, India",
    "VenueCode": "CCAD",
    "VenueName": "Connplex Cinemas: Anand"
  },
  "CCDU": {
    "AvailableFormats": "",
    "City": "Dehradun",
    "FirstTracked": "2026-07-14",
    "Latitude": "30.32804",
    "Longitude": "78.04471",
    "RegionCode": "DEH",
    "State": "Uttarakhand",
    "SubRegionCode": "DEH",
    "VenueAddress": "19, Rajpur Road, Chukkuwala, Near State Bank Of India, Dehradun, Uttarakhand 248001, India",
    "VenueCode": "CCDU",
    "VenueName": "Chhayadeep Cinema: Dehradun"
  },
  "CCKP": {
    "AvailableFormats": "2D",
    "City": "Kalol (Panchmahal)",
    "Latitude": "22.6112",
    "Longitude": "73.4662",
    "RegionCode": "PANH",
    "State": "Gujarat",
    "SubRegionCode": "PANH",
    "VenueAddress": "Cinema City, GJ SH 87, Near Lal Darwaja, Jantral, Kalol (Panchmahal), Gujarat 389330, India",
    "VenueCode": "CCKP",
    "VenueName": "FUN Cinemas Cinema City Multiplex: Kalol"
  },
  "CCMP": {
    "AvailableFormats": "3D|2D",
    "City": "Navi Mumbai",
    "Latitude": "18.9991",
    "Longitude": "73.123",
    "RegionCode": "MUMBAI",
    "State": "Maharashtra",
    "SubRegionCode": "THAN",
    "VenueAddress": "Plot 1/3 Shubham Commercial Complex, Sector 11 New Panvel, Near Punjab National Bank Near Ganaraj Auto Service And Petrol Pump, Navi Mumbai, Maharashtra 410206, India",
    "VenueCode": "CCMP",
    "VenueName": "Miraj Cineraj Cinemas: Panvel"
  },
  "CCPN": {
    "AvailableFormats": "2D",
    "City": "Pathalgaon",
    "Latitude": "22.5576",
    "Longitude": "83.4644",
    "RegionCode": "PAHT",
    "State": "Chhattisgarh",
    "SubRegionCode": "PAHT",
    "VenueAddress": "C2 Cinemas, 3rd Floor HM Tower, Jashpur Road, Pathalgaon, Chhattisgarh 496118, India",
    "VenueCode": "CCPN",
    "VenueName": "C2 Cinema: Pathalgaon"
  },
  "CCSP": {
    "AvailableFormats": "",
    "City": "Patna",
    "Latitude": "25.6188",
    "Longitude": "85.0483",
    "RegionCode": "PATN",
    "State": "Bihar",
    "SubRegionCode": "PATN",
    "VenueAddress": "Bailey Road, Shri Krishna Puram, Opposite RPS More, Patna, Bihar 801503, India",
    "VenueCode": "CCSP",
    "VenueName": "Cinema Cafe Max Western Mall, Opp RPS More: Patna"
  },
  "CDOK": {
    "AvailableFormats": "2D",
    "City": "Jajpur Road",
    "Latitude": "20.9518",
    "Longitude": "86.1306",
    "RegionCode": "JAJP",
    "State": "Odisha",
    "SubRegionCode": "JAJP",
    "VenueAddress": "Utkal Centre Point Mall, Chorda Bypass Square, Byasanagar Main Road, Jajpur Road, Odisha 755019, India",
    "VenueCode": "CDOK",
    "VenueName": "Connplex Cinemas (Signature): Utkal Centre Point"
  },
  "CEPO": {
    "AvailableFormats": "2D",
    "City": "Pune",
    "Latitude": "18.518",
    "Longitude": "73.8561",
    "RegionCode": "PUNE",
    "State": "Maharashtra",
    "SubRegionCode": "PUNE",
    "VenueAddress": "Near Nana Wada, Chhatrapati Shivaji Maharaj Road, Budhwar Peth, Pune, Maharashtra 411002, India",
    "VenueCode": "CEPO",
    "VenueName": "CinePRO: Vasant Cinema, Pune"
  },
  "CGCB": {
    "AvailableFormats": "",
    "City": "Bathinda",
    "Latitude": "30.1649",
    "Longitude": "74.9233",
    "RegionCode": "BHAT",
    "State": "Punjab",
    "SubRegionCode": "BHAT",
    "VenueAddress": "3rd Floor, Green city square, Near AIIMS hospital, Dabwali Road, Bathinda, Punjab 151001, India",
    "VenueCode": "CGCB",
    "VenueName": "Cinepolis: Green City Square, Bathinda"
  },
  "CGOS": {
    "AvailableFormats": "2D",
    "City": "Ahmedabad",
    "Latitude": "23.0157",
    "Longitude": "72.5294",
    "RegionCode": "AHD",
    "State": "Gujarat",
    "SubRegionCode": "AHD",
    "VenueAddress": "Near Shyamal, Cross Road, 132 Feet Ring Road, Ahmedabad, Gujarat 380015, India",
    "VenueCode": "CGOS",
    "VenueName": "City Gold Satellite: Ahmedabad"
  },
  "CHKM": {
    "AvailableFormats": "2D",
    "City": "Kadalundi",
    "Latitude": "11.1549",
    "Longitude": "75.8473",
    "RegionCode": "KOZH",
    "State": "Kerala",
    "SubRegionCode": "KOZH",
    "VenueAddress": "8/567, Mannur Valavu, Mannur Valavu, Kadalundi, Kadalundi, Kerala 673328, India",
    "VenueCode": "CHKM",
    "VenueName": "Chithra Cineplex 4K RGB Laser dtsX: Mannur Valavu"
  },
  "CIBA": {
    "AvailableFormats": "2D",
    "City": "Korba",
    "Latitude": "22.3513",
    "Longitude": "82.6993",
    "RegionCode": "KRBA",
    "State": "Chhattisgarh",
    "SubRegionCode": "KRBA",
    "VenueAddress": "City Center Mall, B-10, Purani Basti, Power House Road, Korba, Chhattisgarh 495678, India",
    "VenueCode": "CIBA",
    "VenueName": "Cinemood Multiplex (Dolby Atmos Sound): Korba"
  },
  "CIMN": {
    "AvailableFormats": "",
    "City": "Greater Noida",
    "FirstTracked": "2026-07-14",
    "Latitude": "28.457985",
    "Longitude": "77.52814",
    "RegionCode": "NCR",
    "State": "NCR",
    "SubRegionCode": "GRET",
    "VenueAddress": "MSX Mall, Sector Swarn Nagri, Plot No. K-4, 4th Avenue, Sector 18 Block F, Industrial Area, Greater Noida, NCR 201310, India",
    "VenueCode": "CIMN",
    "VenueName": "Cineport Cinemas: MSX Mall, Greater Noida"
  },
  "CKMC": {
    "AvailableFormats": "2D",
    "City": "Palakkad",
    "Latitude": "10.7566",
    "Longitude": "76.5009",
    "RegionCode": "PLKK",
    "State": "Kerala",
    "SubRegionCode": "PLKK",
    "VenueAddress": "Kuzhalmannam mankara Road, Pilappulli, Peringottukurissi, Near Peringottukurissi Service Cooperative Bank, Palakkad, Kerala 678573, India",
    "VenueCode": "CKMC",
    "VenueName": "CKM Victory Cinemas: Peringottukurissi"
  },
  "CLDR": {
    "AvailableFormats": "2D",
    "City": "Ramanathapuram",
    "Latitude": "9.35868",
    "Longitude": "78.8433",
    "RegionCode": "RAPU",
    "State": "Tamil Nadu",
    "SubRegionCode": "RAPU",
    "VenueAddress": "9R5V+F8C, Mandapam Road, Kadampa Nagar, Ramanathapuram, Tamil Nadu 623501, India",
    "VenueCode": "CLDR",
    "VenueName": "The Cine Lounge Dolby 7.1: GSM Mall Ramanathapuram"
  },
  "CLSB": {
    "AvailableFormats": "2D",
    "City": "Siwan",
    "Latitude": "26.2307",
    "Longitude": "84.3694",
    "RegionCode": "SWNB",
    "State": "Bihar",
    "SubRegionCode": "SWNB",
    "VenueAddress": "Chandrika Tower, Gaushala Road, Pakdi Bus Stand, Siwan, Bihar 841226, India",
    "VenueCode": "CLSB",
    "VenueName": "Connplex Cinemas (Luxuriance): Siwan"
  },
  "CMCT": {
    "AvailableFormats": "2D",
    "City": "Thamarassery",
    "Latitude": "11.4148",
    "Longitude": "75.9358",
    "RegionCode": "KOZH",
    "State": "Kerala",
    "SubRegionCode": "KOZH",
    "VenueAddress": "City Mall, Thamarassery, Kerala, Thamarassery, Kerala 673573, India",
    "VenueCode": "CMCT",
    "VenueName": "City Mall Cinemas: Thamarassery"
  },
  "CMMH": {
    "AvailableFormats": "2D",
    "City": "Bhandara",
    "Latitude": "21.0849",
    "Longitude": "79.782",
    "RegionCode": "BHAA",
    "State": "Maharashtra",
    "SubRegionCode": "BHAA",
    "VenueAddress": "Lakhani, Gadegaon, Opposite - Ashok Leyland, Bhandara, Maharashtra 441804, India",
    "VenueCode": "CMMH",
    "VenueName": "Chhotu Maharaj Cine Cafe: Lakhani"
  },
  "CMSA": {
    "AvailableFormats": "2D",
    "City": "Shrigonda",
    "Latitude": "18.6277",
    "Longitude": "74.6887",
    "RegionCode": "SHRI",
    "State": "Maharashtra",
    "SubRegionCode": "SHRI",
    "VenueAddress": "Pargaon, Ahmednagar Road, Shrigonda, Maharashtra 413701, India",
    "VenueCode": "CMSA",
    "VenueName": "Chhotu Maharaj Cine Cafe: Shrigonda"
  },
  "CMVB": {
    "AvailableFormats": "2D",
    "City": "Vikarabad",
    "Latitude": "17.3464",
    "Longitude": "77.9056",
    "RegionCode": "VKBD",
    "State": "Telangana",
    "SubRegionCode": "VKBD",
    "VenueAddress": "Vikarabad - Mominpet Road, Alampally, Near Petrol Pump, Opposite Fathe Garden Function Hall, Vikarabad, Telangana 501101, India",
    "VenueCode": "CMVB",
    "VenueName": "Cinemax: Vikarabad"
  },
  "CNAD": {
    "AvailableFormats": "",
    "City": "Ahmedabad",
    "FirstTracked": "2026-07-14",
    "Latitude": "23.163",
    "Longitude": "72.5399",
    "RegionCode": "AHD",
    "State": "Gujarat",
    "SubRegionCode": "AHD",
    "VenueAddress": "306-308, Center Point, Adani Shantigram Township, Khodiyar, Ahmedabad, Gujarat 382501, India",
    "VenueCode": "CNAD",
    "VenueName": "Connplex Cinemas (Luxuriance): Adani Shantigram"
  },
  "CNFX": {
    "AvailableFormats": "2D",
    "City": "Datia",
    "Latitude": "25.6653",
    "Longitude": "78.4609",
    "RegionCode": "DATI",
    "State": "Madhya Pradesh",
    "SubRegionCode": "DATI",
    "VenueAddress": "National Highway 44 Jhansi road, First floor Ratan mega mall, Near District and sessions court, Datia, Madhya Pradesh 475661, India",
    "VenueCode": "CNFX",
    "VenueName": "Cineflix Cinemas: Datia"
  },
  "CNPS": {
    "AvailableFormats": "3D|2D",
    "City": "Bilaspur",
    "Latitude": "22.071",
    "Longitude": "82.1504",
    "RegionCode": "BILA",
    "State": "Chhattisgarh",
    "SubRegionCode": "BILA",
    "VenueAddress": "4th Floor, Shri Krishna Central Mall, Vinoba Nagar, Bilaspur, Chhattisgarh 495001, India",
    "VenueCode": "CNPS",
    "VenueName": "Connplex Cinemas (Signature) : Bilaspur"
  },
  "CNVG": {
    "AvailableFormats": "2D",
    "City": "Gurugram (Gurgaon)",
    "Latitude": "28.4157",
    "Longitude": "77.1027",
    "RegionCode": "NCR",
    "State": "NCR",
    "SubRegionCode": "GURG",
    "VenueAddress": "Ireo Grand View High Street, Golf Course Extension Road, Sector 58, Gurugram (Gurgaon), NCR 122102, India",
    "VenueCode": "CNVG",
    "VenueName": "Cinepolis: Grand View High Street, Gurugram"
  },
  "CONX": {
    "AvailableFormats": "2D",
    "City": "Bettiah",
    "Latitude": "26.809",
    "Longitude": "84.516",
    "RegionCode": "BETA",
    "State": "Bihar",
    "SubRegionCode": "BETA",
    "VenueAddress": "Kishore Kunj, Sant Kabir Road, Banuchapara, West Champaran, Bettiah, Bihar 845438, India",
    "VenueCode": "CONX",
    "VenueName": "Connplex Cinemas (Signature): Bettiah"
  },
  "CPCK": {
    "AvailableFormats": "2D|IMAX 2D",
    "City": "Kochi",
    "Latitude": "9.97799",
    "Longitude": "76.2833",
    "RegionCode": "KOCH",
    "State": "Kerala",
    "SubRegionCode": "KOCH",
    "VenueAddress": "6th floor, M.G.Rroad, Ernakulam, Near Abad Plaza Hotel, Kochi, Kerala 682035, India",
    "VenueCode": "CPCK",
    "VenueName": "Cinepolis: Centre Square, Kochi"
  },
  "CPGV": {
    "AvailableFormats": "3D|2D",
    "City": "Greater Noida",
    "Latitude": "28.4529",
    "Longitude": "77.526",
    "RegionCode": "NCR",
    "State": "NCR",
    "SubRegionCode": "GRET",
    "VenueAddress": "Plot No SH 3, Site IV, Greater Noida, Near Pari Chowk, Greater Noida, NCR 201308, India",
    "VenueCode": "CPGV",
    "VenueName": "Cinepolis: Grand Venice Mall, Greater Noida"
  },
  "CPKT": {
    "AvailableFormats": "3D|2D",
    "City": "Pune",
    "Latitude": "18.4997",
    "Longitude": "73.821",
    "RegionCode": "PUNE",
    "State": "Maharashtra",
    "SubRegionCode": "PUNE",
    "VenueAddress": "Survey No.20/1,2, Kothrud, Near Tara Residency, Pune, Maharashtra 411038, India",
    "VenueCode": "CPKT",
    "VenueName": "City Pride: Kothrud"
  },
  "CPMX": {
    "AvailableFormats": "",
    "City": "Jasdan",
    "FirstTracked": "2026-07-14",
    "Latitude": "22.024336",
    "Longitude": "71.17932",
    "RegionCode": "JASD",
    "State": "Gujarat",
    "SubRegionCode": "JASD",
    "VenueAddress": "Ring Road, Atkot Road, Aanand Nagar, Jasdan, Gujarat 360050, India",
    "VenueCode": "CPMX",
    "VenueName": "City Pride Multiplex: Jasdan"
  },
  "CPRP": {
    "AvailableFormats": "2D|3D",
    "City": "Pune",
    "Latitude": "18.5933",
    "Longitude": "73.7864",
    "RegionCode": "PUNE",
    "State": "Maharashtra",
    "SubRegionCode": "PUNE",
    "VenueAddress": "Spot-18 Mall, 3rd Floor, Rahatani Rd, Pimpri Chinchwad, Pune, Maharashtra 411017, India",
    "VenueCode": "CPRP",
    "VenueName": "City Pride Royal Cinemas: Rahatani"
  },
  "CPUS": {
    "AvailableFormats": "2D",
    "City": "Surat",
    "Latitude": "21.1361",
    "Longitude": "72.7521",
    "RegionCode": "SURT",
    "State": "Gujarat",
    "SubRegionCode": "SURT",
    "VenueAddress": "Dumas Road, Opposite L and T Colony, Near Magdalla Circle, Surat, Gujarat 395007, India",
    "VenueCode": "CPUS",
    "VenueName": "City Plus Multiplex: Surat"
  },
  "CRJG": {
    "AvailableFormats": "2D",
    "City": "Jayamkondacholapuram",
    "Latitude": "11.2143",
    "Longitude": "79.3613",
    "RegionCode": "JYAM",
    "State": "Tamil Nadu",
    "SubRegionCode": "JYAM",
    "VenueAddress": "National Highway 227, Jayakondam, Near JK Plaza, Jayamkondacholapuram, Tamil Nadu 621802, India",
    "VenueCode": "CRJG",
    "VenueName": "CR Palace Theatre A/C 4K HD Dolby Digital 7.1"
  },
  "CSCV": {
    "AvailableFormats": "2D|3D",
    "City": "Vizag (Visakhapatnam)",
    "Latitude": "17.8083",
    "Longitude": "83.3751",
    "RegionCode": "VIZA",
    "State": "Andhra Pradesh",
    "SubRegionCode": "VIZA",
    "VenueAddress": "100 Feet Road, Madhurawada, Vizag (Visakhapatnam), Andhra Pradesh 530048, India",
    "VenueCode": "CSCV",
    "VenueName": "Cinepolis: Sreekanya Cineglitz, Madhurawada"
  },
  "CSSA": {
    "AvailableFormats": "2D|3D",
    "City": "Ahilyanagar (Ahmednagar)",
    "Latitude": "19.1192",
    "Longitude": "74.7289",
    "RegionCode": "AHMED",
    "State": "Maharashtra",
    "SubRegionCode": "AHMED",
    "VenueAddress": "3rd Floor, Kohinoor Mall, Premdan Chowk, Opposite Big Bazar, Ahilyanagar (Ahmednagar), Maharashtra 414003, India",
    "VenueCode": "CSSA",
    "VenueName": "Connplex Cinemas: Ahilyanagar"
  },
  "CSTR": {
    "AvailableFormats": "2D",
    "City": "Rajkot",
    "Latitude": "22.276",
    "Longitude": "70.7415",
    "RegionCode": "RAJK",
    "State": "Gujarat",
    "SubRegionCode": "RAJK",
    "VenueAddress": "2nd Ring Road, Serenity Garden Road, Near Valupani restaurant, Rajkot, Gujarat 360004, India",
    "VenueCode": "CSTR",
    "VenueName": "Connplex Cinemas: Rajkot"
  },
  "CTLC": {
    "AvailableFormats": "2D",
    "City": "Chapra",
    "Latitude": "25.7875",
    "Longitude": "84.7145",
    "RegionCode": "CHPR",
    "State": "Bihar",
    "SubRegionCode": "CHPR",
    "VenueAddress": "Ware House Colony, Main Road, Near Gudri Chowk, Chapra, Bihar 841301, India",
    "VenueCode": "CTLC",
    "VenueName": "Cinemaoo The Luxury: Chapra"
  },
  "CTNR": {
    "AvailableFormats": "",
    "City": "Hyderabad",
    "Latitude": "17.503",
    "Longitude": "78.4773",
    "RegionCode": "HYD",
    "State": "Telangana",
    "SubRegionCode": "HYD",
    "VenueAddress": "Cinepolis TNR North City, SY No 85 and 89, NH-44, 7, Suchitra Road, NH-44, 7, Suchitra Road, Hyderabad, Telangana 500055, India",
    "VenueCode": "CTNR",
    "VenueName": "Cinepolis: TNR North City, Suchitra, Hyderabad"
  },
  "CUDN": {
    "AvailableFormats": "",
    "City": "Nagpur",
    "FirstTracked": "2026-07-14",
    "Latitude": "20.8422",
    "Longitude": "79.3181",
    "RegionCode": "NAGP",
    "State": "Maharashtra",
    "SubRegionCode": "NAGP",
    "VenueAddress": "Plot No. 1, 2, and 3, Giradkar Layout, Bypass Road, Nagpur, Maharashtra 441203, India",
    "VenueCode": "CUDN",
    "VenueName": "Chhotu Maharaj: Umred, Nagpur"
  },
  "CVMU": {
    "AvailableFormats": "",
    "City": "Hyderabad",
    "FirstTracked": "2026-07-14",
    "Latitude": "17.402",
    "Longitude": "78.5719",
    "RegionCode": "HYD",
    "State": "Telangana",
    "SubRegionCode": "HYD",
    "VenueAddress": "Main Road, IBP Petrol Bunk, Shanthi Nagar, Medchal Malkajgiri, Hyderabad, Telangana 500039, India",
    "VenueCode": "CVMU",
    "VenueName": "Cineverse Multiplex: Uppal"
  },
  "CXJD": {
    "AvailableFormats": "2D",
    "City": "Patna",
    "Latitude": "25.6106",
    "Longitude": "85.1404",
    "RegionCode": "PATN",
    "State": "Bihar",
    "SubRegionCode": "PATN",
    "VenueAddress": "4th Floor, J.D. Mall, S.P. Verma Road, Patna, Bihar 800001, India",
    "VenueCode": "CXJD",
    "VenueName": "Connplex Cinemas: S P Verma Road (JD Mall), Patna"
  },
  "CYKR": {
    "AvailableFormats": "2D|DOLBY CINEMA 2D|3D",
    "City": "Pune",
    "Latitude": "18.5502",
    "Longitude": "73.9379",
    "RegionCode": "PUNE",
    "State": "Maharashtra",
    "SubRegionCode": "PUNE",
    "VenueAddress": "Nyati Plaza, Thite Nagar, Kharadi, Pune, Maharashtra 411014, India",
    "VenueCode": "CYKR",
    "VenueName": "City Pride: Kharadi"
  },
  "DCAA": {
    "AvailableFormats": "",
    "City": "Barabanki",
    "FirstTracked": "2026-07-14",
    "Latitude": "26.9243",
    "Longitude": "81.1742",
    "RegionCode": "BARK",
    "State": "Uttar Pradesh",
    "SubRegionCode": "BARK",
    "VenueAddress": "Awadh avenue Mall, Awas Vikas Colony, Near RTO office, Barabanki, Uttar Pradesh 225001, India",
    "VenueCode": "DCAA",
    "VenueName": "DD Cinemas Awadh Avenue Mall: Barabanki"
  },
  "DCGO": {
    "AvailableFormats": "2D",
    "City": "Guruvayur",
    "Latitude": "10.5918",
    "Longitude": "76.0405",
    "RegionCode": "GUVY",
    "State": "Kerala",
    "SubRegionCode": "GUVY",
    "VenueAddress": "Opposite Temple Police Station, South Nada, Guruvayur, Kerala 680101, India",
    "VenueCode": "DCGO",
    "VenueName": "Devaky Cinemas 2K 3D Dolby Atmos: Guruvayoor"
  },
  "DCRL": {
    "AvailableFormats": "2D",
    "City": "Pappanadu",
    "Latitude": "10.5423",
    "Longitude": "79.2821",
    "RegionCode": "MANB",
    "State": "Tamil Nadu",
    "SubRegionCode": "MANB",
    "VenueAddress": "SH 29, Pappanadu, Nemilithippiakudi, Pappanadu, Tamil Nadu 614626, India",
    "VenueCode": "DCRL",
    "VenueName": "Devasuki Cinemas Laser Dolby Atmos: Pappanadu"
  },
  "DDTD": {
    "AvailableFormats": "2D|3D",
    "City": "Dharmapuri",
    "Latitude": "12.1329",
    "Longitude": "78.1608",
    "RegionCode": "DMPI",
    "State": "Tamil Nadu",
    "SubRegionCode": "DMPI",
    "VenueAddress": "Dharmapuri, Tamil Nadu, Dharmapuri, Tamil Nadu 636701, India",
    "VenueCode": "DDTD",
    "VenueName": "DMAX DNC Theatres: Dharmapuri"
  },
  "DEVI": {
    "AvailableFormats": "2D",
    "City": "Ahmedabad",
    "Latitude": "23.073",
    "Longitude": "72.65",
    "RegionCode": "AHD",
    "State": "Gujarat",
    "SubRegionCode": "AHD",
    "VenueAddress": "Opp. Mahaprabhuji Bethak, Naroda, Near Axis Bank ATM, Ahmedabad, Gujarat 382330, India",
    "VenueCode": "DEVI",
    "VenueName": "Devi Multiplex: Naroda"
  },
  "DICI": {
    "AvailableFormats": "2D",
    "City": "Indore",
    "Latitude": "22.6273",
    "Longitude": "75.8388",
    "RegionCode": "IND",
    "State": "Madhya Pradesh",
    "SubRegionCode": "IND",
    "VenueAddress": "Windasa Theme Park, Near - State Institute of Hotel Management, Indore, Madhya Pradesh 453331, India",
    "VenueCode": "DICI",
    "VenueName": "Cine Wheels Drive in by Windasa: Indore"
  },
  "DLGK": {
    "AvailableFormats": "2D",
    "City": "Katni",
    "Latitude": "23.8149",
    "Longitude": "80.3782",
    "RegionCode": "KATN",
    "State": "Madhya Pradesh",
    "SubRegionCode": "KATN",
    "VenueAddress": "Relaince Petrol Pump, Shanti Nagar, Katni, Madhya Pradesh 483504, India",
    "VenueCode": "DLGK",
    "VenueName": "DLG Cinemas: Katni"
  },
  "DMXM": {
    "AvailableFormats": "2D",
    "City": "Morbi",
    "Latitude": "22.7781",
    "Longitude": "70.9053",
    "RegionCode": "MOBI",
    "State": "Gujarat",
    "SubRegionCode": "MOBI",
    "VenueAddress": "SURVEY NO-66/1 AND 66/2, C/o Dariyalal Business Center, Opposite Rafaleshwar, 8 A National Highway, Jambudiya, Morbi, Gujarat 363642, India",
    "VenueCode": "DMXM",
    "VenueName": "Dariyalal Multiplex: Morbi"
  },
  "DPTD": {
    "AvailableFormats": "2D",
    "City": "Mavelikkara",
    "Latitude": "9.2543",
    "Longitude": "76.545",
    "RegionCode": "MVLR",
    "State": "Kerala",
    "SubRegionCode": "MVLR",
    "VenueAddress": "Kayamkulam-Thiruvalla Road (SH 6), Old Mavelikkara, Mavelikkara, Kerala 690101, India",
    "VenueCode": "DPTD",
    "VenueName": "Dreambig Prathibha Theatre: Mavelikkara"
  },
  "DSCC": {
    "AvailableFormats": "",
    "City": "Kochi",
    "FirstTracked": "2026-07-14",
    "Latitude": "9.873097",
    "Longitude": "76.487305",
    "RegionCode": "ERNK",
    "State": "Kerala",
    "SubRegionCode": "ERNK",
    "VenueAddress": "Kaduthuruthy Road, Darshana, Kerala State, Near Government High School, Kochi, Kerala 686664, India",
    "VenueCode": "DSCC",
    "VenueName": "Dharsana Cinema Complex: Piravom"
  },
  "DTPY": {
    "AvailableFormats": "2D",
    "City": "Pondicherry",
    "Latitude": "11.8642",
    "Longitude": "79.7524",
    "RegionCode": "POND",
    "State": "Tamil Nadu",
    "SubRegionCode": "POND",
    "VenueAddress": "Madukarai Road, Karikalapakkam, Pondicherry, Tamil Nadu 605007, India",
    "VenueCode": "DTPY",
    "VenueName": "Divya Theatre A/C 4K RGB LASER: Pondicherry"
  },
  "DVMY": {
    "AvailableFormats": "2D",
    "City": "Salem",
    "Latitude": "11.6276",
    "Longitude": "78.1344",
    "RegionCode": "SALM",
    "State": "Tamil Nadu",
    "SubRegionCode": "SALM",
    "VenueAddress": "P M P Nagar, Kondalampatty Bypass, Salem, Tamil Nadu 636010, India",
    "VenueCode": "DVMY",
    "VenueName": "Dhivyam Cinemax 4K Dolby Atmos 3D: Salem"
  },
  "ECGH": {
    "AvailableFormats": "2D",
    "City": "Jamshedpur",
    "Latitude": "22.8441",
    "Longitude": "86.2163",
    "RegionCode": "JMDP",
    "State": "Jharkhand",
    "SubRegionCode": "JMDP",
    "VenueAddress": "Zone 1 Mall, 4th Floor Big Bazar Building, NH 33, Pardih, Dimna Road, Jamshedpur, Jharkhand 831012, India",
    "VenueCode": "ECGH",
    "VenueName": "Eylex Cinemas: Jamshedpur"
  },
  "EEBC": {
    "AvailableFormats": "",
    "City": "Greater Noida",
    "FirstTracked": "2026-07-14",
    "Latitude": "28.464",
    "Longitude": "77.5078",
    "RegionCode": "NCR",
    "State": "NCR",
    "SubRegionCode": "GRET",
    "VenueAddress": "ANSAL PLAZA MALL SHOPPING COMPLEX, Pari Chowk, Amit Nagar, Greater Noida, NCR 201310, India",
    "VenueCode": "EEBC",
    "VenueName": "eBox Cinema: Ansal Plaza Mall, Greater Noida"
  },
  "EMCC": {
    "AvailableFormats": "2D",
    "City": "Kozhikode",
    "Latitude": "11.2701",
    "Longitude": "75.8443",
    "RegionCode": "KOZH",
    "State": "Kerala",
    "SubRegionCode": "KOZH",
    "VenueAddress": "Velliparamba, Kozhikode, Near Medical collage Hospital, Kozhikode, Kerala 673008, India",
    "VenueCode": "EMCC",
    "VenueName": "E Max Cinemas Dolby Atmos RGB Laser: Calicut"
  },
  "EPJM": {
    "AvailableFormats": "",
    "City": "Jaipur",
    "Latitude": "26.838",
    "Longitude": "75.7971",
    "RegionCode": "JAIP",
    "State": "Rajasthan",
    "SubRegionCode": "JAIP",
    "VenueAddress": "J L N Marg, Jawahar Circle, Tonk Road, Jaipur, Rajasthan 302017, India",
    "VenueCode": "EPJM",
    "VenueName": "Miraj Cinemas: Entertainment Paradise, Jaipur"
  },
  "ESOS": {
    "AvailableFormats": "2D|3D",
    "City": "Solapur",
    "Latitude": "17.6766",
    "Longitude": "75.8985",
    "RegionCode": "SOLA",
    "State": "Maharashtra",
    "SubRegionCode": "SOLA",
    "VenueAddress": "11/A, NH13, Old Police Line, Murarji Peth, Solapur, Maharashtra 413001, India",
    "VenueCode": "ESOS",
    "VenueName": "E-SQUARE Oasis (A.C): Solapur"
  },
  "EVCK": {
    "AvailableFormats": "2D",
    "City": "Kumily",
    "Latitude": "9.60762",
    "Longitude": "77.1697",
    "RegionCode": "KUMI",
    "State": "Kerala",
    "SubRegionCode": "KUMI",
    "VenueAddress": "Mar Thoma Church Road, Thekkady, Kumily, Kumily, Kerala 685509, India",
    "VenueCode": "EVCK",
    "VenueName": "EVM Cinemas: Kumily"
  },
  "FCAX": {
    "AvailableFormats": "",
    "City": "Rudrapur",
    "FirstTracked": "2026-07-14",
    "Latitude": "28.982658",
    "Longitude": "79.35822",
    "RegionCode": "RUDP",
    "State": "Uttarakhand",
    "SubRegionCode": "RUDP",
    "VenueAddress": "Skylark Petals, Kashipur Road, Near Samiah Lake, Rudrapur, Uttarakhand 263153, India",
    "VenueCode": "FCAX",
    "VenueName": "Fun Cinemas Rave Multiplex: Rudrapur"
  },
  "FCPS": {
    "AvailableFormats": "",
    "City": "Veraval",
    "FirstTracked": "2026-07-14",
    "Latitude": "20.936192",
    "Longitude": "70.367195",
    "RegionCode": "VRAL",
    "State": "Gujarat",
    "SubRegionCode": "VRAL",
    "VenueAddress": "Somnath Jetpur Highway, Near Ahir Samaj, Veraval Bypass Road, Veraval, Gujarat 362266, India",
    "VenueCode": "FCPS",
    "VenueName": "Fun Cinemas Phoenix Cinema: Veraval"
  },
  "FMCN": {
    "AvailableFormats": "2D",
    "City": "Chennai",
    "Latitude": "13.0476",
    "Longitude": "80.1904",
    "RegionCode": "CHEN",
    "State": "Tamil Nadu",
    "SubRegionCode": "CHEN",
    "VenueAddress": "Chandra Metro Mall, Arcot Road, Aranganathan Nagar, Valasaravakkam, Near Mega Mart, Chennai, Tamil Nadu 600092, India",
    "VenueCode": "FMCN",
    "VenueName": "INOX National: Arcot Road"
  },
  "FMOT": {
    "AvailableFormats": "2D",
    "City": "Thrissur",
    "Latitude": "10.4869",
    "Longitude": "76.2386",
    "RegionCode": "MANR",
    "State": "Kerala",
    "SubRegionCode": "MANR",
    "VenueAddress": "Bus Stop, Company Padi, High Road, Christopher, Ollur, Thrissur, Near Ollur Town Cooperative Society Ltd, Thrissur, Kerala 680306, India",
    "VenueCode": "FMOT",
    "VenueName": "Fun Movies: Thrissur"
  },
  "FNBP": {
    "AvailableFormats": "3D|2D",
    "City": "Bhopal",
    "Latitude": "23.2329",
    "Longitude": "77.4298",
    "RegionCode": "BHOP",
    "State": "Madhya Pradesh",
    "SubRegionCode": "BHOP",
    "VenueAddress": "Arera Hills, DB City Mall, Maharana Pratap Nagar, Bhopal, Madhya Pradesh 462011, India",
    "VenueCode": "FNBP",
    "VenueName": "Cinepolis: DB Mall, Bhopal"
  },
  "FNLK": {
    "AvailableFormats": "2D|3D",
    "City": "Lucknow",
    "Latitude": "26.8582",
    "Longitude": "80.9762",
    "RegionCode": "LUCK",
    "State": "Uttar Pradesh",
    "SubRegionCode": "LUCK",
    "VenueAddress": "Near Eldeco Greens, Nehru Enclave, Gomti Nagar, Opposite Lohia Park, Lucknow, Uttar Pradesh 226010, India",
    "VenueCode": "FNLK",
    "VenueName": "Fun Cinemas: Fun Republic Mall, Lucknow"
  },
  "FRGS": {
    "AvailableFormats": "2D|3D",
    "City": "Thanjavur",
    "Latitude": "10.7857",
    "Longitude": "79.1392",
    "RegionCode": "TANJ",
    "State": "Tamil Nadu",
    "SubRegionCode": "TANJ",
    "VenueAddress": "78/3, Abraham Pandither Road, Next to P.K Hospital, Thanjavur, Tamil Nadu 613001, India",
    "VenueCode": "FRGS",
    "VenueName": "Frame Cinemas RGB Laser Atmos: Thanjavur"
  },
  "FUCG": {
    "AvailableFormats": "2D",
    "City": "Guwahati",
    "Latitude": "26.167",
    "Longitude": "91.7669",
    "RegionCode": "GUW",
    "State": "Assam",
    "SubRegionCode": "GUW",
    "VenueAddress": "5th Floor, Hub Mall, Bhangaghar, G. S. Road, Guwahati, Assam 781005, India",
    "VenueCode": "FUCG",
    "VenueName": "Galleria Cinema: HUB Mall, Guwahati"
  },
  "GAHC": {
    "AvailableFormats": "2D",
    "City": "Chennai",
    "Latitude": "13.2499",
    "Longitude": "80.1568",
    "RegionCode": "CHEN",
    "State": "Tamil Nadu",
    "SubRegionCode": "CHEN",
    "VenueAddress": "Sholavaram, Karanodai, Chennai, Tamil Nadu 600067, India",
    "VenueCode": "GAHC",
    "VenueName": "Gopalakrishna A/C 2K DOLBY 7.1-Karanodai(Redhills)"
  },
  "GATY": {
    "AvailableFormats": "2D",
    "City": "Mumbai",
    "Latitude": "19.0615",
    "Longitude": "72.8387",
    "RegionCode": "MUMBAI",
    "State": "Maharashtra",
    "SubRegionCode": "MWEST",
    "VenueAddress": "Swami Vivekanand Marg, Tata Blocks, 30th Cross Road, Near Tata Blocks, Bandra West, Mumbai, Maharashtra 400050, India",
    "VenueCode": "GATY",
    "VenueName": "G7 Multiplex: Bandra (W)"
  },
  "GCCA": {
    "AvailableFormats": "2D|3D",
    "City": "Gondia",
    "Latitude": "21.4531",
    "Longitude": "80.1912",
    "RegionCode": "GNDA",
    "State": "Maharashtra",
    "SubRegionCode": "GNDA",
    "VenueAddress": "City Mall, Opposite - Circus Ground, Ganesh Nagar, Main Road, Gondia, Maharashtra 441601, India",
    "VenueCode": "GCCA",
    "VenueName": "Gold Cinema: City Mall, Gondia"
  },
  "GCFA": {
    "AvailableFormats": "2D",
    "City": "Fulkusma",
    "Latitude": "22.7119",
    "Longitude": "86.8696",
    "RegionCode": "FULK",
    "State": "West Bengal",
    "SubRegionCode": "FULK",
    "VenueAddress": "Gandheswari Chitralaya, Bankura Road, Fulkusma, West Bengal 722134, India",
    "VenueCode": "GCFA",
    "VenueName": "Gandheswari Chitralaya: Fulkushma"
  },
  "GCKJ": {
    "AvailableFormats": "2D",
    "City": "Kotputli",
    "Latitude": "27.7032",
    "Longitude": "76.2297",
    "RegionCode": "KPLI",
    "State": "Rajasthan",
    "SubRegionCode": "KPLI",
    "VenueAddress": "Bansur Road ,Bhuchahira, Moh. Badabas, Kotputli, Kotputli, Rajasthan 303108, India",
    "VenueCode": "GCKJ",
    "VenueName": "Gold Cinema: Kotputli"
  },
  "GCPT": {
    "AvailableFormats": "2D",
    "City": "Pathankot",
    "Latitude": "32.2726",
    "Longitude": "75.6535",
    "RegionCode": "PATH",
    "State": "Punjab",
    "SubRegionCode": "PATH",
    "VenueAddress": "4th Floor, City Centre Mall, Dalhousie Road, Pathankot, Punjab 145001, India",
    "VenueCode": "GCPT",
    "VenueName": "Grand Cinemaz: Pathankot"
  },
  "GCTI": {
    "AvailableFormats": "2D",
    "City": "Tinsukia",
    "Latitude": "27.492",
    "Longitude": "95.3617",
    "RegionCode": "TINS",
    "State": "Assam",
    "SubRegionCode": "TINS",
    "VenueAddress": "ATC Mall, GNB Road, Tinsukia, Assam 786125, India",
    "VenueCode": "GCTI",
    "VenueName": "Galleria Cinemas: ATC Mall, Tinsukia"
  },
  "GDCN": {
    "AvailableFormats": "2D",
    "City": "Guwahati",
    "Latitude": "26.1795",
    "Longitude": "91.8302",
    "RegionCode": "GUW",
    "State": "Assam",
    "SubRegionCode": "GUW",
    "VenueAddress": "LG Tower Tiniali, Narengi, Near Tulip Resturant, Guwahati, Assam 781026, India",
    "VenueCode": "GDCN",
    "VenueName": "Gold Cinema: Narengi"
  },
  "GDMT": {
    "AvailableFormats": "2D|3D",
    "City": "Mathura",
    "Latitude": "27.4943",
    "Longitude": "77.6551",
    "RegionCode": "MATH",
    "State": "Uttar Pradesh",
    "SubRegionCode": "MATH",
    "VenueAddress": "Highway Plaza Shopping Complex, NH2 Delhi-Agra Road, Near Mandi Crossing, Mathura, Uttar Pradesh 281004, India",
    "VenueCode": "GDMT",
    "VenueName": "Gold Cinema: Mathura"
  },
  "GETT": {
    "AvailableFormats": "2D",
    "City": "Hindaun City",
    "Latitude": "26.7284",
    "Longitude": "77.0333",
    "RegionCode": "HIND",
    "State": "Rajasthan",
    "SubRegionCode": "HIND",
    "VenueAddress": "SH 1, Keshav Pura, Opposite Government Girls Senior Secondary School, Hindaun City, Rajasthan 322230, India",
    "VenueCode": "GETT",
    "VenueName": "Geeta Talkies: Hindaun City"
  },
  "GGRJ": {
    "AvailableFormats": "",
    "City": "Gajapathinagaram",
    "FirstTracked": "2026-07-14",
    "Latitude": "18.28414",
    "Longitude": "83.33718",
    "RegionCode": "GJPT",
    "State": "Andhra Pradesh",
    "SubRegionCode": "GJPT",
    "VenueAddress": "Jayanthi Colony, Near Canara Bank, Gajapathinagaram, Andhra Pradesh 535270, India",
    "VenueCode": "GGRJ",
    "VenueName": "Gangaraju Kalamandir: Gajapathinagaram"
  },
  "GKCS": {
    "AvailableFormats": "2D",
    "City": "Sarangpur",
    "Latitude": "23.5761",
    "Longitude": "76.4842",
    "RegionCode": "SARA",
    "State": "Madhya Pradesh",
    "SubRegionCode": "SARA",
    "VenueAddress": "AB Road, Sudarshan Nagar, Sarangpur, Madhya Pradesh 465697, India",
    "VenueCode": "GKCS",
    "VenueName": "Gopal Krishna Multiplex: Sarangpur"
  },
  "GLXJ": {
    "AvailableFormats": "2D",
    "City": "Jaipur",
    "Latitude": "26.8337",
    "Longitude": "75.7783",
    "RegionCode": "JAIP",
    "State": "Rajasthan",
    "SubRegionCode": "JAIP",
    "VenueAddress": "SP, 9, Shipra Path, RIICO Industrial Area, Mansarovar, Jaipur, Rajasthan 302020, India",
    "VenueCode": "GLXJ",
    "VenueName": "Galaxy Cinema Mansarovar: Jaipur"
  },
  "GOCL": {
    "AvailableFormats": "",
    "City": "Lakhimpur",
    "FirstTracked": "2026-07-14",
    "Latitude": "27.236189",
    "Longitude": "94.10158",
    "RegionCode": "LAHA",
    "State": "Assam",
    "SubRegionCode": "LAHA",
    "VenueAddress": "North Lakhimpur, Thakurbari Road, Lakhimpur, Assam 787001, India",
    "VenueCode": "GOCL",
    "VenueName": "Gold Cinema: Lakhimpur"
  },
  "GPBR": {
    "AvailableFormats": "2D",
    "City": "Bengaluru",
    "Latitude": "12.9144",
    "Longitude": "77.5995",
    "RegionCode": "HOKT",
    "State": "Karnataka",
    "SubRegionCode": "HOKT",
    "VenueAddress": "Near Jayadeva Hospital, Bannerghatta Road, Opp Shoppers Stop, Bengaluru, Karnataka 560076, India",
    "VenueCode": "GPBR",
    "VenueName": "Gopalan Cinemas: Bannerghatta Road"
  },
  "GPTB": {
    "AvailableFormats": "2D",
    "City": "Bengaluru",
    "Latitude": "12.8912",
    "Longitude": "77.6265",
    "RegionCode": "HOKT",
    "State": "Karnataka",
    "SubRegionCode": "HOKT",
    "VenueAddress": "12th Cross, Bommanahalli Post, Begur Main Road,Hongasandra Next To Banashankari Tent, Bengaluru, Karnataka 560068, India",
    "VenueCode": "GPTB",
    "VenueName": "Galaxy Paradise (Miniplex): Begur Road"
  },
  "GSEE": {
    "AvailableFormats": "",
    "City": "Baikunthpur",
    "FirstTracked": "2026-07-14",
    "Latitude": "23.2686",
    "Longitude": "82.5548",
    "RegionCode": "BKTH",
    "State": "Chhattisgarh",
    "SubRegionCode": "BKTH",
    "VenueAddress": "Mission School Road, Harratola, Near Hotel Shree Ganga, Baikunthpur, Chhattisgarh 497335, India",
    "VenueCode": "GSEE",
    "VenueName": "Ganga Shree Cineplex: Baikunthpur"
  },
  "GTCP": {
    "AvailableFormats": "",
    "City": "Channarayapatna",
    "FirstTracked": "2026-07-14",
    "Latitude": "12.905309",
    "Longitude": "76.38963",
    "RegionCode": "CHNN",
    "State": "Karnataka",
    "SubRegionCode": "CHNN",
    "VenueAddress": "Renukamba Road, Near Channarayapatna Post Office, Channarayapatna, Karnataka 573116, India",
    "VenueCode": "GTCP",
    "VenueName": "Gayatri Theatre: Channarayapatna"
  },
  "GTTA": {
    "AvailableFormats": "2D",
    "City": "Falakata",
    "Latitude": "26.5179",
    "Longitude": "89.2024",
    "RegionCode": "FALA",
    "State": "West Bengal",
    "SubRegionCode": "FALA",
    "VenueAddress": "Babupara, Near Netaji Road, Opposite Falakata Park, Falakata, West Bengal 735211, India",
    "VenueCode": "GTTA",
    "VenueName": "Gouri Talkies: Falakata"
  },
  "GVCP": {
    "AvailableFormats": "2D",
    "City": "Pileru",
    "Latitude": "13.6577",
    "Longitude": "78.9366",
    "RegionCode": "PLRU",
    "State": "Andhra Pradesh",
    "SubRegionCode": "PLRU",
    "VenueAddress": "Off National Highway 205, Piler, Pileru, Andhra Pradesh 517214, India",
    "VenueCode": "GVCP",
    "VenueName": "GV Cinemas (Ajantha Theater): Pileru"
  },
  "HANS": {
    "AvailableFormats": "",
    "City": "Chalisgaon",
    "FirstTracked": "2026-07-14",
    "Latitude": "20.4616",
    "Longitude": "74.9972",
    "RegionCode": "CHLS",
    "State": "Maharashtra",
    "SubRegionCode": "CHLS",
    "VenueAddress": "92, Ganesh Nagar, Hans Theatre Road, Chalisgaon, Maharashtra 424101, India",
    "VenueCode": "HANS",
    "VenueName": "Raj Chitramandir: Chalisgaon"
  },
  "HFLM": {
    "AvailableFormats": "",
    "City": "Margao",
    "FirstTracked": "2026-07-14",
    "Latitude": "15.2715",
    "Longitude": "73.9686",
    "RegionCode": "MARG",
    "State": "Goa",
    "SubRegionCode": "MARG",
    "VenueAddress": "St. Joaquim Aquem Road, Opp Monastery, Near Aquem Post Office, Margao, Goa 403601, India",
    "VenueCode": "HFLM",
    "VenueName": "Z Square Cine Vishant: Margao"
  },
  "HILC": {
    "AvailableFormats": "2D",
    "City": "Renukoot",
    "Latitude": "24.2144",
    "Longitude": "83.0364",
    "RegionCode": "RENU",
    "State": "Uttar Pradesh",
    "SubRegionCode": "RENU",
    "VenueAddress": "Hindalco Colony, Opp. Ramleela ground, Birla Market, Renukoot, Uttar Pradesh 231217, India",
    "VenueCode": "HILC",
    "VenueName": "HIL Cinema: Renukoot"
  },
  "HSTK": {
    "AvailableFormats": "2D",
    "City": "Trivandrum",
    "Latitude": "8.58223",
    "Longitude": "76.8612",
    "RegionCode": "VKAL",
    "State": "Kerala",
    "SubRegionCode": "VKAL",
    "VenueAddress": "Vettur Road, Kazhakootam, Trivandrum, Kerala 695301, India",
    "VenueCode": "HSTK",
    "VenueName": "Harisree Theatre 4K 3D Dolby 7.1: Kazhakkoottam"
  },
  "ICCM": {
    "AvailableFormats": "2D|3D",
    "City": "Mysuru (Mysore)",
    "Latitude": "12.3098",
    "Longitude": "76.6585",
    "RegionCode": "MYS",
    "State": "Karnataka",
    "SubRegionCode": "MYS",
    "VenueAddress": "INOX Leisure Ltd, 3rd Floor, Centro, Bangalore-Nilgiri Road, Mysuru (Mysore), Karnataka 570001, India",
    "VenueCode": "ICCM",
    "VenueName": "INOX: Centro, Mysore"
  },
  "IGAM": {
    "AvailableFormats": "2D|3D",
    "City": "Gurugram (Gurgaon)",
    "Latitude": "28.4453",
    "Longitude": "77.0811",
    "RegionCode": "NCR",
    "State": "NCR",
    "SubRegionCode": "GURG",
    "VenueAddress": "4th Floor, Ardee Mall, Ardee City, Sector 52, Gurugram, Haryana, Gurugram (Gurgaon), NCR 122003, India",
    "VenueCode": "IGAM",
    "VenueName": "INOX: Ardee Mall, Gurugram"
  },
  "IMCH": {
    "AvailableFormats": "2D",
    "City": "Namchi",
    "Latitude": "27.164",
    "Longitude": "88.3619",
    "RegionCode": "NAMI",
    "State": "Sikkim",
    "SubRegionCode": "NAMI",
    "VenueAddress": "NMC Museum Building, Singithang, Shaheed Sanjog Chettri Marg, Namchi, Sikkim 737126, India",
    "VenueCode": "IMCH",
    "VenueName": "Imperial Talkies: Namchi"
  },
  "IMSH": {
    "AvailableFormats": "3D|2D",
    "City": "Shajapur",
    "Latitude": "23.4188",
    "Longitude": "76.2637",
    "RegionCode": "SJUR",
    "State": "Madhya Pradesh",
    "SubRegionCode": "SJUR",
    "VenueAddress": "1st floor, Seva Shree Mall, Dupada Road, Near Vyas Hospital, Shajapur, Madhya Pradesh 465001, India",
    "VenueCode": "IMSH",
    "VenueName": "Imusica Cinema: Shajapur"
  },
  "INBC": {
    "AvailableFormats": "2D",
    "City": "Bengaluru",
    "Latitude": "12.9166",
    "Longitude": "77.5923",
    "RegionCode": "HOKT",
    "State": "Karnataka",
    "SubRegionCode": "HOKT",
    "VenueAddress": "5th Floor Central, 45th Cross, J P Nagar 2nd Phase, Marenhalli Road, Bengaluru, Karnataka 560069, India",
    "VenueCode": "INBC",
    "VenueName": "INOX: Central, JP Nagar, Mantri Junction"
  },
  "INCH": {
    "AvailableFormats": "2D",
    "City": "Chennai",
    "Latitude": "13.0432",
    "Longitude": "80.2738",
    "RegionCode": "CHEN",
    "State": "Tamil Nadu",
    "SubRegionCode": "CHEN",
    "VenueAddress": "3rd Floor, Chennai Citi Center, Doctor Radha Krishnan Salai, Chennai, Tamil Nadu 600004, India",
    "VenueCode": "INCH",
    "VenueName": "INOX: Chennai Citi Centre, Dr. RK Salai"
  },
  "INGA": {
    "AvailableFormats": "2D",
    "City": "Gandhinagar",
    "Latitude": "23.1803",
    "Longitude": "72.5653",
    "RegionCode": "GNAGAR",
    "State": "Gujarat",
    "SubRegionCode": "GNAGAR",
    "VenueAddress": "Near Adalaj, Gandhinagar Sarkhej Highway, Near Tri Mandir, Gandhinagar, Gujarat 380055, India",
    "VenueCode": "INGA",
    "VenueName": "INOX: Gandhinagar, Adalaj"
  },
  "INJV": {
    "AvailableFormats": "3D|2D",
    "City": "Jaipur",
    "Latitude": "26.9128",
    "Longitude": "75.7435",
    "RegionCode": "JAIP",
    "State": "Rajasthan",
    "SubRegionCode": "JAIP",
    "VenueAddress": "Vaibhav Complex, C-1 C Block, Amrapali Circle, Vaishali Nagar, Near Vaishali Hospital, Jaipur, Rajasthan 302021, India",
    "VenueCode": "INJV",
    "VenueName": "INOX: Vaibhav, Amarapali Circle"
  },
  "INMT": {
    "AvailableFormats": "2D",
    "City": "Kakinada",
    "Latitude": "16.9979",
    "Longitude": "82.2434",
    "RegionCode": "KAKI",
    "State": "Andhra Pradesh",
    "SubRegionCode": "KAKI",
    "VenueAddress": "3rd Floor, 82-EAST, SRMT Mall, Lalitha Nagar, Ramanayyapeta, Pithapuram Road, Sarpavaram Junction, Kakinada, Andhra Pradesh 533005, India",
    "VenueCode": "INMT",
    "VenueName": "INOX: SRMT Mall, Kakinada"
  },
  "INPN": {
    "AvailableFormats": "2D|3D",
    "City": "Pune",
    "Latitude": "18.527",
    "Longitude": "73.8777",
    "RegionCode": "PUNE",
    "State": "Maharashtra",
    "SubRegionCode": "PUNE",
    "VenueAddress": "Plot No.D, Bund Garden Road, Agarkar Nagar, Near Central Park Hotel, Pune, Maharashtra 411001, India",
    "VenueCode": "INPN",
    "VenueName": "INOX: Bund Garden Road"
  },
  "INRJ": {
    "AvailableFormats": "2D|3D",
    "City": "Jalandhar",
    "Latitude": "31.307",
    "Longitude": "75.5926",
    "RegionCode": "JALA",
    "State": "Punjab",
    "SubRegionCode": "JALA",
    "VenueAddress": "INOX Leisure Ltd., 3rd Floor, Reliance Mall, Chotti Baradari Part-2, Puda, Jalandhar, Punjab 144001, India",
    "VenueCode": "INRJ",
    "VenueName": "INOX: Reliance Mall, Jalandhar"
  },
  "INSL": {
    "AvailableFormats": "2D|3D",
    "City": "Kolkata",
    "Latitude": "22.589",
    "Longitude": "88.4082",
    "RegionCode": "BARR",
    "State": "West Bengal",
    "SubRegionCode": "BARR",
    "VenueAddress": "City Centre, DC Block I, Sector-1, City Center Mall, Kolkata, West Bengal 700020, India",
    "VenueCode": "INSL",
    "VenueName": "INOX: City Center, Salt Lake"
  },
  "INVB": {
    "AvailableFormats": "2D|3D",
    "City": "Vizag (Visakhapatnam)",
    "Latitude": "17.7111",
    "Longitude": "83.3167",
    "RegionCode": "SABB",
    "State": "Andhra Pradesh",
    "SubRegionCode": "SABB",
    "VenueAddress": "Survey No.120 and 121, Varun Beach, 3rd Floor, R K Beach Road, Maharani Pet, Vizag, Andhra Pradesh 530003, India",
    "VenueCode": "INVB",
    "VenueName": "INOX: Varun Beach, Beach Road"
  },
  "INVZ": {
    "AvailableFormats": "",
    "City": "Vizianagaram",
    "FirstTracked": "2026-07-14",
    "Latitude": "18.107111",
    "Longitude": "83.39902",
    "RegionCode": "VIZI",
    "State": "Andhra Pradesh",
    "SubRegionCode": "VIZI",
    "VenueAddress": "3rd Floor, NCS Mall, Bochu Peta, Beside Thotapalem Road, Opposite RTC Complex, Vizianagaram, Andhra Pradesh 535002, India",
    "VenueCode": "INVZ",
    "VenueName": "INOX: NCS Mall, Vizianagaram"
  },
  "IOMM": {
    "AvailableFormats": "2D|3D",
    "City": "Gorakhpur",
    "Latitude": "26.7498",
    "Longitude": "83.4007",
    "RegionCode": "GRKP",
    "State": "Uttar Pradesh",
    "SubRegionCode": "GRKP",
    "VenueAddress": "INOX Leisure Ltd, 4th Floor, Orion Mall, Mohaddipur, Gorakhpur, Uttar Pradesh 273010, India",
    "VenueCode": "IOMM",
    "VenueName": "INOX: Orion Mall, Gorakhpur"
  },
  "IPPL": {
    "AvailableFormats": "2D|MX4D|IMAX 2D|3D|MX4D 3D",
    "City": "Lucknow",
    "Latitude": "26.8085",
    "Longitude": "81.0123",
    "RegionCode": "LUCK",
    "State": "Uttar Pradesh",
    "SubRegionCode": "LUCK",
    "VenueAddress": "INOX Leisure Ltd., 3rd Floor, Phoenix Palassio Mall Amar Saheed Path, Gomti Nagar Extension, Lucknow, Uttar Pradesh 226010, India",
    "VenueCode": "IPPL",
    "VenueName": "INOX: Megaplex Phoenix Palassio Mall"
  },
  "ISMR": {
    "AvailableFormats": "2D",
    "City": "Dharwad",
    "Latitude": "15.4452",
    "Longitude": "75.0136",
    "RegionCode": "DHAW",
    "State": "Karnataka",
    "SubRegionCode": "DHAW",
    "VenueAddress": "2nd Floor, Smart City Mall, Lakamanahalli, P B Road, Dharwad, Karnataka 580001, India",
    "VenueCode": "ISMR",
    "VenueName": "INOX: Smartcity Mall, Dharwad"
  },
  "IXIM": {
    "AvailableFormats": "2D",
    "City": "Jodhpur",
    "Latitude": "26.2195",
    "Longitude": "73.0422",
    "RegionCode": "JODH",
    "State": "Rajasthan",
    "SubRegionCode": "JODH",
    "VenueAddress": "1st Floor, Indiabulls Mega Mall, Vijayrajey Nagar, NH-65, Pali Road, Jodhpur, Rajasthan 342005, India",
    "VenueCode": "IXIM",
    "VenueName": "INOX: Indiabulls Mall, Jodhpur"
  },
  "JBCA": {
    "AvailableFormats": "2D",
    "City": "Trivandrum",
    "Latitude": "8.71232",
    "Longitude": "76.813",
    "RegionCode": "VKAL",
    "State": "Kerala",
    "SubRegionCode": "VKAL",
    "VenueAddress": "Alamcode, Near - Vazhiyorakkada Restaurant, Trivandrum, Kerala 695102, India",
    "VenueCode": "JBCA",
    "VenueName": "Thapasya Cine House: Attingal"
  },
  "JCMA": {
    "AvailableFormats": "2D|3D",
    "City": "Ambikapur",
    "Latitude": "23.1266",
    "Longitude": "83.1916",
    "RegionCode": "AMBI",
    "State": "Chhattisgarh",
    "SubRegionCode": "AMBI",
    "VenueAddress": "Devigang Road, Near Mahamaya Chowk, Ambikapur, Chhattisgarh 497001, India",
    "VenueCode": "JCMA",
    "VenueName": "JCM Multiplex: Ambikapur"
  },
  "JDDG": {
    "AvailableFormats": "",
    "City": "Gauriganj",
    "FirstTracked": "2026-07-14",
    "Latitude": "26.210785",
    "Longitude": "81.71261",
    "RegionCode": "GNGJ",
    "State": "Uttar Pradesh",
    "SubRegionCode": "GNGJ",
    "VenueAddress": "Jamo Shopping Centre, Near Bank of Baraoda-V mart, Gauriganj, Uttar Pradesh 227409, India",
    "VenueCode": "JDDG",
    "VenueName": "Jamo DD Cinema: Gauriganj"
  },
  "JHVN": {
    "AvailableFormats": "2D",
    "City": "Varanasi",
    "Latitude": "25.3358",
    "Longitude": "82.9773",
    "RegionCode": "VAR",
    "State": "Uttar Pradesh",
    "SubRegionCode": "VAR",
    "VenueAddress": "JHV Mall, The Mall Road, Cantonment, Varanasi Cantt, Near Nehru Park, Varanasi, Uttar Pradesh 221001, India",
    "VenueCode": "JHVN",
    "VenueName": "JHV Cinemas: Varanasi"
  },
  "JLSL": {
    "AvailableFormats": "2D",
    "City": "Peddapuram",
    "Latitude": "17.0801",
    "Longitude": "82.1326",
    "RegionCode": "PEDP",
    "State": "Andhra Pradesh",
    "SubRegionCode": "PEDP",
    "VenueAddress": "7, Peddapuram Rajahmundry Main Road, Chadalada, Near Main Mosque, Peddapuram, Andhra Pradesh 533437, India",
    "VenueCode": "JLSL",
    "VenueName": "Lalitha Sri Lalitha Theatre: Peddapuram"
  },
  "JMRC": {
    "AvailableFormats": "2D",
    "City": "Vellampalli",
    "Latitude": "15.6382",
    "Longitude": "80.0137",
    "RegionCode": "VMPL",
    "State": "Andhra Pradesh",
    "SubRegionCode": "VMPL",
    "VenueAddress": "Vellampalli - Tallur Road, Near Panchayathi Office, Vellampalli, Andhra Pradesh 523211, India",
    "VenueCode": "JMRC",
    "VenueName": "JMR Cinemas: Vellampalli"
  },
  "JSCH": {
    "AvailableFormats": "",
    "City": "Haldwani",
    "FirstTracked": "2026-07-14",
    "Latitude": "29.2267",
    "Longitude": "79.4217",
    "RegionCode": "HALD",
    "State": "Uttarakhand",
    "SubRegionCode": "HALD",
    "VenueAddress": "JAGS City Mall, Naripur, Lamachaur Khas, Near Amrapali University, Haldwani, Uttarakhand 263139, India",
    "VenueCode": "JSCH",
    "VenueName": "Jags Cinema: Haldwani"
  },
  "JTGA": {
    "AvailableFormats": "",
    "City": "Lucknow",
    "FirstTracked": "2026-07-14",
    "Latitude": "26.84866",
    "Longitude": "80.92571",
    "RegionCode": "LUCK",
    "State": "Uttar Pradesh",
    "SubRegionCode": "LUCK",
    "VenueAddress": "Central Hotal, Khayali Ganj, Aminabad, Near Ameeruddaula Jhande Wala Park, Lucknow, Uttar Pradesh 226018, India",
    "VenueCode": "JTGA",
    "VenueName": "Jagat Cinema: Lucknow"
  },
  "JTME": {
    "AvailableFormats": "",
    "City": "Maheshwar",
    "FirstTracked": "2026-07-14",
    "Latitude": "22.178774",
    "Longitude": "75.58646",
    "RegionCode": "MAHE",
    "State": "Madhya Pradesh",
    "SubRegionCode": "MAHE",
    "VenueAddress": "Near Ajanta Lodge, Dhamnod Road, Maheshwar, Madhya Pradesh 451224, India",
    "VenueCode": "JTME",
    "VenueName": "Janata Talkies: Maheshwar"
  },
  "JTPL": {
    "AvailableFormats": "2D",
    "City": "Chennai",
    "Latitude": "12.9697",
    "Longitude": "80.1494",
    "RegionCode": "CHEN",
    "State": "Tamil Nadu",
    "SubRegionCode": "CHEN",
    "VenueAddress": "Srinivasa Perumal Koil, Rajendra Nagar, Pallavaram, Behind Pallavaram Bus Stop, Chennai, Tamil Nadu 600043, India",
    "VenueCode": "JTPL",
    "VenueName": "Janatha Theatre 4K AC DTS (JBL AUDIO): Pallavaram"
  },
  "JTSM": {
    "AvailableFormats": "2D",
    "City": "Nellore",
    "Latitude": "14.4561",
    "Longitude": "79.9816",
    "RegionCode": "NELL",
    "State": "Andhra Pradesh",
    "SubRegionCode": "NELL",
    "VenueAddress": "Ramji Nagar, ., Nellore, Andhra Pradesh 524001, India",
    "VenueCode": "JTSM",
    "VenueName": "Siri Multiplex: Nellore"
  },
  "JTYS": {
    "AvailableFormats": "2D",
    "City": "Vizag (Visakhapatnam)",
    "Latitude": "17.7255",
    "Longitude": "83.3025",
    "RegionCode": "SABB",
    "State": "Andhra Pradesh",
    "SubRegionCode": "SABB",
    "VenueAddress": "Station Road, Dondaparthy, Dwaraka Nagar, Vizag, Andhra Pradesh 530016, India",
    "VenueCode": "JTYS",
    "VenueName": "Sangam Theatre 4K Dolby Atmos: Vizag"
  },
  "JYKL": {
    "AvailableFormats": "3D|2D",
    "City": "Kolkata",
    "Latitude": "22.7609",
    "Longitude": "88.3668",
    "RegionCode": "KOLK",
    "State": "West Bengal",
    "SubRegionCode": "KOLK",
    "VenueAddress": "2, B.T Road, Barrackpore Chiriamore, North 24 Parganas, Near Samanta Automobiles and SBI Railway Station Branch, Kolkata, West Bengal 700120, India",
    "VenueCode": "JYKL",
    "VenueName": "Jayanti Cinema: Barrackpore"
  },
  "KAGY": {
    "AvailableFormats": "",
    "City": "Jaggayyapeta",
    "FirstTracked": "2026-07-14",
    "Latitude": "16.8928",
    "Longitude": "80.1012",
    "RegionCode": "JGGY",
    "State": "Andhra Pradesh",
    "SubRegionCode": "JGGY",
    "VenueAddress": "JRC College Road, Y.Y. Colony, Jaggayyapeta, Andhra Pradesh 521175, India",
    "VenueCode": "KAGY",
    "VenueName": "Kamala Theater: Jaggayyapeta"
  },
  "KAVE": {
    "AvailableFormats": "2D",
    "City": "Coimbatore",
    "Latitude": "11.0192",
    "Longitude": "76.9639",
    "RegionCode": "COIM",
    "State": "Tamil Nadu",
    "SubRegionCode": "COIM",
    "VenueAddress": "No 167, Dr Rajendraprasad Road (100 ft road), Karpagam Cine Complex, Gandhipuram, Coimbatore, Tamil Nadu 641012, India",
    "VenueCode": "KAVE",
    "VenueName": "Kaveri Cinema: Coimbatore"
  },
  "KCCG": {
    "AvailableFormats": "2D",
    "City": "Gwalior",
    "Latitude": "26.2045",
    "Longitude": "78.1555",
    "RegionCode": "GWAL",
    "State": "Madhya Pradesh",
    "SubRegionCode": "GWAL",
    "VenueAddress": "Lashkar, Gangwal Bhawan Marg, Gwalior, Madhya Pradesh 474001, India",
    "VenueCode": "KCCG",
    "VenueName": "Kailash Cineplex Dolby Digital: Gwalior"
  },
  "KCMW": {
    "AvailableFormats": "2D",
    "City": "Mawana",
    "Latitude": "29.1007",
    "Longitude": "77.9156",
    "RegionCode": "MERT",
    "State": "Uttar Pradesh",
    "SubRegionCode": "MERT",
    "VenueAddress": "Mill Road, Mohalla Kalyan Singh, Mawana, Uttar Pradesh 250401, India",
    "VenueCode": "KCMW",
    "VenueName": "Kapil Cinema: Mawana"
  },
  "KDCA": {
    "AvailableFormats": "",
    "City": "Akbarpur",
    "FirstTracked": "2026-07-14",
    "Latitude": "26.417946",
    "Longitude": "82.53027",
    "RegionCode": "AKBR",
    "State": "Uttar Pradesh",
    "SubRegionCode": "AKBR",
    "VenueAddress": "Indralok Colony, Shahzad Pur, Akbarpur, Uttar Pradesh 224122, India",
    "VenueCode": "KDCA",
    "VenueName": "Kapoor DD Cinemas: Akbarpur"
  },
  "KFMT": {
    "AvailableFormats": "2D",
    "City": "Thalikulam",
    "Latitude": "10.4413",
    "Longitude": "76.0938",
    "RegionCode": "THAI",
    "State": "Kerala",
    "SubRegionCode": "THAI",
    "VenueAddress": "Karthika Movies, National Highway 66, Thalikulam, Kerala 680569, India",
    "VenueCode": "KFMT",
    "VenueName": "Karthika Fun Movies Thalikulam RGB 4K Laser Atmos"
  },
  "KIGH": {
    "AvailableFormats": "2D",
    "City": "Mandla",
    "Latitude": "22.5624",
    "Longitude": "80.3518",
    "RegionCode": "MADL",
    "State": "Madhya Pradesh",
    "SubRegionCode": "MADL",
    "VenueAddress": "Maharajpur, Kolpewadi, Mandla Road, Rangoli Restaurant, Mandla, Madhya Pradesh 481665, India",
    "VenueCode": "KIGH",
    "VenueName": "Kingfisher Multiplex: Mandla"
  },
  "KKTJ": {
    "AvailableFormats": "2D",
    "City": "Jeypore",
    "Latitude": "18.8573",
    "Longitude": "82.5722",
    "RegionCode": "JEYP",
    "State": "Odisha",
    "SubRegionCode": "JEYP",
    "VenueAddress": "Bidyadhar Market Road, Mill Street, Jeypore, Odisha 764001, India",
    "VenueCode": "KKTJ",
    "VenueName": "Korosudha Kalamandir Theatre: Jeypore"
  },
  "KMJR": {
    "AvailableFormats": "2D",
    "City": "Jintur",
    "Latitude": "19.5956",
    "Longitude": "76.6741",
    "RegionCode": "PARB",
    "State": "Maharashtra",
    "SubRegionCode": "PARB",
    "VenueAddress": "Jalna, Jintur Road, Jintur, Maharashtra 431509, India",
    "VenueCode": "KMJR",
    "VenueName": "Khushi Multiplex: Jintur"
  },
  "KNOX": {
    "AvailableFormats": "2D",
    "City": "Keonjhar",
    "Latitude": "21.6354",
    "Longitude": "85.616",
    "RegionCode": "KNJH",
    "State": "Odisha",
    "SubRegionCode": "KNJH",
    "VenueAddress": "Kashvi Mall, Mining Road, Opposite Keonjhar Law College, Keonjhar, Odisha 758001, India",
    "VenueCode": "KNOX",
    "VenueName": "KNOX Cinema: Keonjhar"
  },
  "KRBC": {
    "AvailableFormats": "2D|3D",
    "City": "Bahadurgarh",
    "Latitude": "28.6779",
    "Longitude": "76.8975",
    "RegionCode": "BAHD",
    "State": "Haryana",
    "SubRegionCode": "BAHD",
    "VenueAddress": "2nd Floor, Minervas West Side Mall, Sector 14, Jhajjar Road, Jhajjar, Bahadurgarh, Haryana 124507, India",
    "VenueCode": "KRBC",
    "VenueName": "KRB Cineplex: Bahadurgarh"
  },
  "KRPM": {
    "AvailableFormats": "2D",
    "City": "Kurumaseri",
    "Latitude": "10.180087",
    "Longitude": "76.331202",
    "RegionCode": "KURY",
    "State": "Kerala",
    "SubRegionCode": "KURY",
    "VenueAddress": "N Poovathusssery - Meladoor Road, Nearby Kaitharan Build Ware, Kurumaseri, Kerala 683579, India",
    "VenueCode": "KRPM",
    "VenueName": "Kripa Movies 4K Dolby: Kurumassery"
  },
  "KSDE": {
    "AvailableFormats": "",
    "City": "Deoli (Rajasthan)",
    "FirstTracked": "2026-07-14",
    "Latitude": "25.76135",
    "Longitude": "75.37665",
    "RegionCode": "DEOY",
    "State": "Rajasthan",
    "SubRegionCode": "DEOY",
    "VenueAddress": "National Highway 52, Tonk Road, Narayani Nagar, Deoli (Rajasthan), Rajasthan 304804, India",
    "VenueCode": "KSDE",
    "VenueName": "Kisan Talkies: Deoli"
  },
  "KSTC": {
    "AvailableFormats": "2D",
    "City": "Alappuzha",
    "Latitude": "9.68907",
    "Longitude": "76.3428",
    "RegionCode": "CRTL",
    "State": "Kerala",
    "SubRegionCode": "CRTL",
    "VenueAddress": "Cherthala Road, Kodathikavala, Cherthala, Near State Bank of India, Cherthala Branch, Alappuzha, Kerala 688524, India",
    "VenueCode": "KSTC",
    "VenueName": "Cherthala: Kairali Sree Theatre"
  },
  "KTEK": {
    "AvailableFormats": "2D",
    "City": "Kochi",
    "Latitude": "9.97858",
    "Longitude": "76.2826",
    "RegionCode": "PALY",
    "State": "Kerala",
    "SubRegionCode": "PALY",
    "VenueAddress": "Paza Hotel, Mahatma Gandhi Road, Shenoys - Ernakulam, Near Abad, Kochi, Kerala 682011, India",
    "VenueCode": "KTEK",
    "VenueName": "Kavitha Theatre 4K 3D Dolby 7.1: Ernakulam"
  },
  "KTTT": {
    "AvailableFormats": "",
    "City": "Tonk",
    "FirstTracked": "2026-07-14",
    "Latitude": "26.173922",
    "Longitude": "75.794624",
    "RegionCode": "TONK",
    "State": "Rajasthan",
    "SubRegionCode": "TONK",
    "VenueAddress": "Rooi Panch ka Maidan, Ambika Colony, Near Janki Bai Guest House, Tonk, Rajasthan 304001, India",
    "VenueCode": "KTTT",
    "VenueName": "Kiran Talkies: Tonk"
  },
  "LACK": {
    "AvailableFormats": "",
    "City": "Chanpatia",
    "FirstTracked": "2026-07-14",
    "Latitude": "26.948313",
    "Longitude": "84.53663",
    "RegionCode": "CHAT",
    "State": "Bihar",
    "SubRegionCode": "CHAT",
    "VenueAddress": "Chanpatia Station Road, Near Chanpatia Police Station, Chanpatia, Bihar 845449, India",
    "VenueCode": "LACK",
    "VenueName": "Lal Talkies(AC, Dolby 7.1): Chanpatia"
  },
  "LASK": {
    "AvailableFormats": "",
    "City": "Karaikal",
    "FirstTracked": "2026-07-14",
    "Latitude": "10.936586",
    "Longitude": "79.830025",
    "RegionCode": "KARA",
    "State": "Tamil Nadu",
    "SubRegionCode": "KARA",
    "VenueAddress": "National Highway 45A, Viola Garden, Nehrunagar, Karaikal, Puducherry, Near Pondicherry University, Karaikal, Tamil Nadu 609605, India",
    "VenueCode": "LASK",
    "VenueName": "LA Cinema Shamina A/C Dolby Atmos: Karaikal"
  },
  "LCMV": {
    "AvailableFormats": "2D",
    "City": "Kankavli",
    "Latitude": "16.2655",
    "Longitude": "73.7061",
    "RegionCode": "KNKS",
    "State": "Maharashtra",
    "SubRegionCode": "KNKS",
    "VenueAddress": "Achara Road, Near - Police Station, Kalmath, Kankavli, Maharashtra 416602, India",
    "VenueCode": "LCMV",
    "VenueName": "Laxmi Chitramandir: Kankavli"
  },
  "LCZP": {
    "AvailableFormats": "2D",
    "City": "Zirakpur",
    "Latitude": "30.6599",
    "Longitude": "76.8218",
    "RegionCode": "CHD",
    "State": "Punjab",
    "SubRegionCode": "ZRIK",
    "VenueAddress": "Paras Down Town Square Mall, The Golden Plaza Hotel, Ambala Chandigarh Express Way, Zirakpur, Zirakpur, Punjab 140603, India",
    "VenueCode": "LCZP",
    "VenueName": "Legend Cinemas: Paras Downtown Square, Zirakpur"
  },
  "LITH": {
    "AvailableFormats": "2D",
    "City": "Hinganghat",
    "Latitude": "20.5505",
    "Longitude": "78.8364",
    "RegionCode": "HINA",
    "State": "Maharashtra",
    "SubRegionCode": "HINA",
    "VenueAddress": "Civil Lines Road, Dag Borkhedi, Hinganghat, Maharashtra 442301, India",
    "VenueCode": "LITH",
    "VenueName": "Laxmi Talkies: Hinganghat"
  },
  "LKTK": {
    "AvailableFormats": "2D",
    "City": "Karur",
    "Latitude": "10.9587",
    "Longitude": "78.0829",
    "RegionCode": "KARU",
    "State": "Tamil Nadu",
    "SubRegionCode": "KARU",
    "VenueAddress": "No 61, Dindigul Road, Opposite Bombay sweets and Bakery, Karur, Tamil Nadu 639001, India",
    "VenueCode": "LKTK",
    "VenueName": "Lakshmi Raam Theatre: Karur"
  },
  "LMSR": {
    "AvailableFormats": "2D",
    "City": "Sehore",
    "Latitude": "23.2016",
    "Longitude": "77.0796",
    "RegionCode": "SEHO",
    "State": "Madhya Pradesh",
    "SubRegionCode": "SEHO",
    "VenueAddress": "42, Sindhi Colony, Main Road, Near State bank of India, Next to City Post Office, Sehore, Madhya Pradesh 466001, India",
    "VenueCode": "LMSR",
    "VenueName": "Lisa Multiplex Screen 2: Sehore"
  },
  "LSCM": {
    "AvailableFormats": "2D",
    "City": "Gurugram (Gurgaon)",
    "Latitude": "28.4347",
    "Longitude": "77.0681",
    "RegionCode": "NCR",
    "State": "NCR",
    "SubRegionCode": "GURG",
    "VenueAddress": "Mall Fifty One 104, Sector 51, Gurugram (Gurgaon), NCR 122003, India",
    "VenueCode": "LSCM",
    "VenueName": "Legend Cinema Lounges: Mall Fifty One, Gurgaon"
  },
  "LXCM": {
    "AvailableFormats": "",
    "City": "Navsari",
    "FirstTracked": "2026-07-14",
    "Latitude": "20.954329",
    "Longitude": "72.922935",
    "RegionCode": "NVSR",
    "State": "Gujarat",
    "SubRegionCode": "NVSR",
    "VenueAddress": "Karwad Road, Fuwara, Navsari, Gujarat 396445, India",
    "VenueCode": "LXCM",
    "VenueName": "Laxmi Cine Magic Multiplex: Navsari"
  },
  "MAAM": {
    "AvailableFormats": "",
    "City": "Ahmedabad",
    "FirstTracked": "2026-07-14",
    "Latitude": "22.9973",
    "Longitude": "72.5927",
    "RegionCode": "AHD",
    "State": "Gujarat",
    "SubRegionCode": "AHD",
    "VenueAddress": "Mira Cinema BRTS Bus Stop, Bhairavnath Road, Maninagar, Ahmedabad, Gujarat 380008, India",
    "VenueCode": "MAAM",
    "VenueName": "Mira Cinema: Ahmedabad"
  },
  "MACX": {
    "AvailableFormats": "2D",
    "City": "Shajapur",
    "Latitude": "23.4169",
    "Longitude": "76.2898",
    "RegionCode": "SJUR",
    "State": "Madhya Pradesh",
    "SubRegionCode": "SJUR",
    "VenueAddress": "Near Hotel Manorama Garden, Bercha Road, Shajapur, Madhya Pradesh 465001, India",
    "VenueCode": "MACX",
    "VenueName": "Manorama Cineplex: Shajapur"
  },
  "MAHT": {
    "AvailableFormats": "2D",
    "City": "Dakshin Barasat",
    "Latitude": "22.2236",
    "Longitude": "88.4478",
    "RegionCode": "DAKS",
    "State": "West Bengal",
    "SubRegionCode": "DAKS",
    "VenueAddress": "P/S Joynagar, Dist: 24 Parganas (South), Baruipur-Kulpi Road, Dakshin Barasat, West Bengal 743372, India",
    "VenueCode": "MAHT",
    "VenueName": "Mahamaya Talkies: Dakshin Barasat"
  },
  "MAPJ": {
    "AvailableFormats": "",
    "City": "Jhajha",
    "FirstTracked": "2026-07-14",
    "Latitude": "24.773512",
    "Longitude": "86.375114",
    "RegionCode": "JHAA",
    "State": "Bihar",
    "SubRegionCode": "JHAA",
    "VenueAddress": "No 827, Bus stand Road, Jhajha, Bihar 811308, India",
    "VenueCode": "MAPJ",
    "VenueName": "Maa Lakhi Cineplex (70mm, Dolby 5.1): Jhajha"
  },
  "MAVO": {
    "AvailableFormats": "2D|3D",
    "City": "Samastipur",
    "Latitude": "25.8496",
    "Longitude": "85.7733",
    "RegionCode": "SMST",
    "State": "Bihar",
    "SubRegionCode": "SMST",
    "VenueAddress": "Fourth Floor, Vinuss One Building, NH 322, Near Pantaloon, Mohanpur, Samastipur, Bihar 848101, India",
    "VenueCode": "MAVO",
    "VenueName": "Mukta A2 Cinemas: Vinuss One Mall, Samastipur"
  },
  "MBCR": {
    "AvailableFormats": "2D|3D",
    "City": "Jodhpur",
    "Latitude": "26.2837",
    "Longitude": "73.0383",
    "RegionCode": "JODH",
    "State": "Rajasthan",
    "SubRegionCode": "JODH",
    "VenueAddress": "Blue City Mall, 3rd Floor, Circuit House Road, Jodhpur, Rajasthan 342001, India",
    "VenueCode": "MBCR",
    "VenueName": "Miraj Cinemas: Blue City Mall, Jodhpur"
  },
  "MCAN": {
    "AvailableFormats": "3D|2D",
    "City": "Ulhasnagar",
    "Latitude": "19.2083",
    "Longitude": "73.1966",
    "RegionCode": "MUMBAI",
    "State": "Maharashtra",
    "SubRegionCode": "ULHA",
    "VenueAddress": "854, Kalyan - Badlapur Road, Wimco Naka Matoshree Nagar, Ambernath, Ulhasnagar, Maharashtra 421505, India",
    "VenueCode": "MCAN",
    "VenueName": "Miraj Cinemas, Star: Ambernath"
  },
  "MCCR": {
    "AvailableFormats": "3D|2D",
    "City": "Chandrapur",
    "Latitude": "19.9774",
    "Longitude": "79.2829",
    "RegionCode": "CHAN",
    "State": "Maharashtra",
    "SubRegionCode": "CHAN",
    "VenueAddress": "MDR Mall and Multiplex, Survey No.-59, Wadgaon Bapat Nagar, Chandrapur, Maharashtra 442401, India",
    "VenueCode": "MCCR",
    "VenueName": "Miraj Cinema: Chandrapur"
  },
  "MCFP": {
    "AvailableFormats": "",
    "City": "Fatehpur",
    "FirstTracked": "2026-07-14",
    "Latitude": "26.03003",
    "Longitude": "80.580124",
    "RegionCode": "FATE",
    "State": "Uttar Pradesh",
    "SubRegionCode": "FATE",
    "VenueAddress": "Kashi Complex, Mughal Road, Near Laluli Chauraha Bindki, Fatehpur, Uttar Pradesh 212635, India",
    "VenueCode": "MCFP",
    "VenueName": "Aryan M Cinemas: Bindki, Fatehpur"
  },
  "MCHP": {
    "AvailableFormats": "",
    "City": "Hoshiarpur",
    "FirstTracked": "2026-07-14",
    "Latitude": "31.528864",
    "Longitude": "75.907646",
    "RegionCode": "HOSH",
    "State": "Punjab",
    "SubRegionCode": "HOSH",
    "VenueAddress": "Js Eminent Mall, Sutheri Road, Manavta Nagar, Hoshiarpur, Punjab 146001, India",
    "VenueCode": "MCHP",
    "VenueName": "Miraj Cinemas: Hoshiarpur"
  },
  "MCKO": {
    "AvailableFormats": "2D",
    "City": "Kolkata",
    "Latitude": "22.5973",
    "Longitude": "88.3719",
    "RegionCode": "KOLK",
    "State": "West Bengal",
    "SubRegionCode": "KOLK",
    "VenueAddress": "136/2, Bidhan Sarani, Shyam Bazar, Sovabazar, Hati Bagan, Kolkata, West Bengal 700004, India",
    "VenueCode": "MCKO",
    "VenueName": "Minar Cinema: Kolkata"
  },
  "MCMP": {
    "AvailableFormats": "",
    "City": "Patna",
    "Latitude": "25.6178",
    "Longitude": "85.1488",
    "RegionCode": "PATN",
    "State": "Bihar",
    "SubRegionCode": "PATN",
    "VenueAddress": "Gandhi Maidan Road, Bakerganj, Patna, Bihar 800004, India",
    "VenueCode": "MCMP",
    "VenueName": "Mona: Christie 4K RGB Laser & Dolby Atmos"
  },
  "MCRL": {
    "AvailableFormats": "2D|3D",
    "City": "Kanpur",
    "Latitude": "26.4564",
    "Longitude": "80.3342",
    "RegionCode": "KANP",
    "State": "Uttar Pradesh",
    "SubRegionCode": "KANP",
    "VenueAddress": "Ratan Elegance, Afim Kothi Chauraha, 86/275, Rajpurwa, Kanpur, Uttar Pradesh 208012, India",
    "VenueCode": "MCRL",
    "VenueName": "Movietime Cinemas: Ratan Elegance, Kanpur"
  },
  "MCSR": {
    "AvailableFormats": "",
    "City": "Saharanpur",
    "FirstTracked": "2026-07-14",
    "Latitude": "29.92732",
    "Longitude": "77.52606",
    "RegionCode": "SAHA",
    "State": "Uttar Pradesh",
    "SubRegionCode": "SAHA",
    "VenueAddress": "GNG Mall, 91-93, 2nd floor, Mavikaala, Pant Vihar, South Saharanpur, Near Standard Chartered Bank, Saharanpur, Uttar Pradesh 247001, India",
    "VenueCode": "MCSR",
    "VenueName": "Miraj Cinemas: Saharanpur, Uttar Pradesh"
  },
  "MCVD": {
    "AvailableFormats": "2D",
    "City": "Vadodara",
    "Latitude": "22.3194",
    "Longitude": "73.1589",
    "RegionCode": "VAD",
    "State": "Gujarat",
    "SubRegionCode": "VAD",
    "VenueAddress": "3rd Floor, S-Square Complex, Above Dominos, Subhanpura, Beside Ganga Jamuna Hospital, Vadodara, Gujarat 390023, India",
    "VenueCode": "MCVD",
    "VenueName": "Movietime: S-Square Mall, Subhanpura, Vadodara"
  },
  "MDGJ": {
    "AvailableFormats": "2D",
    "City": "Daltonganj",
    "Latitude": "24.0411",
    "Longitude": "84.0651",
    "RegionCode": "DATG",
    "State": "Jharkhand",
    "SubRegionCode": "DATG",
    "VenueAddress": "Near Jalihata Bus Stand, Daltonganj Road, Pahari Muhalla, Medininagar, Daltonganj, Jharkhand 822101, India",
    "VenueCode": "MDGJ",
    "VenueName": "Mohan Cinema: Daltonganj"
  },
  "MEER": {
    "AvailableFormats": "2D",
    "City": "Rajapalayam",
    "Latitude": "9.4487",
    "Longitude": "77.5596",
    "RegionCode": "RAYM",
    "State": "Tamil Nadu",
    "SubRegionCode": "RAYM",
    "VenueAddress": "61,Ashok Talkies Road, Rajapalayam,Virudhunagar, Near Rajapalayam Railway Station, Rajapalayam, Tamil Nadu 626117, India",
    "VenueCode": "MEER",
    "VenueName": "Meenakshi Cinemas Dolby Atmos A/C 4K: Rajapalayam"
  },
  "METE": {
    "AvailableFormats": "2D",
    "City": "Erattupetta",
    "Latitude": "9.68921",
    "Longitude": "76.7768",
    "RegionCode": "ERAT",
    "State": "Kerala",
    "SubRegionCode": "ERAT",
    "VenueAddress": "Kaduvamuzhi, Erattupetta, Near Erattupetta Police Station, Erattupetta, Kerala 686121, India",
    "VenueCode": "METE",
    "VenueName": "Rajans Metro A/C: Erattupetta"
  },
  "MHCL": {
    "AvailableFormats": "2D",
    "City": "Siddhpur",
    "Latitude": "23.9244",
    "Longitude": "72.363",
    "RegionCode": "SIDD",
    "State": "Gujarat",
    "SubRegionCode": "SIDD",
    "VenueAddress": "Ground and 1st Floor, Samarth Complex, Tavadia Char Rasta, Siddhpur, Gujarat 384151, India",
    "VenueCode": "MHCL",
    "VenueName": "Movie Hub (City Light Cinema): Siddhpur"
  },
  "MIMU": {
    "AvailableFormats": "3D|2D",
    "City": "Ghaziabad",
    "Latitude": "28.6791",
    "Longitude": "77.3589",
    "RegionCode": "NCR",
    "State": "NCR",
    "SubRegionCode": "GHAZ",
    "VenueAddress": "Laxmi Plaza Block 7 Sector 5, Rajendra Nagar, Opposite To Central Bank Of India, Ghaziabad, NCR 201006, India",
    "VenueCode": "MIMU",
    "VenueName": "Miraj Cinemas: M4U, Sahibabad"
  },
  "MJMC": {
    "AvailableFormats": "2D",
    "City": "Jiaganj",
    "Latitude": "24.2375",
    "Longitude": "88.2642",
    "RegionCode": "JAGJ",
    "State": "West Bengal",
    "SubRegionCode": "JAGJ",
    "VenueAddress": "Old Laxmi Talkies, Chudipatti Road, Jiaganj, West Bengal 742123, India",
    "VenueCode": "MJMC",
    "VenueName": "Mahabir Jain Municipalty Cultural: Jiaganj"
  },
  "MKMP": {
    "AvailableFormats": "2D|3D",
    "City": "Chittorgarh",
    "Latitude": "24.8821",
    "Longitude": "74.6355",
    "RegionCode": "COTT",
    "State": "Rajasthan",
    "SubRegionCode": "COTT",
    "VenueAddress": "3rd Floor, Maharani Padmini Mall, Near Panna Dhay Bus Stand, Chittorgarh, Rajasthan 312001, India",
    "VenueCode": "MKMP",
    "VenueName": "Mukta A2 Cinema: Maharani Padmini Mall,Chittorgarh"
  },
  "MLDP": {
    "AvailableFormats": "",
    "City": "Dehradun",
    "FirstTracked": "2026-07-14",
    "Latitude": "30.289",
    "Longitude": "77.9991",
    "RegionCode": "DEH",
    "State": "Uttarakhand",
    "SubRegionCode": "DEH",
    "VenueAddress": "The City Junction, 2nd Floor, Adjoining ISBT Dehradun, Haridwar Byepass Road, Dehradun, Uttarakhand 248001, India",
    "VenueCode": "MLDP",
    "VenueName": "Microcineplex Cinema: Dehradun"
  },
  "MMCJ": {
    "AvailableFormats": "2D",
    "City": "Jasdan",
    "Latitude": "22.0243",
    "Longitude": "71.1793",
    "RegionCode": "JASD",
    "State": "Gujarat",
    "SubRegionCode": "JASD",
    "VenueAddress": "Ring Road, Atkot Road, Aanand Nagar, Jasdan, Gujarat 360050, India",
    "VenueCode": "MMCJ",
    "VenueName": "Miraj Cinemas: Citypride Multiplex, Jasdan"
  },
  "MMKC": {
    "AvailableFormats": "2D",
    "City": "Chennai",
    "Latitude": "12.9198",
    "Longitude": "80.1957",
    "RegionCode": "CHEN",
    "State": "Tamil Nadu",
    "SubRegionCode": "CHEN",
    "VenueAddress": "No. 4/347 Velachery Main Road, Medavakkam, Chennai, Tamil Nadu 600100, India",
    "VenueCode": "MMKC",
    "VenueName": "Medavakkam Kumaran Cinemas RGB LASER Dolby Atmos"
  },
  "MMOC": {
    "AvailableFormats": "2D",
    "City": "Ghaziabad",
    "Latitude": "28.7354",
    "Longitude": "77.285",
    "RegionCode": "NCR",
    "State": "NCR",
    "SubRegionCode": "GHAZ",
    "VenueAddress": "D-Block No. 2, Near Bus Stand, Loni, Ghaziabad, NCR 201102, India",
    "VenueCode": "MMOC",
    "VenueName": "Movie Magic Cinema: Ghaziabad"
  },
  "MMTR": {
    "AvailableFormats": "2D",
    "City": "Kottayam",
    "Latitude": "9.5866",
    "Longitude": "76.5213",
    "RegionCode": "ETTU",
    "State": "Kerala",
    "SubRegionCode": "ETTU",
    "VenueAddress": "Main Central Road, Kollam - Theni Highway, Near BSNL Bhavan, Kottayam, Kerala 686001, India",
    "VenueCode": "MMTR",
    "VenueName": "Dhanya Remya: Kottayam"
  },
  "MMZM": {
    "AvailableFormats": "2D",
    "City": "Indore",
    "Latitude": "22.7525",
    "Longitude": "75.8969",
    "RegionCode": "IND",
    "State": "Madhya Pradesh",
    "SubRegionCode": "IND",
    "VenueAddress": "Mangal City, Plot No.A-1, PU-4, Garipipliya Road Scheme No.54, Vijay Nagar, Indore, Madhya Pradesh 452010, India",
    "VenueCode": "MMZM",
    "VenueName": "Mangal Multiplex: Indore"
  },
  "MNRL": {
    "AvailableFormats": "2D",
    "City": "Kallur",
    "Latitude": "13.5572",
    "Longitude": "78.9892",
    "RegionCode": "KLUR",
    "State": "Andhra Pradesh",
    "SubRegionCode": "KLUR",
    "VenueAddress": "Kallur - Punganur Road, Near SRK gardens, Kallur, Andhra Pradesh 517113, India",
    "VenueCode": "MNRL",
    "VenueName": "MNR Cinemax - Prabhakar Picture Palace: Kallur(AP)"
  },
  "MPTT": {
    "AvailableFormats": "2D",
    "City": "Tirupati",
    "Latitude": "13.6302",
    "Longitude": "79.4239",
    "RegionCode": "TIRU",
    "State": "Andhra Pradesh",
    "SubRegionCode": "TIRU",
    "VenueAddress": "Jayasam Road, Tata Nagar, Tirupati, Andhra Pradesh 517501, India",
    "VenueCode": "MPTT",
    "VenueName": "Pratap Delux A/c 2k Dolby Atmos: Tirupati"
  },
  "MRGT": {
    "AvailableFormats": "3D|2D",
    "City": "Hyderabad",
    "Latitude": "17.4938",
    "Longitude": "78.3193",
    "RegionCode": "HYD",
    "State": "Telangana",
    "SubRegionCode": "HYD",
    "VenueAddress": "H.No 5 - 54, Manjeera Road, Chandanagar, Beside Andhra Bank, Hyderabad, Telangana 500050, India",
    "VenueCode": "MRGT",
    "VenueName": "Miraj Cinemas: Geeta, Chandanagar"
  },
  "MRSW": {
    "AvailableFormats": "2D|3D",
    "City": "Vadodara",
    "Latitude": "22.2803",
    "Longitude": "73.1497",
    "RegionCode": "VAD",
    "State": "Gujarat",
    "SubRegionCode": "VAD",
    "VenueAddress": "Plot No. 28, Ward No. 11, Next to Sun Pharma Research Center, Sun Pharma Road, Soudagar Park, Tandalja, Vadodara, Gujarat 390012, India",
    "VenueCode": "MRSW",
    "VenueName": "Miraj Cinemas: SWC Mall"
  },
  "MSKT": {
    "AvailableFormats": "2D",
    "City": "Deoria",
    "Latitude": "26.5923",
    "Longitude": "83.6668",
    "RegionCode": "DEEO",
    "State": "Uttar Pradesh",
    "SubRegionCode": "DEEO",
    "VenueAddress": "Paragna-Silhat Panankunda, Tappa Indupur, Near Gauri Bazar Tehsil, Deoria, Uttar Pradesh 274202, India",
    "VenueCode": "MSKT",
    "VenueName": "Krishna Talkies: Gauri Bazar, Deoria"
  },
  "MTBG": {
    "AvailableFormats": "",
    "City": "Bhuj",
    "FirstTracked": "2026-07-14",
    "Latitude": "23.25014",
    "Longitude": "69.67019",
    "RegionCode": "BHUJ",
    "State": "Gujarat",
    "SubRegionCode": "BHUJ",
    "VenueAddress": "Near, Bus Station Road, Old Dhatia Falia, Bhuj, Gujarat 370001, India",
    "VenueCode": "MTBG",
    "VenueName": "Modern Cinema: Bhuj"
  },
  "MTDK": {
    "AvailableFormats": "2D|3D",
    "City": "Davanagere",
    "Latitude": "14.4551",
    "Longitude": "75.9056",
    "RegionCode": "DAVA",
    "State": "Karnataka",
    "SubRegionCode": "DAVA",
    "VenueAddress": "3rd Floor, SS Gardenia Mall, SS Layout, A Block, Shamanur Road, Near Lakshmi Flour Mill, Davanagere, Karnataka 577004, India",
    "VenueCode": "MTDK",
    "VenueName": "Movietime Cinemas: Davanagere"
  },
  "MTKV": {
    "AvailableFormats": "",
    "City": "Kavali",
    "FirstTracked": "2026-07-14",
    "Latitude": "14.9202",
    "Longitude": "79.9899",
    "RegionCode": "KVLI",
    "State": "Andhra Pradesh",
    "SubRegionCode": "KVLI",
    "VenueAddress": "Vaddi Palem, Theatre Road, Kavali, Andhra Pradesh 524201, India",
    "VenueCode": "MTKV",
    "VenueName": "Manasa Cinemas 4k Dolby Atmos: Kavali,Nellore"
  },
  "MTRA": {
    "AvailableFormats": "2D",
    "City": "Mylavaram",
    "Latitude": "16.7576",
    "Longitude": "80.6416",
    "RegionCode": "MYLA",
    "State": "Andhra Pradesh",
    "SubRegionCode": "MYLA",
    "VenueAddress": "Badrachalam Road, Near Shriram City Union Finance, Mylavaram, Andhra Pradesh 521230, India",
    "VenueCode": "MTRA",
    "VenueName": "Sangamithra Theater A/C 2K Dolby: Mylavaram"
  },
  "MUCH": {
    "AvailableFormats": "2D",
    "City": "Champa",
    "Latitude": "22.0317",
    "Longitude": "82.6428",
    "RegionCode": "CHAM",
    "State": "Chhattisgarh",
    "SubRegionCode": "CHAM",
    "VenueAddress": "Near Post Office, Anicut Road, Champa Basti, Champa, Chhattisgarh 495671, India",
    "VenueCode": "MUCH",
    "VenueName": "Mukund`s Multiplex: Champa"
  },
  "MVKH": {
    "AvailableFormats": "2D",
    "City": "Pollachi",
    "Latitude": "10.6558",
    "Longitude": "77.0055",
    "RegionCode": "POLL",
    "State": "Tamil Nadu",
    "SubRegionCode": "POLL",
    "VenueAddress": "19/1, Market Road, Theppakulam St, Vinayagar Kovil, Pollachi, Tamil Nadu 642001, India",
    "VenueCode": "MVKH",
    "VenueName": "Murukalaya & Vishal Cinema 4K Dolby Atmos:Pollachi"
  },
  "MXCK": {
    "AvailableFormats": "2D",
    "City": "Mumbai",
    "Latitude": "19.2123",
    "Longitude": "72.8716",
    "RegionCode": "MUMBAI",
    "State": "Maharashtra",
    "SubRegionCode": "MWEST",
    "VenueAddress": "4th Floor, Vishnu Shivam Mall, Dattani Park, Thakur Village, Kandivali East, Mumbai, Maharashtra 400101, India",
    "VenueCode": "MXCK",
    "VenueName": "Maxus Cinemas: Kandivali (E) Newly Opened"
  },
  "MYCR": {
    "AvailableFormats": "2D",
    "City": "Kariyad",
    "Latitude": "10.1616",
    "Longitude": "76.3648",
    "RegionCode": "ANGA",
    "State": "Kerala",
    "SubRegionCode": "ANGA",
    "VenueAddress": "National Highway 47, Nedumbassery, Near Cochin Airport, Kariyad, Kerala 683589, India",
    "VenueCode": "MYCR",
    "VenueName": "MY Cinemas RedCarpet: Kariyad"
  },
  "MZHA": {
    "AvailableFormats": "2D",
    "City": "Haldwani",
    "Latitude": "29.1085",
    "Longitude": "79.5245",
    "RegionCode": "HALD",
    "State": "Uttarakhand",
    "SubRegionCode": "HALD",
    "VenueAddress": "Keshav Plaza Gola Road, Naya Bazar, Haldwani, Uttarakhand 263139, India",
    "VenueCode": "MZHA",
    "VenueName": "Movie Zone Cinema: Haldwani Halduchour Lalkuan"
  },
  "NATP": {
    "AvailableFormats": "2D",
    "City": "Palakkad",
    "Latitude": "10.7774",
    "Longitude": "76.6533",
    "RegionCode": "PLKK",
    "State": "Kerala",
    "SubRegionCode": "PLKK",
    "VenueAddress": "Priyadarshini Road, Sultanpet, Near Apex Residence, Palakkad, Kerala 678001, India",
    "VenueCode": "NATP",
    "VenueName": "New Aroma Theatre: Palakkad"
  },
  "NCIL": {
    "AvailableFormats": "2D|3D",
    "City": "Lucknow",
    "Latitude": "26.848",
    "Longitude": "80.9394",
    "RegionCode": "LUCK",
    "State": "Uttar Pradesh",
    "SubRegionCode": "LUCK",
    "VenueAddress": "Lalbagh Crossing, Near Dhyanidhan Park Road, Lucknow, Uttar Pradesh 226001, India",
    "VenueCode": "NCIL",
    "VenueName": "Novelty MGS Cinemas Dolby Atmos: Lalbagh"
  },
  "NCSQ": {
    "AvailableFormats": "3D|2D",
    "City": "Guwahati",
    "Latitude": "26.1584",
    "Longitude": "91.6804",
    "RegionCode": "GUW",
    "State": "Assam",
    "SubRegionCode": "GUW",
    "VenueAddress": "PVR Limited, NCS Square Mall, A.T Road, Adabari, Guwahati, Assam 781012, India",
    "VenueCode": "NCSQ",
    "VenueName": "INOX: NCS Square, Guwahati"
  },
  "NEEB": {
    "AvailableFormats": "",
    "City": "Balotra",
    "FirstTracked": "2026-07-14",
    "Latitude": "25.833633",
    "Longitude": "72.24896",
    "RegionCode": "BALO",
    "State": "Rajasthan",
    "SubRegionCode": "BALO",
    "VenueAddress": "Gobra Nawapara, Jhanwar-Balotra Road, Balotra Urban Co-operative Bank, Balotra, Rajasthan 344022, India",
    "VenueCode": "NEEB",
    "VenueName": "Neelam Cinema: Balotra"
  },
  "NJCT": {
    "AvailableFormats": "",
    "City": "Thiruvalla",
    "FirstTracked": "2026-07-14",
    "Latitude": "9.376705",
    "Longitude": "76.55658",
    "RegionCode": "THVL",
    "State": "Kerala",
    "SubRegionCode": "THVL",
    "VenueAddress": "State Highway 12, Manipuzha Peringara Road, Near Kavumbhagom Municipality Complex, Thiruvalla, Kerala 689102, India",
    "VenueCode": "NJCT",
    "VenueName": "New Jacobs Cinemas Enhanced 4K: Thiruvalla"
  },
  "NMHT": {
    "AvailableFormats": "2D",
    "City": "Thalayolaparambu",
    "Latitude": "9.78703",
    "Longitude": "76.4405",
    "RegionCode": "THAL",
    "State": "Kerala",
    "SubRegionCode": "THAL",
    "VenueAddress": "Vaikom Road, Thalayolaparambu, Kottayam, Near Medicity Cooperative Hospital, Thalayolaparambu, Kerala 686605, India",
    "VenueCode": "NMHT",
    "VenueName": "Nice Movie House: Thalayolaparambu"
  },