{
  "AACS": {
    "AvailableFormats": "",
    "City": "Salem",
    "FirstTracked": "2026-07-14",
    "Latitude": "11.6699",
    "Longitude": "78.0181",
    "RegionCode": "SALM",
    "State": "Tamil Nadu",
    "SubRegionCode": "SALM",
    "VenueAddress": "Ranganathan Nagar, Alagusamudram, Salem, Tamil Nadu 636013, India",
    "VenueCode": "AACS",
    "VenueName": "Amman Arangham Cinemas A/C Dolby: Alagusamuthiram"
  },
  "AAPW": {
    "AvailableFormats": "2D",
    "City": "Warangal",
    "Latitude": "18.0077",
    "Longitude": "79.567",
    "RegionCode": "WAR",
    "State": "Telangana",
    "SubRegionCode": "WAR",
    "VenueAddress": "Ashoka A plex, Beside Warangal Hyderabad Highway, Near Govt Juniour College, Warangal, Telangana 506001, India",
    "VenueCode": "AAPW",
    "VenueName": "Asian Ashoka Air-Conditioned: Hanumakonda"
  },
  "ABCR": {
    "AvailableFormats": "",
    "City": "Vijayawada",
    "FirstTracked": "2026-07-14",
    "Latitude": "16.4859",
    "Longitude": "80.6828",
    "RegionCode": "VIJA",
    "State": "Andhra Pradesh",
    "SubRegionCode": "VIJA",
    "VenueAddress": "Elevate Mall, Pune-Machilipatnam Highway, Kanuru, Vijayawada, Andhra Pradesh 520007, India",
    "VenueCode": "ABCR",
    "VenueName": "ABR Cinemas Neo Screen X:  Kanuru, Vijayawada"
  },
  "ABTS": {
    "AvailableFormats": "2D",
    "City": "Palakollu",
    "Latitude": "16.5167",
    "Longitude": "81.7258",
    "RegionCode": "PLKL",
    "State": "Andhra Pradesh",
    "SubRegionCode": "PLKL",
    "VenueAddress": "Money Market Road, Near Kanaka Durga Maa Temple, Palakollu, Andhra Pradesh 534260, India",
    "VenueCode": "ABTS",
    "VenueName": "Adabala Theatre Screen 1: Palakollu"
  },
  "ACDC": {
    "AvailableFormats": "2D",
    "City": "Chhatarpur",
    "Latitude": "24.8849",
    "Longitude": "79.5946",
    "RegionCode": "CHHT",
    "State": "Madhya Pradesh",
    "SubRegionCode": "CHHT",
    "VenueAddress": "Green Avenue Colony, Next to Dr. Radhakrishna Higher Secondary School, Chhatarpur, Madhya Pradesh 471001, India",
    "VenueCode": "ACDC",
    "VenueName": "Ashoka Cineplex: Chhatarpur"
  },
  "ACID": {
    "AvailableFormats": "",
    "City": "Idar",
    "FirstTracked": "2026-07-14",
    "Latitude": "23.80376",
    "Longitude": "72.993935",
    "RegionCode": "IDAR",
    "State": "Gujarat",
    "SubRegionCode": "IDAR",
    "VenueAddress": "Himatnagar Highway, Sapawada, Idar, Gujarat 383430, India",
    "VenueCode": "ACID",
    "VenueName": "Time Cinema: Idar"
  },
  "ACKZ": {
    "AvailableFormats": "2D",
    "City": "Kozhikode",
    "Latitude": "11.2554",
    "Longitude": "75.7847",
    "RegionCode": "KOZH",
    "State": "Kerala",
    "SubRegionCode": "KOZH",
    "VenueAddress": "No 17/256, Pavamani Road, Kozhikode, Kerala 673001, India",
    "VenueCode": "ACKZ",
    "VenueName": "ARC Coronation 4K Dolby Atmos"
  },
  "ACON": {
    "AvailableFormats": "2D",
    "City": "Chennai",
    "Latitude": "12.8505",
    "Longitude": "80.2257",
    "RegionCode": "CHEN",
    "State": "Tamil Nadu",
    "SubRegionCode": "CHEN",
    "VenueAddress": "Vivira Mall, 5th Floor, Navalur, Old Mahabalipuram Road, Near ETA Techno Park Entrance, Chennai, Tamil Nadu 603103, India",
    "VenueCode": "ACON",
    "VenueName": "AGS Cinemas OMR: Navlur"
  },
  "ACTC": {
    "AvailableFormats": "",
    "City": "Trivandrum",
    "FirstTracked": "2026-07-14",
    "Latitude": "8.497059",
    "Longitude": "76.937096",
    "RegionCode": "TRIV",
    "State": "Kerala",
    "SubRegionCode": "TRIV",
    "VenueAddress": "SRA-24, Vanchiyoor, Thiruvananthapuram, Trivandrum, Kerala 695035, India",
    "VenueCode": "ACTC",
    "VenueName": "Artech Cinemas: Trivandrum"
  },
  "ACXK": {
    "AvailableFormats": "2D",
    "City": "Kichha",
    "Latitude": "28.9107",
    "Longitude": "79.5144",
    "RegionCode": "KCHA",
    "State": "Uttarakhand",
    "SubRegionCode": "KCHA",
    "VenueAddress": "Bareilly Road, Main Market, Kichha, Uttarakhand 263148, India",
    "VenueCode": "ACXK",
    "VenueName": "Anupam Cineplex: Kichha"
  },
  "ADKM": {
    "AvailableFormats": "2D",
    "City": "Kamareddy",
    "Latitude": "18.3286",
    "Longitude": "78.3357",
    "RegionCode": "KMRD",
    "State": "Telangana",
    "SubRegionCode": "KMRD",
    "VenueAddress": "Aldoor Road, Near Panchamukhi Hanuman Temple, Kamareddy, Telangana 503111, India",
    "VenueCode": "ADKM",
    "VenueName": "Asian Darshan: Kamareddy"
  },
  "AGSG": {
    "AvailableFormats": "2D",
    "City": "Hoshiarpur",
    "Latitude": "31.3192",
    "Longitude": "76.0614",
    "RegionCode": "HOSH",
    "State": "Punjab",
    "SubRegionCode": "HOSH",
    "VenueAddress": "AG Star Cinemaz and Fitness, DTF ( Drive Thru Food ) on Chandigarh Hoshiarpur Highway, Near Sahota Petro Village Badhowan Saila Khurd, Hoshiarpur, Punjab 144529, India",
    "VenueCode": "AGSG",
    "VenueName": "AG Star Cinema: Saila Khurd"
  },
  "AKCC": {
    "AvailableFormats": "2D",
    "City": "Cherupuzha",
    "Latitude": "12.27429",
    "Longitude": "75.36086",
    "RegionCode": "CRUZ",
    "State": "Kerala",
    "SubRegionCode": "CRUZ",
    "VenueAddress": "Cherupuzha Road, ., Cherupuzha, Kerala 670511, India",
    "VenueCode": "AKCC",
    "VenueName": "Ak CinePalace by Sj: 4K Dolby Atmos"
  },
  "AKTB": {
    "AvailableFormats": "2D|3D",
    "City": "Burhanpur",
    "Latitude": "21.3031",
    "Longitude": "76.2225",
    "RegionCode": "BRHP",
    "State": "Madhya Pradesh",
    "SubRegionCode": "BRHP",
    "VenueAddress": "Amrawati Road, Near Kamal Plaza, Burhanpur, Madhya Pradesh 450331, India",
    "VenueCode": "AKTB",
    "VenueName": "Ankita Multiplex: Burhanpur"
  },
  "ALCT": {
    "AvailableFormats": "",
    "City": "Taliparamba",
    "FirstTracked": "2026-07-14",
    "Latitude": "12.039735",
    "Longitude": "75.356735",
    "RegionCode": "TALI",
    "State": "Kerala",
    "SubRegionCode": "TALI",
    "VenueAddress": "National Highway, Taliparamba Payyanur, Main Road, Taliparamba, Kerala 670141, India",
    "VenueCode": "ALCT",
    "VenueName": "Alinkeel Cinemas 2K Atmos 7.1: Taliparamba"
  },
  "AMBT": {
    "AvailableFormats": "3D|2D",
    "City": "Nagpur",
    "Latitude": "21.1163",
    "Longitude": "79.0128",
    "RegionCode": "NAGP",
    "State": "Maharashtra",
    "SubRegionCode": "NAGP",
    "VenueAddress": "Bansi Nagar, S R P Camp, Digdoh, Nagpur, Maharashtra 440016, India",
    "VenueCode": "AMBT",
    "VenueName": "AM Cinema: Bansi Nagar, Nagpur"
  },
  "AMGD": {
    "AvailableFormats": "2D",
    "City": "Ahmedabad",
    "Latitude": "23.0922",
    "Longitude": "72.5457",
    "RegionCode": "AHD",
    "State": "Gujarat",
    "SubRegionCode": "AHD",
    "VenueAddress": "Vandematram, 6th Floor, Block A, Shakti Etc, Nr. D-Mart, Gota Road, Opp Nayra Petrol Pump, Gota, Ahmedabad, Gujarat 382481, India",
    "VenueCode": "AMGD",
    "VenueName": "Apple Multiplex: Gota, Ahmedabad"
  },
  "AMOE": {
    "AvailableFormats": "3D|2D",
    "City": "Amravati",
    "Latitude": "20.8983",
    "Longitude": "77.7477",
    "RegionCode": "AMRA",
    "State": "Maharashtra",
    "SubRegionCode": "AMRA",
    "VenueAddress": "Elite Mall, Guruchhaya Colony, Saturna, Sai Nagar,Badnera Road, Near Bhakti Dham Mandir, Amravati, Maharashtra 444607, India",
    "VenueCode": "AMOE",
    "VenueName": "E Orbit Multiplex: Amravati"
  },
  "ANAC": {
    "AvailableFormats": "",
    "City": "Chennai",
    "FirstTracked": "2026-07-14",
    "Latitude": "13.067187",
    "Longitude": "80.27129",
    "RegionCode": "CHEN",
    "State": "Tamil Nadu",
    "SubRegionCode": "CHEN",
    "VenueAddress": "New No 21,Anna Salai, Mount Road, Near Gee Gee Complex, Chennai, Tamil Nadu 600014, India",
    "VenueCode": "ANAC",
    "VenueName": "Anna Cinemas: Mount Road"
  },
  "ANES": {
    "AvailableFormats": "3D|2D",
    "City": "Chhatrapati Sambhajinagar (Aurangabad)",
    "Latitude": "19.879",
    "Longitude": "75.3355",
    "RegionCode": "AURA",
    "State": "Maharashtra",
    "SubRegionCode": "AURA",
    "VenueAddress": "Near Central Telegraph Office, Bahadurpura Mondha Road, Aurangabad HO, Near Jafar Gate, Chhatrapati Sambhaji Nagar, Near Jaffer Gate, Chhatrapati Sambhajinagar (Aurangabad), Maharashtra 431001, India",
    "VenueCode": "ANES",
    "VenueName": "Abhinay: Chhatrapati Sambhaji Nagar"
  },
  "ANRS": {
    "AvailableFormats": "2D",
    "City": "Sircilla",
    "Latitude": "18.3863",
    "Longitude": "78.8129",
    "RegionCode": "SIRC",
    "State": "Telangana",
    "SubRegionCode": "SIRC",
    "VenueAddress": "Sircilla - Siddipet Road, Near Andhra Bank, Sircilla, Telangana 505301, India",
    "VenueCode": "ANRS",
    "VenueName": "Asian Natraj Deluxe Theatre A/c: Sircilla"
  },
  "APAA": {
    "AvailableFormats": "2D",
    "City": "Mathabhanga",
    "Latitude": "26.3397",
    "Longitude": "89.2157",
    "RegionCode": "MABH",
    "State": "West Bengal",
    "SubRegionCode": "MABH",
    "VenueAddress": "Sitalkuchi Road, Near MINA Jewellary, Opposite Digital World, Mathabhanga, West Bengal 736146, India",
    "VenueCode": "APAA",
    "VenueName": "Apsara Cinema: Mathabhanga"
  },
  "APLP": {
    "AvailableFormats": "2D",
    "City": "Surat",
    "Latitude": "21.1812",
    "Longitude": "72.7679",
    "RegionCode": "SURT",
    "State": "Gujarat",
    "SubRegionCode": "SURT",
    "VenueAddress": "4th Floor, Zircon Arena, Pal Bhatha, Surat, Gujarat 394510, India",
    "VenueCode": "APLP",
    "VenueName": "Apple Cinema: Pal Bhatha"
  },
  "APST": {
    "AvailableFormats": "",
    "City": "Vijayapura",
    "FirstTracked": "2026-07-14",
    "Latitude": "16.831915",
    "Longitude": "75.72379",
    "RegionCode": "VJPR",
    "State": "Karnataka",
    "SubRegionCode": "VJPR",
    "VenueAddress": "Jadar Galli, Near Loyola Institute, Vijayapura, Karnataka 586101, India",
    "VenueCode": "APST",
    "VenueName": "Apsara Cineplex 70 mm: Bijapur"
  },
  "ARCB": {
    "AvailableFormats": "",
    "City": "Bardoli",
    "FirstTracked": "2026-07-14",
    "Latitude": "21.13157",
    "Longitude": "73.10262",
    "RegionCode": "BRDL",
    "State": "Gujarat",
    "SubRegionCode": "BRDL",
    "VenueAddress": "Alankar Cineplex, Station Road, Ramnagar,Opp Bardoli Sugar Factory, Near Bardoli Railway Station, Bardoli, Gujarat 394601, India",
    "VenueCode": "ARCB",
    "VenueName": "Alankar Cineplex: Bardoli"
  },
  "ARRO": {
    "AvailableFormats": "2D",
    "City": "Ooty",
    "Latitude": "11.4145",
    "Longitude": "76.709",
    "RegionCode": "OOTY",
    "State": "Tamil Nadu",
    "SubRegionCode": "OOTY",
    "VenueAddress": "Garden Road, Pudumund, Ooty, Tamil Nadu 643001, India",
    "VenueCode": "ARRO",
    "VenueName": "The Assembly Rooms: Ooty"
  },
  "ASBL": {
    "AvailableFormats": "2D",
    "City": "Siddipet",
    "Latitude": "18.1039",
    "Longitude": "78.8569",
    "RegionCode": "SDDP",
    "State": "Telangana",
    "SubRegionCode": "SDDP",
    "VenueAddress": "Srinivas Nagar, Siddipet - Karimnagar Road, Siddipet, Telangana 502103, India",
    "VenueCode": "ASBL",
    "VenueName": "Asian Balaji 70MM A/C: Siddipet"
  },
  "ASHC": {
    "AvailableFormats": "2D",
    "City": "Pune",
    "Latitude": "18.6148",
    "Longitude": "73.8039",
    "RegionCode": "PUNE",
    "State": "Maharashtra",
    "SubRegionCode": "PUNE",
    "VenueAddress": "Shastri Nagar, Pimpri Colony, Pune, Maharashtra 411017, India",
    "VenueCode": "ASHC",
    "VenueName": "Ashok Theatre: Pimpri"
  },
  "ASMH": {
    "AvailableFormats": "2D",
    "City": "Mahbubnagar",
    "Latitude": "16.7437",
    "Longitude": "77.9912",
    "RegionCode": "JADC",
    "State": "Telangana",
    "SubRegionCode": "JADC",
    "VenueAddress": "Shah Saheb Gutta, Opposite Rehmania Masjid, Near Model Basic High School, Mahbubnagar, Telangana 509001, India",
    "VenueCode": "ASMH",
    "VenueName": "Asian Srinivasa: Mahbubnagar"
  },
  "ASRS": {
    "AvailableFormats": "",
    "City": "Hyderabad",
    "FirstTracked": "2026-07-14",
    "Latitude": "17.311466",
    "Longitude": "78.43869",
    "RegionCode": "AUSH",
    "State": "Telangana",
    "SubRegionCode": "AUSH",
    "VenueAddress": "Kattedan Road, Ganesh Nagar, NGOS Colony, Kattedan Industrial Area, Old Kurnool Road, Hyderabad, Telangana 500077, India",
    "VenueCode": "ASRS",
    "VenueName": "Asian Swapna: Katedan"
  },
  "ASTK": {
    "AvailableFormats": "2D",
    "City": "Kottayam",
    "Latitude": "9.58609",
    "Longitude": "76.5245",
    "RegionCode": "ETTU",
    "State": "Kerala",
    "SubRegionCode": "ETTU",
    "VenueAddress": "T.B Road, Near Ksrtc Bus Stand, Near Abhilash Theater, Kottayam, Kerala 686001, India",
    "VenueCode": "ASTK",
    "VenueName": "Asha Theatre: Kottayam"
  },
  "ATBM": {
    "AvailableFormats": "",
    "City": "Barshi",
    "FirstTracked": "2026-07-14",
    "Latitude": "18.23297",
    "Longitude": "75.69112",
    "RegionCode": "BRHI",
    "State": "Maharashtra",
    "SubRegionCode": "BRHI",
    "VenueAddress": "Bhim nagar, Parshwanath Marg, Chinch Road, Barshi, Maharashtra 413401, India",
    "VenueCode": "ATBM",
    "VenueName": "Asha Talkies: Barshi, Maharashtra"
  },
  "ATKT": {
    "AvailableFormats": "2D",
    "City": "Kottayam",
    "Latitude": "9.58708",
    "Longitude": "76.5226",
    "RegionCode": "ETTU",
    "State": "Kerala",
    "SubRegionCode": "ETTU",
    "VenueAddress": "Main Central Road, Tourist Bunglow Road, Near Big Bazaar, Kottayam, Kerala 686001, India",
    "VenueCode": "ATKT",
    "VenueName": "Anupama Theatre Dolby 7.1: Kottayam"
  },
  "ATTR": {
    "AvailableFormats": "2D",
    "City": "Trivandrum",
    "Latitude": "8.48544",
    "Longitude": "76.9485",
    "RegionCode": "VKAL",
    "State": "Kerala",
    "SubRegionCode": "VKAL",
    "VenueAddress": "Power House Road, East Fort, Near State Bank Of India, Trivandrum, Kerala 695036, India",
    "VenueCode": "ATTR",
    "VenueName": "Ajanta Theatre 4K-Wide: Trivandrum"
  },
  "AVAB": {
    "AvailableFormats": "2D|3D",
    "City": "Bhimavaram",
    "Latitude": "16.5466",
    "Longitude": "81.5174",
    "RegionCode": "BHIM",
    "State": "Andhra Pradesh",
    "SubRegionCode": "BHIM",
    "VenueAddress": "Coastal City Center Mall , 3-1-74, Undi Road, Balusumoodi, Bhimavaram, Andhra Pradesh 534202, India",
    "VenueCode": "AVAB",
    "VenueName": "AVG Screens, 4K Dolby Atmos: Bhimavaram"
  },
  "AVSR": {
    "AvailableFormats": "2D",
    "City": "Hanumangarh",
    "Latitude": "29.6609",
    "Longitude": "74.3662",
    "RegionCode": "HNMG",
    "State": "Rajasthan",
    "SubRegionCode": "HNMG",
    "VenueAddress": "Factory Outlet, NH54, Hanumangarh Sangria Highway, Manaksar, 2 Std, Hanumangarh, Rajasthan 335513, India",
    "VenueCode": "AVSR",
    "VenueName": "AVS Cinema: Rajasthan"
  },
  "AYCZ": {
    "AvailableFormats": "2D",
    "City": "Zarap",
    "Latitude": "15.9309",
    "Longitude": "73.756",
    "RegionCode": "ZARA",
    "State": "Maharashtra",
    "SubRegionCode": "ZAEA",
    "VenueAddress": "Zarap Zero Point, Kudal Sindhudurg, Near Nemale Bridge, Zarap, Maharashtra 416510, India",
    "VenueCode": "AYCZ",
    "VenueName": "Aaradhya Cinema: Sawantwadi, Zarap"
  },
  "BALT": {
    "AvailableFormats": "2D",
    "City": "Bengaluru",
    "Latitude": "12.9256",
    "Longitude": "77.6077",
    "RegionCode": "HOKT",
    "State": "Karnataka",
    "SubRegionCode": "HOKT",
    "VenueAddress": "Near BTM Layout, Balaji Nagar, Tavarekere Main Road, Next To  Lakshmi Theater, Opposite to Forum Mall, Bengaluru, Karnataka 560081, India",
    "VenueCode": "BALT",
    "VenueName": "Balaji Theatre:Tavarekere(Next to Lakshmi Theatre)"
  },
  "BBPO": {
    "AvailableFormats": "2D|3D",
    "City": "Puttur (Karnataka)",
    "Latitude": "12.7596",
    "Longitude": "75.2062",
    "RegionCode": "PTTU",
    "State": "Karnataka",
    "SubRegionCode": "PTTU",
    "VenueAddress": "2nd Floor, GL One Mall, Pangalai Road, Puttur (Karnataka), Karnataka 574201, India",
    "VenueCode": "BBPO",
    "VenueName": "Bharath Cinemas: Puttur"
  },
  "BCKU": {
    "AvailableFormats": "2D|3D",
    "City": "Kundapura",
    "Latitude": "13.5862",
    "Longitude": "74.6984",
    "RegionCode": "KUNA",
    "State": "Karnataka",
    "SubRegionCode": "KUNA",
    "VenueAddress": "2nd Floor, Costal Crown, NH 66, Koteshwara, Kundapura, Karnataka 576222, India",
    "VenueCode": "BCKU",
    "VenueName": "Bharath Cinemas: Kundapura"
  },
  "BGTC": {
    "AvailableFormats": "2D",
    "City": "Chandbali",
    "Latitude": "20.7743",
    "Longitude": "86.7453",
    "RegionCode": "CHAZ",
    "State": "Odisha",
    "SubRegionCode": "CHAZ",
    "VenueAddress": "B.G Talkies, Sanpur, Po-Panchapada, Bhadrak, Chandbali, Odisha 756133, India",
    "VenueCode": "BGTC",
    "VenueName": "B.G. Talkies (AC, Dolby Digital Sound): Chandbali"
  },
  "BICJ": {
    "AvailableFormats": "2D",
    "City": "Jaipur",
    "Latitude": "26.965",
    "Longitude": "75.7812",
    "RegionCode": "JAIP",
    "State": "Rajasthan",
    "SubRegionCode": "JAIP",
    "VenueAddress": "B-6, Central Spine Road, Vidyadhar Nagar, Near Delhi Public School, Jaipur, Rajasthan 302039, India",
    "VenueCode": "BICJ",
    "VenueName": "Cinestar Multiplex: Vidhyadhar Nagar"
  },
  "BJNG": {
    "AvailableFormats": "2D",
    "City": "Hyderabad",
    "Latitude": "17.5122",
    "Longitude": "78.4486",
    "RegionCode": "HYD",
    "State": "Telangana",
    "SubRegionCode": "HYD",
    "VenueAddress": "Pipe Line Road, Phase 1, Shapur Nagar, Jeedimetla, Near Ranga Theatre, Hyderabad, Telangana 500055, India",
    "VenueCode": "BJNG",
    "VenueName": "Bhujanga 70MM: Jeedimetla"
  },
  "BLDG": {
    "AvailableFormats": "",
    "City": "Dungarpur",
    "FirstTracked": "2026-07-14",
    "Latitude": "23.826712",
    "Longitude": "73.69952",
    "RegionCode": "DUNG",
    "State": "Rajasthan",
    "SubRegionCode": "DUNG",
    "VenueAddress": "Vasundra Vihar, Murla, Ganesh Temple Road, Near Sintex Mill, Dungarpur, Rajasthan 314001, India",
    "VenueCode": "BLDG",
    "VenueName": "BL Cinemas: Dungarpur"
  },
  "BMMB": {
    "AvailableFormats": "",
    "City": "Gudivada",
    "FirstTracked": "2026-07-14",
    "Latitude": "16.4387",
    "Longitude": "80.9925",
    "RegionCode": "GUDI",
    "State": "Andhra Pradesh",
    "SubRegionCode": "GUDI",
    "VenueAddress": "Santhi Nagar, Loya Vari Street, Near Sri Sai Ratna Eye Hospital, Gudivada, Andhra Pradesh 521301, India",
    "VenueCode": "BMMB",
    "VenueName": "Bommarillu Cinemas 4k Dolby Laser: Gudivada"
  },
  "BOLY": {
    "AvailableFormats": "",
    "City": "Guntur",
    "FirstTracked": "2026-07-14",
    "Latitude": "16.308254",
    "Longitude": "80.43438",
    "RegionCode": "GUNT",
    "State": "Andhra Pradesh",
    "SubRegionCode": "GUNT",
    "VenueAddress": "Lakshmipuram Main Road, Brodipet, Near PMG Complex, Guntur, Andhra Pradesh 522002, India",
    "VenueCode": "BOLY",
    "VenueName": "Bollywood Theatre: Guntur"
  },
  "BSGB": {
    "AvailableFormats": "2D",
    "City": "Padubidri",
    "Latitude": "13.1406",
    "Longitude": "74.7739",
    "RegionCode": "PUYI",
    "State": "Karnataka",
    "SubRegionCode": "PUYI",
    "VenueAddress": "Bharath Cinemas,Door No: 1-95-1-37, 2nd Floor, Radha Market City, Near Bus Stand, Karkala Road, Padubidri, Karnataka 574111, India",
    "VenueCode": "BSGB",
    "VenueName": "Bharath Cinemas: Padubidri"
  },
  "BTCN": {
    "AvailableFormats": "2D",
    "City": "Nagpur",
    "Latitude": "21.1585",
    "Longitude": "79.0797",
    "RegionCode": "NAGP",
    "State": "Maharashtra",
    "SubRegionCode": "NAGP",
    "VenueAddress": "Mount Road Ext, Liberty Chowk Sadar, Nagpur, Maharashtra 440001, India",
    "VenueCode": "BTCN",
    "VenueName": "Buty Cineplex-Sadar: Nagpur"
  },
  "BWCB": {
    "AvailableFormats": "IMAX 2D|2D",
    "City": "Coimbatore",
    "Latitude": "11.0459",
    "Longitude": "77.0415",
    "RegionCode": "COIM",
    "State": "Tamil Nadu",
    "SubRegionCode": "COIM",
    "VenueAddress": "96, Broadway Square, Off Avinashi Road, Civil Aerodrome Post, Coimbatore, Tamil Nadu 641014, India",
    "VenueCode": "BWCB",
    "VenueName": "Broadway Cinemas: Coimbatore"
  },
  "CAGL": {
    "AvailableFormats": "3D|2D",
    "City": "Navi Mumbai",
    "Latitude": "19.1203",
    "Longitude": "73.0071",
    "RegionCode": "MUMBAI",
    "State": "Maharashtra",
    "SubRegionCode": "THAN",
    "VenueAddress": "Cinepolis India Pvt Ltd  Aurum Square, Aurum Q Parc, Ghansoli, Navi Mumbai, Maharashtra 400701, India",
    "VenueCode": "CAGL",
    "VenueName": "Cinepolis: Aurum, Ghansoli, Navi Mumbai"
  },
  "CBZZ": {
    "AvailableFormats": "2D",
    "City": "Jalpaiguri",
    "Latitude": "26.5285",
    "Longitude": "88.7193",
    "RegionCode": "JPG",
    "State": "West Bengal",
    "SubRegionCode": "JPG",
    "VenueAddress": "3rd Floor, Palm Plaza, Ukil Para, Silpasamiti Para, Opposite Union Bank, Jalpaiguri, West Bengal 735101, India",
    "VenueCode": "CBZZ",
    "VenueName": "Cinebazz: Jalpaiguri"
  },
  "CCCF": {
    "AvailableFormats": "",
    "City": "Patna",
    "FirstTracked": "2026-07-14",
    "Latitude": "25.573185",
    "Longitude": "85.237976",
    "RegionCode": "PATN",
    "State": "Bihar",
    "SubRegionCode": "PATN",
    "VenueAddress": "City Cine Cafe City Hotel, NH 30, Adjacent to City Fuels Petrol Pump, Near Toll Plaza, Patna, Bihar 800009, India",
    "VenueCode": "CCCF",
    "VenueName": "City Cine Cafe, Karmalichak: Patna City"
  },
  "CCKN": {
    "AvailableFormats": "",
    "City": "Nagpur",
    "FirstTracked": "2026-07-14",
    "Latitude": "21.0532",
    "Longitude": "79.0626",
    "RegionCode": "NAGP",
    "State": "Maharashtra",
    "SubRegionCode": "NAGP",
    "VenueAddress": "Shankarpur Road, New Khapri, Nagpur, Maharashtra 441108, India",
    "VenueCode": "CCKN",
    "VenueName": "Cine Chourangi: Khapri, Nagpur"
  },
  "CCMO": {
    "AvailableFormats": "2D",
    "City": "Morbi",
    "Latitude": "22.7177",
    "Longitude": "70.7789",
    "RegionCode": "MOBI",
    "State": "Gujarat",
    "SubRegionCode": "MOBI",
    "VenueAddress": "Survey No-694 P 270, Lajai, Rajkot Road, Morbi, Gujarat 363650, India",
    "VenueCode": "CCMO",
    "VenueName": "Cine36 Cineplex: Morbi"
  },
  "CCPM": {
    "AvailableFormats": "2D",
    "City": "Malout",
    "Latitude": "30.2105",
    "Longitude": "74.4858",
    "RegionCode": "MALO",
    "State": "Punjab",
    "SubRegionCode": "MALO",
    "VenueAddress": "City Crown Plaza, SH16, Muktsar Road, Near Pritam Palace, Malout, Punjab 152107, India",
    "VenueCode": "CCPM",
    "VenueName": "CCP Cineplex: Malout"
  },
  "CCSN": {
    "AvailableFormats": "2D",
    "City": "Chengannur",
    "Latitude": "9.31838",
    "Longitude": "76.6111",
    "RegionCode": "CHEG",
    "State": "Kerala",
    "SubRegionCode": "CHEG",
    "VenueAddress": "MC Road, Chengannur, Kerala, Opposite KSRTC Bus Stand, Chengannur, Kerala 689121, India",
    "VenueCode": "CCSN",
    "VenueName": "C Cinemas: Chengannur"
  },
  "CDDP": {
    "AvailableFormats": "2D",
    "City": "Punalur",
    "Latitude": "9.02059",
    "Longitude": "76.9193",
    "RegionCode": "PUNA",
    "State": "Kerala",
    "SubRegionCode": "PUNA",
    "VenueAddress": "Market Road, Chemmanthoor, Punalur, Kerala 691305, India",
    "VenueCode": "CDDP",
    "VenueName": "Deva Carnival Cinemas: D Mall, Punalur"
  },
  "CEIM": {
    "AvailableFormats": "2D|3D",
    "City": "Vadodara",
    "Latitude": "22.3181",
    "Longitude": "73.228",
    "RegionCode": "ANKV",
    "State": "Gujarat",
    "SubRegionCode": "ANKV",
    "VenueAddress": "3rd/4th Floor Earth Icon,New VIP Ring Road, Khodiyar Nagar Char Rasta,Near, Uma Char Rasta, Opposite Venice Villa, Khodiyar Nagar,Kishanwadi, Vadodara, Gujarat 390022, India",
    "VenueCode": "CEIM",
    "VenueName": "Cinemarc: New VIP Road"
  },
  "CGCA": {
    "AvailableFormats": "2D",
    "City": "Cherpulassery",
    "Latitude": "10.8768",
    "Longitude": "76.3129",
    "RegionCode": "CHER",
    "State": "Kerala",
    "SubRegionCode": "CHER",
    "VenueAddress": "Main Road, Near Federal Bank ATM, Cherpulassery, Kerala 679503, India",
    "VenueCode": "CGCA",
    "VenueName": "Cheloor Grand Cinemas: Cherpulassery"
  },
  "CGMO": {
    "AvailableFormats": "2D",
    "City": "Ahmedabad",
    "Latitude": "23.0926",
    "Longitude": "72.5929",
    "RegionCode": "AHD",
    "State": "Gujarat",
    "SubRegionCode": "AHD",
    "VenueAddress": "Indira Nagar,Parvati Nagar, Motera Stadium Road, Motera, Opposite Motera Stadium, Ahmedabad, Gujarat 380005, India",
    "VenueCode": "CGMO",
    "VenueName": "City Gold: Motera"
  },
  "CHHJ": {
    "AvailableFormats": "",
    "City": "Jamui",
    "FirstTracked": "2026-07-14",
    "Latitude": "24.94659",
    "Longitude": "86.21479",
    "RegionCode": "JUMI",
    "State": "Bihar",
    "SubRegionCode": "JUMI",
    "VenueAddress": "Lakhisarai Road, Ujhandi Near Panchmukhi Hanuman Mandir, Jamui, Bihar 811307, India",
    "VenueCode": "CHHJ",
    "VenueName": "Chhotu Maharaj Cine Cafe: Jamui"
  },
  "CHTP": {
    "AvailableFormats": "2D",
    "City": "Manawar",
    "Latitude": "22.2379",
    "Longitude": "75.0863",
    "RegionCode": "MANW",
    "State": "Madhya Pradesh",
    "SubRegionCode": "MANW",
    "VenueAddress": "Singhana Road, Near Punjab National Bank, Manawar, Madhya Pradesh 454446, India",
    "VenueCode": "CHTP",
    "VenueName": "Chaitanya Plaza: Manawar"
  },
  "CIMA": {
    "AvailableFormats": "2D",
    "City": "Rohtak",
    "Latitude": "28.8954",
    "Longitude": "76.5825",
    "RegionCode": "ROH",
    "State": "Haryana",
    "SubRegionCode": "ROH",
    "VenueAddress": "City Centre Mall, HUDA Complex, Old Gym Khana Club, Rohtak, Haryana 124001, India",
    "VenueCode": "CIMA",
    "VenueName": "Citi Max Cinemas: Rohtak"
  },
  "CKKX": {
    "AvailableFormats": "2D|3D",
    "City": "Kankroli",
    "Latitude": "25.0525",
    "Longitude": "73.8843",
    "RegionCode": "KANL",
    "State": "Rajasthan",
    "SubRegionCode": "KANL",
    "VenueAddress": "2nd Floor, Krishna Ashish, TVS Circle, Mahadev Colony, Kankroli, Rajasthan 313324, India",
    "VenueCode": "CKKX",
    "VenueName": "Cine Square Cinemas: Kankroli"
  },
  "CLDJ": {
    "AvailableFormats": "2D",
    "City": "Ahmedabad",
    "Latitude": "23.001",
    "Longitude": "72.5348",
    "RegionCode": "AHD",
    "State": "Gujarat",
    "SubRegionCode": "AHD",
    "VenueAddress": "1st Floor ,City Gold center, Opposite Avadh Hotel, Jivraj Apmc Metro Route, Near Jivraj Police Chowki, Ahmedabad, Gujarat 380007, India",
    "VenueCode": "CLDJ",
    "VenueName": "City Gold: Jivraj Park"
  },
  "CLMM": {
    "AvailableFormats": "2D|3D",
    "City": "Mumbai",
    "Latitude": "19.0305",
    "Longitude": "72.8415",
    "RegionCode": "MUMBAI",
    "State": "Maharashtra",
    "SubRegionCode": "MCENT",
    "VenueAddress": "4th Floor, Ashford Chambers, L.J. Road, Mahim (West), Mumbai, Maharashtra 400016, India",
    "VenueCode": "CLMM",
    "VenueName": "Citylight Cinema: Mahim"
  },
  "CMCS": {
    "AvailableFormats": "",
    "City": "Sangamner",
    "FirstTracked": "2026-07-14",
    "Latitude": "19.597805",
    "Longitude": "74.18883",
    "RegionCode": "SMNE",
    "State": "Maharashtra",
    "SubRegionCode": "SMNE",
    "VenueAddress": "Survey No 108/32, Next to Hotel Padmini, Gunjalwadi Road, Ghulewadi- Sangamner, District- Ahmednagar, Sangamner, Maharashtra 422605, India",
    "VenueCode": "CMCS",
    "VenueName": "Chhotu Maharaj Cine Cafe: Sangamner"
  },
  "CMMA": {
    "AvailableFormats": "2D|3D",
    "City": "Hyderabad",
    "Latitude": "17.3538",
    "Longitude": "78.4206",
    "RegionCode": "HYD",
    "State": "Telangana",
    "SubRegionCode": "HYD",
    "VenueAddress": "Mantra Mall, Inner Ring Road, Royal Colony, Upparpally, Hyderabad, Telangana 500030, India",
    "VenueCode": "CMMA",
    "VenueName": "Cinepolis: Mantra Mall, Attapur"
  },
  "CMRM": {
    "AvailableFormats": "",
    "City": "Rewa",
    "FirstTracked": "2026-07-14",
    "Latitude": "24.6463",
    "Longitude": "81.5341",
    "RegionCode": "RWAA",
    "State": "Madhya Pradesh",
    "SubRegionCode": "RWAA",
    "VenueAddress": "Bypass Road Mangawan, Post Office Mangawan, Near Hero Agency, Rewa, Madhya Pradesh 486111, India",
    "VenueCode": "CMRM",
    "VenueName": "Chhotu Maharaj: Rewa,MP"
  },
  "CMVA": {
    "AvailableFormats": "2D|3D",
    "City": "Vadodara",
    "Latitude": "22.2945",
    "Longitude": "73.238",
    "RegionCode": "VAD",
    "State": "Gujarat",
    "SubRegionCode": "VAD",
    "VenueAddress": "2nd Floor, Vrundavan Mall, Vaghodia Dabhoi Ring Road, Near Parivar Char Rasta,Kendranagar, Above Sales India, Sarthi Nagar 2, Vadodara, Gujarat 390019, India",
    "VenueCode": "CMVA",
    "VenueName": "Cinemera Multiplex: Vadodara"
  },
  "CMZX": {
    "AvailableFormats": "2D",
    "City": "Chandausi",
    "Latitude": "28.4381",
    "Longitude": "78.7893",
    "RegionCode": "CHDN",
    "State": "Uttar Pradesh",
    "SubRegionCode": "CHDN",
    "VenueAddress": "Gata No 562, Vill Pathra, Shiv Ji Muchon Wala Temple, Shree Krishna Garden Colony, Sambhal, Chandausi, Uttar Pradesh 244412, India",
    "VenueCode": "CMZX",
    "VenueName": "Chhotu Maharaj Cine Cafe: Chandausi ,UP"
  },
  "CNEV": {
    "AvailableFormats": "",
    "City": "Noida",
    "FirstTracked": "2026-07-14",
    "Latitude": "28.5727",
    "Longitude": "77.3794",
    "RegionCode": "NCR",
    "State": "NCR",
    "SubRegionCode": "NOIDA",
    "VenueAddress": "3rd floor, Spectrum Metro Mall Phase 1, B Block, Sector 75, Noida, Noida, NCR 201301, India",
    "VenueCode": "CNEV",
    "VenueName": "1 Cinemas: Spectrum Metro Mall, Noida"
  },
  "CNPR": {
    "AvailableFormats": "2D",
    "City": "Guntur",
    "Latitude": "16.2916",
    "Longitude": "80.4375",
    "RegionCode": "GUNT",
    "State": "Andhra Pradesh",
    "SubRegionCode": "GUNT",
    "VenueAddress": "Nagarjuna Sagar Road, Srinivasarao Pet, Guntur, Andhra Pradesh 522003, India",
    "VenueCode": "CNPR",
    "VenueName": "Cine Prime: Guntur"
  },
  "CNTX": {
    "AvailableFormats": "",
    "City": "Thane",
    "FirstTracked": "2026-07-14",
    "Latitude": "19.1927",
    "Longitude": "72.9686",
    "RegionCode": "MUMBAI",
    "State": "Maharashtra",
    "SubRegionCode": "THNE",
    "VenueAddress": "4TH Floor, Rhythm Building, Old Aaradhana Cinemas, L.B.S. Marg, M.D. Road, Panchpakhdi, Naupada, Thane (West), Thane, Maharashtra 400602, India",
    "VenueCode": "CNTX",
    "VenueName": "ICONIX CINEMAS: (OLD AARADHANA TALKIES) THANE"
  },
  "CONS": {
    "AvailableFormats": "2D",
    "City": "Ahmedabad",
    "Latitude": "23.0354",
    "Longitude": "72.5045",
    "RegionCode": "AHD",
    "State": "Gujarat",
    "SubRegionCode": "AHD",
    "VenueAddress": "2nd Floor, Shilp Epitome, Behind Rajpath Rangoli Road, Bodakdev, Ahmedabad, Gujarat 380054, India",
    "VenueCode": "CONS",
    "VenueName": "Connplex Cinemas (Luxuriance): SBR"
  },
  "CPAS": {
    "AvailableFormats": "2D|3D",
    "City": "Bhopal",
    "Latitude": "23.1829",
    "Longitude": "77.4564",
    "RegionCode": "BHOP",
    "State": "Madhya Pradesh",
    "SubRegionCode": "BHOP",
    "VenueAddress": "3rd Floor, Aashima Mall, Danish Nagar, Bawadia Kalan, Hoshingabad Road, Bhopal, Madhya Pradesh 462026, India",
    "VenueCode": "CPAS",
    "VenueName": "Cinepolis: Aashima Mall, Bhopal"
  },
  "CPFT": {
    "AvailableFormats": "3D|2D",
    "City": "Pune",
    "Latitude": "18.4686",
    "Longitude": "73.8198",
    "RegionCode": "PUNE",
    "State": "Maharashtra",
    "SubRegionCode": "PUNE",
    "VenueAddress": "Near Manik Baug Petrol Pump, Sinhagad Road, Pune, Maharashtra 411041, India",
    "VenueCode": "CPFT",
    "VenueName": "Fun Time Multiplex: Sinhagad Road"
  },
  "CPKN": {
    "AvailableFormats": "2D",
    "City": "Katni",
    "Latitude": "23.8373",
    "Longitude": "80.3997",
    "RegionCode": "KATN",
    "State": "Madhya Pradesh",
    "SubRegionCode": "KATN",
    "VenueAddress": "3rd Floor, City Mall, Barhi Road, Gole Bazar, Katni, Madhya Pradesh 483501, India",
    "VenueCode": "CPKN",
    "VenueName": "City Pride: Katni"
  },
  "CPMU": {
    "AvailableFormats": "2D",
    "City": "Ahmedabad",
    "Latitude": "23.0289",
    "Longitude": "72.5088",
    "RegionCode": "AHD",
    "State": "Gujarat",
    "SubRegionCode": "AHD",
    "VenueAddress": "Baleshwar Square, Sarkhej Gandhinagar Highway, Opposite - ISKCON Temple, Ahmedabad, Gujarat 380055, India",
    "VenueCode": "CPMU",
    "VenueName": "City Pulse Miniplex: Iscon Circle S.G Highway"
  },
  "CPRG": {
    "AvailableFormats": "",
    "City": "Guntur",
    "FirstTracked": "2026-07-14",
    "Latitude": "16.29158",
    "Longitude": "80.437454",
    "RegionCode": "GUNT",
    "State": "Andhra Pradesh",
    "SubRegionCode": "GUNT",
    "VenueAddress": "Nagarjuna Sagar Road, Srinivasarao Pet, Guntur, Andhra Pradesh 522003, India",
    "VenueCode": "CPRG",
    "VenueName": "Cine Prime Screen 2 2K 7.1 Surround: Guntur"
  },
  "CPUO": {
    "AvailableFormats": "2D|3D",
    "City": "Hubli",
    "Latitude": "15.3509",
    "Longitude": "75.111",
    "RegionCode": "HUBL",
    "State": "Karnataka",
    "SubRegionCode": "HUBL",
    "VenueAddress": "3rd Floor, Urban Oasis Mall, Gokul Road, Hubli, Karnataka 580030, India",
    "VenueCode": "CPUO",
    "VenueName": "Cinepolis: Urban Oasis Mall, Hubli"
  },
  "CRJA": {
    "AvailableFormats": "2D|3D",
    "City": "Jamnagar",
    "Latitude": "22.4717",
    "Longitude": "70.049",
    "RegionCode": "JAM",
    "State": "Gujarat",
    "SubRegionCode": "JAM",
    "VenueAddress": "4th Floor, Crystal Mall, Airport Road, Khodiyar Colony, Jamnagar, Gujarat 361005, India",
    "VenueCode": "CRJA",
    "VenueName": "INOX: Crystal Mall, Jamnagar"
  },
  "CSCU": {
    "AvailableFormats": "",
    "City": "Varanasi",
    "FirstTracked": "2026-07-14",
    "Latitude": "25.41831",
    "Longitude": "82.88228",
    "RegionCode": "VAR",
    "State": "Uttar Pradesh",
    "SubRegionCode": "VAR",
    "VenueAddress": "Delhi Public School, Tilakdhari College Road, Satomahua, Varanasi, Varanasi, Uttar Pradesh 221105, India",
    "VenueCode": "CSCU",
    "VenueName": "Chhotu Maharaj Cine Cafe: Babatpur, Varanasi"
  },
  "CSQS": {
    "AvailableFormats": "2D|3D",
    "City": "Shirpur",
    "Latitude": "21.3451",
    "Longitude": "74.8847",
    "RegionCode": "SRUR",
    "State": "Maharashtra",
    "SubRegionCode": "SRUR",
    "VenueAddress": "2nd Floor, City Pride Mall, District Dhule, Near Recreation Garden and Next to Saheeba Hotel Mandal, Shirpur, Maharashtra 425405, India",
    "VenueCode": "CSQS",
    "VenueName": "Cine Square Cinemas: Shirpur"
  },
  "CSTP": {
    "AvailableFormats": "2D",
    "City": "Patna",
    "Latitude": "25.6051",
    "Longitude": "85.0788",
    "RegionCode": "PATN",
    "State": "Bihar",
    "SubRegionCode": "PATN",
    "VenueAddress": "3rd Floor, Braj Saroj Complex, Raja Bazar, Khajpura, Opposite Over Bridge Pillar No.29, Patna, Bihar 800014, India",
    "VenueCode": "CSTP",
    "VenueName": "Connplex Cinemas: Raja Bazar, Patna"
  },
  "CTKR": {
    "AvailableFormats": "2D",
    "City": "Kannur",
    "Latitude": "11.8646",
    "Longitude": "75.409",
    "RegionCode": "KANN",
    "State": "Kerala",
    "SubRegionCode": "KANN",
    "VenueAddress": "3rd Floor, Secura Centre Mall, BA 233/18, Thazhachovva, Elayavoor, Kannur, Kerala 670018, India",
    "VenueCode": "CTKR",
    "VenueName": "Cinepolis: Secura Centre, Kannur"
  },
  "CTNK": {
    "AvailableFormats": "2D|3D",
    "City": "Nashik",
    "Latitude": "19.9906",
    "Longitude": "73.7614",
    "RegionCode": "NASK",
    "State": "Maharashtra",
    "SubRegionCode": "NASK",
    "VenueAddress": "Sambaji Chowk, Lawate Nagar, Banyan Square, Untwadi, Nashik, Maharashtra 422009, India",
    "VenueCode": "CTNK",
    "VenueName": "PVR: City Center, Nashik"
  },
  "CUDN": {
    "AvailableFormats": "",
    "City": "Nagpur",
    "FirstTracked": "2026-07-14",
    "Latitude": "20.8422",
    "Longitude": "79.3181",
    "RegionCode": "NAGP",
    "State": "Maharashtra",
    "SubRegionCode": "NAGP",
    "VenueAddress": "Plot No. 1, 2, and 3, Giradkar Layout, Bypass Road, Nagpur, Maharashtra 441203, India",
    "VenueCode": "CUDN",
    "VenueName": "Chhotu Maharaj: Umred, Nagpur"
  },
  "CVMU": {
    "AvailableFormats": "",
    "City": "Hyderabad",
    "FirstTracked": "2026-07-14",
    "Latitude": "17.402",
    "Longitude": "78.5719",
    "RegionCode": "HYD",
    "State": "Telangana",
    "SubRegionCode": "HYD",
    "VenueAddress": "Main Road, IBP Petrol Bunk, Shanthi Nagar, Medchal Malkajgiri, Hyderabad, Telangana 500039, India",
    "VenueCode": "CVMU",
    "VenueName": "Cineverse Multiplex: Uppal"
  },
  "CXJD": {
    "AvailableFormats": "2D",
    "City": "Patna",
    "Latitude": "25.6106",
    "Longitude": "85.1404",
    "RegionCode": "PATN",
    "State": "Bihar",
    "SubRegionCode": "PATN",
    "VenueAddress": "4th Floor, J.D. Mall, S.P. Verma Road, Patna, Bihar 800001, India",
    "VenueCode": "CXJD",
    "VenueName": "Connplex Cinemas: S P Verma Road (JD Mall), Patna"
  },
  "CYKR": {
    "AvailableFormats": "",
    "City": "Pune",
    "FirstTracked": "2026-07-16",
    "Latitude": "18.5502",
    "Longitude": "73.9379",
    "RegionCode": "PUNE",
    "State": "Maharashtra",
    "SubRegionCode": "PUNE",
    "VenueAddress": "Nyati Plaza, Thite Nagar, Kharadi, Pune, Maharashtra 411014, India",
    "VenueCode": "CYKR",
    "VenueName": "City Pride, Nyati Plaza: Kharadi"
  },
  "DCAA": {
    "AvailableFormats": "",
    "City": "Barabanki",
    "FirstTracked": "2026-07-14",
    "Latitude": "26.9243",
    "Longitude": "81.1742",
    "RegionCode": "BARK",
    "State": "Uttar Pradesh",
    "SubRegionCode": "BARK",
    "VenueAddress": "Awadh avenue Mall, Awas Vikas Colony, Near RTO office, Barabanki, Uttar Pradesh 225001, India",
    "VenueCode": "DCAA",
    "VenueName": "DD Cinemas Awadh Avenue Mall: Barabanki"
  },
  "DCGO": {
    "AvailableFormats": "",
    "City": "Guruvayur",
    "FirstTracked": "2026-07-16",
    "Latitude": "10.5918",
    "Longitude": "76.0405",
    "RegionCode": "GUVY",
    "State": "Kerala",
    "SubRegionCode": "GUVY",
    "VenueAddress": "Opposite Temple Police Station, South Nada, Guruvayur, Kerala 680101, India",
    "VenueCode": "DCGO",
    "VenueName": "Devaky Cinemas, 3D Atmos Guruvayoor"
  },
  "DCRL": {
    "AvailableFormats": "2D",
    "City": "Pappanadu",
    "Latitude": "10.5423",
    "Longitude": "79.2821",
    "RegionCode": "MANB",
    "State": "Tamil Nadu",
    "SubRegionCode": "MANB",
    "VenueAddress": "SH 29, Pappanadu, Nemilithippiakudi, Pappanadu, Tamil Nadu 614626, India",
    "VenueCode": "DCRL",
    "VenueName": "Devasuki Cinemas Laser Dolby Atmos: Pappanadu"
  },
  "DDTD": {
    "AvailableFormats": "2D|3D",
    "City": "Dharmapuri",
    "Latitude": "12.1329",
    "Longitude": "78.1608",
    "RegionCode": "DMPI",
    "State": "Tamil Nadu",
    "SubRegionCode": "DMPI",
    "VenueAddress": "Dharmapuri, Tamil Nadu, Dharmapuri, Tamil Nadu 636701, India",
    "VenueCode": "DDTD",
    "VenueName": "DMAX DNC Theatres: Dharmapuri"
  },
  "DEVI": {
    "AvailableFormats": "2D",
    "City": "Ahmedabad",
    "Latitude": "23.073",
    "Longitude": "72.65",
    "RegionCode": "AHD",
    "State": "Gujarat",
    "SubRegionCode": "AHD",
    "VenueAddress": "Opp. Mahaprabhuji Bethak, Naroda, Near Axis Bank ATM, Ahmedabad, Gujarat 382330, India",
    "VenueCode": "DEVI",
    "VenueName": "Devi Multiplex: Naroda"
  },
  "DICI": {
    "AvailableFormats": "2D",
    "City": "Indore",
    "Latitude": "22.6273",
    "Longitude": "75.8388",
    "RegionCode": "IND",
    "State": "Madhya Pradesh",
    "SubRegionCode": "IND",
    "VenueAddress": "Windasa Theme Park, Near - State Institute of Hotel Management, Indore, Madhya Pradesh 453331, India",
    "VenueCode": "DICI",
    "VenueName": "Cine Wheels Drive in by Windasa: Indore"
  },
  "DLGK": {
    "AvailableFormats": "2D",
    "City": "Katni",
    "Latitude": "23.8149",
    "Longitude": "80.3782",
    "RegionCode": "KATN",
    "State": "Madhya Pradesh",
    "SubRegionCode": "KATN",
    "VenueAddress": "Relaince Petrol Pump, Shanti Nagar, Katni, Madhya Pradesh 483504, India",
    "VenueCode": "DLGK",
    "VenueName": "DLG Cinemas: Katni"
  },
  "DNCS": {
    "AvailableFormats": "2D",
    "City": "Shirur",
    "Latitude": "18.818",
    "Longitude": "74.3666",
    "RegionCode": "SHRU",
    "State": "Maharashtra",
    "SubRegionCode": "SHRU",
    "VenueAddress": "2nd Floor, A Wing, Oxy Gold, Baburao Nagar, Shirur Bypass, Shirur, Maharashtra 412210, India",
    "VenueCode": "DNCS",
    "VenueName": "Digigold Nova Cinemaz: Shirur"
  },
  "DRCA": {
    "AvailableFormats": "2D",
    "City": "Durgapur",
    "Latitude": "23.5376",
    "Longitude": "87.3015",
    "RegionCode": "DURGA",
    "State": "West Bengal",
    "SubRegionCode": "DURGA",
    "VenueAddress": "Nazrul Sarani, Doctor`s Colony, City Center, Near Srijani Auditorium, Durgapur, West Bengal 713216, India",
    "VenueCode": "DRCA",
    "VenueName": "Durgapur Cinema: Durgapur"
  },
  "DSCZ": {
    "AvailableFormats": "2D",
    "City": "Nabarangpur",
    "Latitude": "19.2204",
    "Longitude": "82.5404",
    "RegionCode": "NAGU",
    "State": "Odisha",
    "SubRegionCode": "NAGU",
    "VenueAddress": "Plot No. 1910, Katha No.122, Ichabatiguda, Nabarangpur, Odisha 764059, India",
    "VenueCode": "DSCZ",
    "VenueName": "DS3 Cinemas: Nabarangpur"
  },
  "DTVP": {
    "AvailableFormats": "2D",
    "City": "Vijayapura",
    "Latitude": "16.8269",
    "Longitude": "75.7164",
    "RegionCode": "VJPR",
    "State": "Karnataka",
    "SubRegionCode": "VJPR",
    "VenueAddress": "Tippu Sultan Circle, D.C Office Road, Near KSRTC Bus Stand, Vijayapura, Karnataka 586101, India",
    "VenueCode": "DTVP",
    "VenueName": "Dreamland A/C Dolby Theatre: Vijayapura (Bijapur)"
  },
  "DVPM": {
    "AvailableFormats": "2D",
    "City": "Pandharpur",
    "Latitude": "17.6802",
    "Longitude": "75.3231",
    "RegionCode": "PNDH",
    "State": "Maharashtra",
    "SubRegionCode": "PNDH",
    "VenueAddress": "Pune - Pandharpur Road, Market Yard, Gokul Nagar, Isbavi, Near New S.T. Stand, Pandharpur, Maharashtra 413304, India",
    "VenueCode": "DVPM",
    "VenueName": "DVP Square: Pandharpur"
  },
  "ECGN": {
    "AvailableFormats": "2D",
    "City": "Gondia",
    "Latitude": "21.4655",
    "Longitude": "80.1894",
    "RegionCode": "AMGN",
    "State": "Maharashtra",
    "SubRegionCode": "AMGN",
    "VenueAddress": "2nd Floor, Platinum Plaza, Ward No 9, Lohiya Ward, Pal Chowk, Rail Toly, Bhandarkar Road, Near State Bank of India, Gondia, Maharashtra 441614, India",
    "VenueCode": "ECGN",
    "VenueName": "EOS Cinemas: Gondia"
  },
  "EETS": {
    "AvailableFormats": "2D",
    "City": "Erode",
    "Latitude": "11.3288",
    "Longitude": "77.7098",
    "RegionCode": "EROD",
    "State": "Tamil Nadu",
    "SubRegionCode": "EROD",
    "VenueAddress": "468, Brough Road, Teachers Colony, Palayapalayam, Near Aanjaneyar Kovil, Erode, Tamil Nadu 638001, India",
    "VenueCode": "EETS",
    "VenueName": "Sangeetha Theatre A/C 4K Dolby 7.1: Erode"
  },
  "EMCI": {
    "AvailableFormats": "2D",
    "City": "Kolkata",
    "Latitude": "22.3973",
    "Longitude": "88.4883",
    "RegionCode": "BARR",
    "State": "West Bengal",
    "SubRegionCode": "BARR",
    "VenueAddress": "Baruipur - Champahati Road, Opposite State Bank of India, Kolkata, West Bengal 743330, India",
    "VenueCode": "EMCI",
    "VenueName": "Elora Multiplex: Champahati"
  },
  "ERSD": {
    "AvailableFormats": "2D|3D",
    "City": "Jabalpur",
    "Latitude": "23.1689",
    "Longitude": "79.9336",
    "RegionCode": "JABL",
    "State": "Madhya Pradesh",
    "SubRegionCode": "JABL",
    "VenueAddress": "Samdareeya Mall, Civic Centre, Near Mata Gujri College, Jabalpur, Madhya Pradesh 482001, India",
    "VenueCode": "ERSD",
    "VenueName": "Samdareeya Era Cinema: Jabalpur"
  },
  "ESSH": {
    "AvailableFormats": "2D",
    "City": "Hisar",
    "Latitude": "29.1543",
    "Longitude": "75.7222",
    "RegionCode": "HISR",
    "State": "Haryana",
    "SubRegionCode": "HISR",
    "VenueAddress": "Railway Road, Mehta Nagar, Rampura Mohalla, Hisar, Haryana 125001, India",
    "VenueCode": "ESSH",
    "VenueName": "Elite Cinema: Hisar"
  },
  "EVMC": {
    "AvailableFormats": "2D",
    "City": "Muvattupuzha",
    "Latitude": "9.97985",
    "Longitude": "76.5837",
    "RegionCode": "MUVA",
    "State": "Kerala",
    "SubRegionCode": "MUVA",
    "VenueAddress": "SH8, Kizhakkekara, Muvattupuzha, Near Nirmala Shopping Centre, Muvattupuzha, Kerala 686661, India",
    "VenueCode": "EVMC",
    "VenueName": "EVM Latha 4k 3D RGB Pure laser 7.1: Muvattupuzha"
  },
  "FCCT": {
    "AvailableFormats": "2D",
    "City": "Talwandi Bhai",
    "Latitude": "30.8429",
    "Longitude": "74.9334",
    "RegionCode": "TALW",
    "State": "Punjab",
    "SubRegionCode": "TALW",
    "VenueAddress": "Talwandi Bhai Moga Road, Near Fun Island, Talwandi Bhai, Punjab 142050, India",
    "VenueCode": "FCCT",
    "VenueName": "FunIsland Cinemas: Talwandi Bhai"
  },
  "FCRT": {
    "AvailableFormats": "2D",
    "City": "Betul",
    "Latitude": "21.9002",
    "Longitude": "77.9061",
    "RegionCode": "BETU",
    "State": "Madhya Pradesh",
    "SubRegionCode": "BETU",
    "VenueAddress": "Hirani Marg, Ganj, Opposite Kapoor Furnitures, Betul, Madhya Pradesh 460001, India",
    "VenueCode": "FCRT",
    "VenueName": "Rajtilak Multiscreen: Betul"
  },
  "FMDA": {
    "AvailableFormats": "2D|3D",
    "City": "Mumbai",
    "Latitude": "19.2633",
    "Longitude": "72.8746",
    "RegionCode": "MUMBAI",
    "State": "Maharashtra",
    "SubRegionCode": "MWEST",
    "VenueAddress": "3rd Floor, Thakur Mall, Opposite Sunshine Hotel, Near Dahisar Toll Naka, Dahisar East, Mumbai, Maharashtra 400068, India",
    "VenueCode": "FMDA",
    "VenueName": "INOX: Thakur Mall, Dahisar"
  },
  "FMPT": {
    "AvailableFormats": "2D",
    "City": "Petlad",
    "Latitude": "22.4938",
    "Longitude": "72.8013",
    "RegionCode": "BORM",
    "State": "Gujarat",
    "SubRegionCode": "BORM",
    "VenueAddress": "Novello Entertainment, Sunav Road, Near Sanatorium, Petlad, Gujarat 388450, India",
    "VenueCode": "FMPT",
    "VenueName": "Flamingo Cinemas: Petlad"
  },
  "FNCH": {
    "AvailableFormats": "2D|3D",
    "City": "Chandigarh",
    "Latitude": "30.713",
    "Longitude": "76.8447",
    "RegionCode": "CHD",
    "State": "Chandigarh",
    "SubRegionCode": "CHD",
    "VenueAddress": "Dhillon Complex, Mani Majra, Chandigarh, Chandigarh 160101, India",
    "VenueCode": "FNCH",
    "VenueName": "Fun Cinemas: Republic Mall, Chandigarh"
  },
  "FNLN": {
    "AvailableFormats": "3D|2D",
    "City": "Delhi",
    "Latitude": "28.6373",
    "Longitude": "77.2858",
    "RegionCode": "NCR",
    "State": "NCR",
    "SubRegionCode": "DELHI",
    "VenueAddress": "East Centre, Plot No-10, Main Vikas Marg, District Centre, Laxminagar, Delhi, NCR 110092, India",
    "VenueCode": "FNLN",
    "VenueName": "Cinepolis: V3S Mall, Laxmi Nagar"
  },
  "FRPU": {
    "AvailableFormats": "2D",
    "City": "Patran",
    "Latitude": "29.9458",
    "Longitude": "76.0642",
    "RegionCode": "PATR",
    "State": "Punjab",
    "SubRegionCode": "PATR",
    "VenueAddress": "Narwana Bye Pass Road, Patiala, Patran, Punjab 147105, India",
    "VenueCode": "FRPU",
    "VenueName": "Om Jee Cinemas: Patran"
  },
  "FVPN": {
    "AvailableFormats": "2D",
    "City": "Vadodara",
    "Latitude": "22.2892",
    "Longitude": "73.2096",
    "RegionCode": "ANKV",
    "State": "Gujarat",
    "SubRegionCode": "ANKV",
    "VenueAddress": "9/10,Pratapnagar Road, Pratapnagar, Bhatia Chawl, Opposite Yogini Vasantdevi Hospital,Moghul Wada, Vadodara, Gujarat 390004, India",
    "VenueCode": "FVPN",
    "VenueName": "Cinemarc Vihar: Pratapnagar"
  },
  "GAJK": {
    "AvailableFormats": "2D",
    "City": "Khamgaon",
    "Latitude": "20.7055",
    "Longitude": "76.5675",
    "RegionCode": "KHMG",
    "State": "Maharashtra",
    "SubRegionCode": "KHMG",
    "VenueAddress": "Gandhi Chowk, Jagdamba Mata Marg, Opposite Congress Office, Khamgaon, Maharashtra 444303, India",
    "VenueCode": "GAJK",
    "VenueName": "Gajanan Talkies: Khamgaon"
  },
  "GAUT": {
    "AvailableFormats": "2D",
    "City": "Berhampur",
    "Latitude": "19.3128",
    "Longitude": "84.7861",
    "RegionCode": "BERP",
    "State": "Odisha",
    "SubRegionCode": "BERP",
    "VenueAddress": "Gandhi Nagar, Near Hanuman Temple, Berhampur, Odisha 760001, India",
    "VenueCode": "GAUT",
    "VenueName": "Gautam Cinema A/C Dolby Digital 2K: Berhampur"
  },
  "GCCH": {
    "AvailableFormats": "2D",
    "City": "Raigarh",
    "Latitude": "21.8949",
    "Longitude": "83.3958",
    "RegionCode": "RAIG",
    "State": "Chhattisgarh",
    "SubRegionCode": "RAIG",
    "VenueAddress": "Grand Mall, 4th Floor, Gouri Shankar Mandir Chowk, Raigarh, Chhattisgarh 496001, India",
    "VenueCode": "GCCH",
    "VenueName": "Grand Cinemas: Raigarh"
  },
  "GCFK": {
    "AvailableFormats": "2D",
    "City": "Kochi",
    "Latitude": "9.95385",
    "Longitude": "76.2477",
    "RegionCode": "PALY",
    "State": "Kerala",
    "SubRegionCode": "PALY",
    "VenueAddress": "Pandikudy, Anavathil, Thamaraparambu, Chullickal, Near Keraleswaram Siva Temple, Kochi, Kerala 682001, India",
    "VenueCode": "GCFK",
    "VenueName": "G Cinemas Fort Kochi: 4K Dolby ATMOS"
  },
  "GCMA": {
    "AvailableFormats": "2D",
    "City": "Morena",
    "Latitude": "26.4905",
    "Longitude": "77.9869",
    "RegionCode": "MRMP",
    "State": "Madhya Pradesh",
    "SubRegionCode": "MRMP",
    "VenueAddress": "Hariraj Palace, M S Road, Morena, Madhya Pradesh 476001, India",
    "VenueCode": "GCMA",
    "VenueName": "Gold Cinema: Morena"
  },
  "GCRP": {
    "AvailableFormats": "2D",
    "City": "Chennai",
    "Latitude": "13.0999",
    "Longitude": "80.1795",
    "RegionCode": "CHEN",
    "State": "Tamil Nadu",
    "SubRegionCode": "CHEN",
    "VenueAddress": "64, Periyar Nagar, Mes Colony, Chennai, Tamil Nadu 600050, India",
    "VenueCode": "GCRP",
    "VenueName": "Green Cinemas 4K Atmos, PLF: Padi"
  },
  "GCYC": {
    "AvailableFormats": "2D",
    "City": "Yewat",
    "Latitude": "18.4758",
    "Longitude": "74.2682",
    "RegionCode": "YEWE",
    "State": "Maharashtra",
    "SubRegionCode": "YEWE",
    "VenueAddress": "Yawat Dorgewadi Road, Yavat, Yewat, Maharashtra 412214, India",
    "VenueCode": "GCYC",
    "VenueName": "Gunjan Cinema: Yewat"
  },
  "GDCP": {
    "AvailableFormats": "",
    "City": "Jaipur",
    "FirstTracked": "2026-07-14",
    "Latitude": "26.9355",
    "Longitude": "75.7919",
    "RegionCode": "JAIP",
    "State": "Rajasthan",
    "SubRegionCode": "JAIP",
    "VenueAddress": "City Plaza Mall, Jhotwara Road, Sindhi Colony, Bani Park, Jaipur, Rajasthan 302016, India",
    "VenueCode": "GDCP",
    "VenueName": "Gold Cinema: City Plaza, Bani Park (Newly Opened)"
  },
  "GDPB": {
    "AvailableFormats": "",
    "City": "Guwahati",
    "FirstTracked": "2026-07-14",
    "Latitude": "26.180979",
    "Longitude": "91.75014",
    "RegionCode": "GUW",
    "State": "Assam",
    "SubRegionCode": "GUW",
    "VenueAddress": "ASTC Complex, Paltan Bazar, Guwahati, Assam 781001, India",
    "VenueCode": "GDPB",
    "VenueName": "Gold Cinema: Paltan Bazar, Guwahati"
  },
  "GGBC": {
    "AvailableFormats": "2D",
    "City": "Chandrapur",
    "Latitude": "20.6064",
    "Longitude": "79.8648",
    "RegionCode": "CHAN",
    "State": "Maharashtra",
    "SubRegionCode": "CHAN",
    "VenueAddress": "New Gold Star Cinema, Churhe Bada, Brahmapuri, Chandrapur, Maharashtra 441206, India",
    "VenueCode": "GGBC",
    "VenueName": "New Gold Star Cinema: Bramhapuri, Chandrapur"
  },
  "GGYP": {
    "AvailableFormats": "",
    "City": "Chennai",
    "FirstTracked": "2026-07-14",
    "Latitude": "13.41042",
    "Longitude": "80.12794",
    "RegionCode": "CHEN",
    "State": "Tamil Nadu",
    "SubRegionCode": "CHEN",
    "VenueAddress": "No 109, GNT Road, Gummidipoondi, Chennai, Tamil Nadu 601201, India",
    "VenueCode": "GGYP",
    "VenueName": "Ganapathy Theatre 2K Dts: Gummidipoondi, Chennai"
  },
  "GKDN": {
    "AvailableFormats": "2D",
    "City": "Kondamallepally",
    "Latitude": "16.7125",
    "Longitude": "78.9814",
    "RegionCode": "NALK",
    "State": "Telangana",
    "SubRegionCode": "NALK",
    "VenueAddress": "3rd Floor, Vishnu Shopping Mall, MLG Road, Near AMC, Kondamallepally, Telangana 508243, India",
    "VenueCode": "GKDN",
    "VenueName": "GK Cineplex Dolby Atmos: Kondamallepally"
  },
  "GMCN": {
    "AvailableFormats": "2D",
    "City": "Jaipur",
    "Latitude": "26.9156",
    "Longitude": "75.8236",
    "RegionCode": "JAIP",
    "State": "Rajasthan",
    "SubRegionCode": "JAIP",
    "VenueAddress": "MI Road, Near syndicate Bank Bayana Branch, Jaipur, Rajasthan 302003, India",
    "VenueCode": "GMCN",
    "VenueName": "GEM Cinema: Jaipur"
  },
  "GOCS": {
    "AvailableFormats": "2D|3D",
    "City": "Mumbai",
    "Latitude": "19.0895",
    "Longitude": "72.8393",
    "RegionCode": "MUMBAI",
    "State": "Maharashtra",
    "SubRegionCode": "MWEST",
    "VenueAddress": "2nd Floor, Milan Garment Hub, Milan Subway Road, Santacruz West, Mumbai, Maharashtra 400054, India",
    "VenueCode": "GOCS",
    "VenueName": "Gold Cinema: Santacruz (W)"
  },
  "GPDC": {
    "AvailableFormats": "3D|2D",
    "City": "Gurugram (Gurgaon)",
    "Latitude": "28.5043",
    "Longitude": "77.0974",
    "RegionCode": "NCR",
    "State": "NCR",
    "SubRegionCode": "GURG",
    "VenueAddress": "4th Floor, Ambience Mall, NH-8, Near Toll Plaza, Gurugram (Gurgaon), NCR 122001, India",
    "VenueCode": "GPDC",
    "VenueName": "Gurugram: PVR Director`s Cut, Ambience Mall"
  },
  "GRCG": {
    "AvailableFormats": "2D|3D",
    "City": "Guwahati",
    "Latitude": "26.1799",
    "Longitude": "91.7514",
    "RegionCode": "GUW",
    "State": "Assam",
    "SubRegionCode": "GUW",
    "VenueAddress": "Grand Plaza, 5th Floor, Hotel Maitri Residency, G.S. Road, Paltan Bazar, Guwahati, Assam 781008, India",
    "VenueCode": "GRCG",
    "VenueName": "Grande Cines: Paltan bazar, Guwahati"
  },
  "GSER": {
    "AvailableFormats": "2D",
    "City": "Sri Ganganagar",
    "Latitude": "29.8695",
    "Longitude": "73.8756",
    "RegionCode": "SRIG",
    "State": "Rajasthan",
    "SubRegionCode": "SRIG",
    "VenueAddress": "Shreenath Enclave, Suratgarh Road, NH62, Sri Ganganagar, Rajasthan 335001, India",
    "VenueCode": "GSER",
    "VenueName": "Gold Cinema:NH-62 Shreenath Enclave,Sri Ganganagar"
  },
  "GTCX": {
    "AvailableFormats": "2D",
    "City": "Kattanam",
    "Latitude": "9.17694",
    "Longitude": "76.5636",
    "RegionCode": "NOOR",
    "State": "Kerala",
    "SubRegionCode": "NOOR",
    "VenueAddress": "Kayamkulam - Punalur Road, Near South Indian Bank, Kattanam, Kerala 690503, India",
    "VenueCode": "GTCX",
    "VenueName": "Ganam Theatre Complex 4K 3D: Kattanam"
  },
  "GTTA": {
    "AvailableFormats": "2D",
    "City": "Falakata",
    "Latitude": "26.5179",
    "Longitude": "89.2024",
    "RegionCode": "FALA",
    "State": "West Bengal",
    "SubRegionCode": "FALA",
    "VenueAddress": "Babupara, Near Netaji Road, Opposite Falakata Park, Falakata, West Bengal 735211, India",
    "VenueCode": "GTTA",
    "VenueName": "Gouri Talkies: Falakata"
  },
  "GVCP": {
    "AvailableFormats": "2D",
    "City": "Pileru",
    "Latitude": "13.6577",
    "Longitude": "78.9366",
    "RegionCode": "PLRU",
    "State": "Andhra Pradesh",
    "SubRegionCode": "PLRU",
    "VenueAddress": "Off National Highway 205, Piler, Pileru, Andhra Pradesh 517214, India",
    "VenueCode": "GVCP",
    "VenueName": "GV Cinemas (Ajantha Theater): Pileru"
  },
  "HANS": {
    "AvailableFormats": "",
    "City": "Chalisgaon",
    "FirstTracked": "2026-07-14",
    "Latitude": "20.4616",
    "Longitude": "74.9972",
    "RegionCode": "CHLS",
    "State": "Maharashtra",
    "SubRegionCode": "CHLS",
    "VenueAddress": "92, Ganesh Nagar, Hans Theatre Road, Chalisgaon, Maharashtra 424101, India",
    "VenueCode": "HANS",
    "VenueName": "Raj Chitramandir: Chalisgaon"
  },
  "HFLM": {
    "AvailableFormats": "",
    "City": "Margao",
    "FirstTracked": "2026-07-14",
    "Latitude": "15.2715",
    "Longitude": "73.9686",
    "RegionCode": "MARG",
    "State": "Goa",
    "SubRegionCode": "MARG",
    "VenueAddress": "St. Joaquim Aquem Road, Opp Monastery, Near Aquem Post Office, Margao, Goa 403601, India",
    "VenueCode": "HFLM",
    "VenueName": "Z Square Cine Vishant: Margao"
  },
  "HILC": {
    "AvailableFormats": "2D",
    "City": "Renukoot",
    "Latitude": "24.2144",
    "Longitude": "83.0364",
    "RegionCode": "RENU",
    "State": "Uttar Pradesh",
    "SubRegionCode": "RENU",
    "VenueAddress": "Hindalco Colony, Opp. Ramleela ground, Birla Market, Renukoot, Uttar Pradesh 231217, India",
    "VenueCode": "HILC",
    "VenueName": "HIL Cinema: Renukoot"
  },
  "HRSR": {
    "AvailableFormats": "",
    "City": "Chennai",
    "Latitude": "13.1216",
    "Longitude": "80.0703",
    "RegionCode": "CHEN",
    "State": "Tamil Nadu",
    "SubRegionCode": "CHEN",
    "VenueAddress": "Chennai - Thiruttani, Renigunta Highway, Chennai, Tamil Nadu 600072, India",
    "VenueCode": "HRSR",
    "VenueName": "Sri Hari Theatre Dolby Atmos: Pattabiram"
  },
  "IBYG": {
    "AvailableFormats": "2D",
    "City": "Gurugram (Gurgaon)",
    "Latitude": "28.4038",
    "Longitude": "76.948",
    "RegionCode": "NCR",
    "State": "NCR",
    "SubRegionCode": "GURG",
    "VenueAddress": "2nd Floor, IRIS Broadway, Sector 85, Gurugram (Gurgaon), NCR 122004, India",
    "VenueCode": "IBYG",
    "VenueName": "INOX: IRIS Broadway Gurugram"
  },
  "IFRM": {
    "AvailableFormats": "2D|3D",
    "City": "Kolkata",
    "Latitude": "22.6242",
    "Longitude": "88.3537",
    "RegionCode": "KOLK",
    "State": "West Bengal",
    "SubRegionCode": "KOLK",
    "VenueAddress": "212, Girish Ghosh Road, Belur, Howrah, Kolkata, West Bengal 711202, India",
    "VenueCode": "IFRM",
    "VenueName": "INOX: Forum Rangoli Mall, Belur"
  },
  "IMCC": {
    "AvailableFormats": "",
    "City": "Manipal",
    "FirstTracked": "2026-07-14",
    "Latitude": "13.349167",
    "Longitude": "74.7829",
    "RegionCode": "MANI",
    "State": "Karnataka",
    "SubRegionCode": "MANI",
    "VenueAddress": "1st Floor, Central Cinemas, Lamindra Nagar, Near KFC, Udupi Main Road, Manipal, Karnataka 576104, India",
    "VenueCode": "IMCC",
    "VenueName": "INOX: Manipal Central Cinemas"
  },
  "IMPM": {
    "AvailableFormats": "2D",
    "City": "Trivandrum",
    "Latitude": "8.32379",
    "Longitude": "77.1803",
    "RegionCode": "VKAL",
    "State": "Kerala",
    "SubRegionCode": "VKAL",
    "VenueAddress": "Pandathalamood, Aallumoodu, Kaliyikkavila, Trivandrum, Kerala 629194, India",
    "VenueCode": "IMPM",
    "VenueName": "IMP Big Screen 2K 3D Dolby Atmos"
  },
  "INBB": {
    "AvailableFormats": "2D",
    "City": "Bhubaneswar",
    "Latitude": "20.2868",
    "Longitude": "85.8474",
    "RegionCode": "BHUB",
    "State": "Odisha",
    "SubRegionCode": "BHUB",
    "VenueAddress": "Market Street, Sahid Nagar, Bhubaneswar, Odisha 751007, India",
    "VenueCode": "INBB",
    "VenueName": "INOX: BMC Bhawani Mall"
  },
  "INBW": {
    "AvailableFormats": "2D|3D",
    "City": "Burdwan",
    "Latitude": "23.2467",
    "Longitude": "87.8653",
    "RegionCode": "BURD",
    "State": "West Bengal",
    "SubRegionCode": "BURD",
    "VenueAddress": "Burdwan Arcade, 4th Floor, 60, B. B. Ghosh Road, Next to Big Bazaar, Burdwan, West Bengal 713101, India",
    "VenueCode": "INBW",
    "VenueName": "INOX: Burdwan Arcade, B B Ghosh Road"
  },
  "INFR": {
    "AvailableFormats": "2D|3D",
    "City": "Faridabad",
    "Latitude": "28.4608",
    "Longitude": "77.3068",
    "RegionCode": "NCR",
    "State": "NCR",
    "SubRegionCode": "FARI",
    "VenueAddress": "3rd Floor, Crown Interiorz Mall, Delhi Mathura Road, Subash Nagar, Faridabad, NCR 121003, India",
    "VenueCode": "INFR",
    "VenueName": "INOX: Crown Interiorz Mall, Delhi Mathura Road"
  },
  "INJC": {
    "AvailableFormats": "",
    "City": "Jaipur",
    "FirstTracked": "2026-07-14",
    "Latitude": "26.903254",
    "Longitude": "75.79259",
    "RegionCode": "JAIP",
    "State": "Rajasthan",
    "SubRegionCode": "JAIP",
    "VenueAddress": "3rd Floor, Crystal Palm Mall, Sardar Patel Marg, Shivaji Nagar, Opposite MGF Metropolitan Mall, Jaipur, Rajasthan 302001, India",
    "VenueCode": "INJC",
    "VenueName": "INOX: Crystal Palm, C Scheme"
  },
  "INMK": {
    "AvailableFormats": "2D|3D",
    "City": "Kolhapur",
    "Latitude": "16.6987",
    "Longitude": "74.2312",
    "RegionCode": "KOLH",
    "State": "Maharashtra",
    "SubRegionCode": "KOLH",
    "VenueAddress": "2nd Floor, Reliance Mega Mall, Old Dalal Market, Laxmipuri, Near Lakshmi Vilas bank, Kolhapur, Maharashtra 416002, India",
    "VenueCode": "INMK",
    "VenueName": "INOX: Reliance Mega Mall, Kolhapur"
  },
  "INPM": {
    "AvailableFormats": "3D|2D",
    "City": "Meerut",
    "Latitude": "28.9528",
    "Longitude": "77.7315",
    "RegionCode": "MERT",
    "State": "Uttar Pradesh",
    "SubRegionCode": "MERT",
    "VenueAddress": "PVS Multiplex India Ltd, PVS Mall, 2nd Floor, I Block, Shastri Nagar, Meerut, Uttar Pradesh 250001, India",
    "VenueCode": "INPM",
    "VenueName": "INOX: PVS Mall, Meerut"
  },
  "INRD": {
    "AvailableFormats": "3D|2D",
    "City": "Delhi",
    "Latitude": "28.6506",
    "Longitude": "77.1219",
    "RegionCode": "NCR",
    "State": "NCR",
    "SubRegionCode": "DELHI",
    "VenueAddress": "R Cube Monad Mall, Shivaji Place District Centre, Raja Garden, Delhi, NCR 110027, India",
    "VenueCode": "INRD",
    "VenueName": "INOX: RCube, Monad Mall: Delhi"
  },
  "INSG": {
    "AvailableFormats": "2D|3D",
    "City": "Gurugram (Gurgaon)",
    "Latitude": "28.4047",
    "Longitude": "76.9359",
    "RegionCode": "NCR",
    "State": "NCR",
    "SubRegionCode": "GURG",
    "VenueAddress": "INOX Leisure Ltd, 2nd Floor, Sapphire 90 Mall, sector 90, Haryana, Gurugram (Gurgaon), NCR 122505, India",
    "VenueCode": "INSG",
    "VenueName": "INOX Sapphire 90 Mall: Gurugram"
  },
  "INTS": {
    "AvailableFormats": "2D",
    "City": "Srinagar",
    "Latitude": "34.0652",
    "Longitude": "74.8456",
    "RegionCode": "SRNG",
    "State": "Jammu and Kashmir",
    "SubRegionCode": "SRNG",
    "VenueAddress": "Taksal Hospitality Pvt. Ltd. Khasra No: 946/802, Mouza, Shivpora, Srinagar, Jammu and Kashmir 190004, India",
    "VenueCode": "INTS",
    "VenueName": "INOX: Srinagar Shivpora"
  },
  "INVS": {
    "AvailableFormats": "2D",
    "City": "Madurai",
    "Latitude": "9.93825",
    "Longitude": "78.136",
    "RegionCode": "MADU",
    "State": "Tamil Nadu",
    "SubRegionCode": "MADU",
    "VenueAddress": "No. 31, 5th Floor, Vishaal De Mall, Gokhale Road, Chinna Chokkikulam, Madurai, Tamil Nadu 625002, India",
    "VenueCode": "INVS",
    "VenueName": "INOX: Vishaal De Mall"
  },
  "IOMH": {
    "AvailableFormats": "2D",
    "City": "Hyderabad",
    "Latitude": "17.405558",
    "Longitude": "78.496391",
    "RegionCode": "HYD",
    "State": "Telangana",
    "SubRegionCode": "HYD",
    "VenueAddress": "Odeon Mall, Chikkadpally, New Nallakunta, Hyderabad, Telangana 500020, India",
    "VenueCode": "IOMH",
    "VenueName": "INOX: Odeon 4K, LASER, ATMOS, DTS-X: RTC X Roads"
  },
  "IPMM": {
    "AvailableFormats": "2D",
    "City": "Mughalsarai",
    "Latitude": "25.2937",
    "Longitude": "83.0992",
    "RegionCode": "MGSI",
    "State": "Uttar Pradesh",
    "SubRegionCode": "MGSI",
    "VenueAddress": "Second Floor, IP Mughal Multiplex, Chandauli District, GT Road, Mughalsarai, Uttar Pradesh 232101, India",
    "VenueCode": "IPMM",
    "VenueName": "IP Cinemas: IP Mughal Multiplex"
  },
  "ISML": {
    "AvailableFormats": "2D|3D",
    "City": "Gurugram (Gurgaon)",
    "Latitude": "28.3925",
    "Longitude": "76.9676",
    "RegionCode": "NCR",
    "State": "NCR",
    "SubRegionCode": "GURG",
    "VenueAddress": "INOX Leisure Ltd, 2nd Floor, Sapphire Mall, Sector - 83, NH - 8, Gurugram (Gurgaon), NCR 122004, India",
    "VenueCode": "ISML",
    "VenueName": "INOX: Gurgaon Sapphire 83"
  },
  "IWPM": {
    "AvailableFormats": "2D",
    "City": "Gangtok",
    "Latitude": "27.3295",
    "Longitude": "88.612",
    "RegionCode": "GANG",
    "State": "Sikkim",
    "SubRegionCode": "GANG",
    "VenueAddress": "4th Floor, West Point Mall, DPH Road, Arithang, Gangtok, Sikkim 737101, India",
    "VenueCode": "IWPM",
    "VenueName": "INOX: West Point Mall, Gangtok-MN"
  },
  "JAYD": {
    "AvailableFormats": "2D",
    "City": "Tirupati",
    "Latitude": "13.631",
    "Longitude": "79.4247",
    "RegionCode": "TIRU",
    "State": "Andhra Pradesh",
    "SubRegionCode": "TIRU",
    "VenueAddress": "Mallaiah Gunta Katta, Tata Nagar, Tirupati, Andhra Pradesh 517501, India",
    "VenueCode": "JAYD",
    "VenueName": "NVR Jaysyam A/C 4K Dolby Atmos: Tirupati"
  },
  "JCHB": {
    "AvailableFormats": "2D",
    "City": "Chapra",
    "Latitude": "25.7839",
    "Longitude": "84.7407",
    "RegionCode": "CHPR",
    "State": "Bihar",
    "SubRegionCode": "CHPR",
    "VenueAddress": "Sri Nandan Path Road, Dahiyawan Tola, Near Astha Nursing Home, Chapra, Bihar 841301, India",
    "VenueCode": "JCHB",
    "VenueName": "Jyoti Cinema: Chapra"
  },
  "JDDD": {
    "AvailableFormats": "2D|3D",
    "City": "Ranchi",
    "Latitude": "23.358",
    "Longitude": "85.3247",
    "RegionCode": "RANC",
    "State": "Jharkhand",
    "SubRegionCode": "RANC",
    "VenueAddress": "JD High Street Mall, 07th Floor, Mahatma Gandhi Main Road, Opposite - GEL Church Complex, Ranchi, Jharkhand 834001, India",
    "VenueCode": "JDDD",
    "VenueName": "JD Cinemas: JD HI Street Mall, Ranchi"
  },
  "JHTP": {
    "AvailableFormats": "",
    "City": "Parappanangadi",
    "FirstTracked": "2026-07-14",
    "Latitude": "11.045552",
    "Longitude": "75.86417",
    "RegionCode": "PAVP",
    "State": "Kerala",
    "SubRegionCode": "PAVP",
    "VenueAddress": "Parappanangadi - Chemmad - Malappuram Road, Putharikkal, Parappanangadi, Kerala 676303, India",
    "VenueCode": "JHTP",
    "VenueName": "Jaya Kerala Theatre: Parappanangadi"
  },
  "JKMA": {
    "AvailableFormats": "",
    "City": "Kharsia",
    "FirstTracked": "2026-07-14",
    "Latitude": "21.986858",
    "Longitude": "83.1043",
    "RegionCode": "KHAS",
    "State": "Chhattisgarh",
    "SubRegionCode": "KHAS",
    "VenueAddress": "Ajit Singh Nagar, Bus Stand Road, Near Axis Bank Limited, Kharsia, Chhattisgarh 496661, India",
    "VenueCode": "JKMA",
    "VenueName": "JK Multiplex: Kharsia"
  },
  "JMNP": {
    "AvailableFormats": "2D",
    "City": "Podalakur",
    "Latitude": "14.3866",
    "Longitude": "79.7334",
    "RegionCode": "PODA",
    "State": "Andhra Pradesh",
    "SubRegionCode": "PODA",
    "VenueAddress": "Kanigiri - Tirupathi Road, Near Vani Nursing Home, Podalakur, Andhra Pradesh 524409, India",
    "VenueCode": "JMNP",
    "VenueName": "Jamuna Complex: Podalakur"
  },
  "JSAI": {
    "AvailableFormats": "2D",
    "City": "Virudhachalam",
    "Latitude": "11.5248",
    "Longitude": "79.3221",
    "RegionCode": "VIDM",
    "State": "Tamil Nadu",
    "SubRegionCode": "VIDM",
    "VenueAddress": "State Highway 69, Mullai Nagar, Near A to Z Super Market, Virudhachalam, Tamil Nadu 606001, India",
    "VenueCode": "JSAI",
    "VenueName": "Jai Sai Krishna Cinemas A/C: Virudhachalam"
  },
  "JTCP": {
    "AvailableFormats": "2D",
    "City": "Petlad",
    "Latitude": "22.4768",
    "Longitude": "72.8087",
    "RegionCode": "PETL",
    "State": "Gujarat",
    "SubRegionCode": "PETL",
    "VenueAddress": "Morarji Shopping Centre, College Chokdi, Sarvodaya Society, Petlad, Gujarat 388450, India",
    "VenueCode": "JTCP",
    "VenueName": "City Light Theatre: Petlad"
  },
  "JTMA": {
    "AvailableFormats": "",
    "City": "Macherla",
    "FirstTracked": "2026-07-14",
    "Latitude": "16.477894",
    "Longitude": "79.43776",
    "RegionCode": "MACH",
    "State": "Andhra Pradesh",
    "SubRegionCode": "MACH",
    "VenueAddress": "Macharla - Karempudi Road, Opposite State Bank Of India, Macherla, Andhra Pradesh 522426, India",
    "VenueCode": "JTMA",
    "VenueName": "Rama Talkies: Macherla"
  },
  "JTPC": {
    "AvailableFormats": "2D",
    "City": "Coimbatore",
    "Latitude": "11.1508",
    "Longitude": "76.9435",
    "RegionCode": "COIM",
    "State": "Tamil Nadu",
    "SubRegionCode": "COIM",
    "VenueAddress": "NH67, Periyanaickenpalayam, Near Nellai Periya Lala Sweets, Coimbatore, Tamil Nadu 641020, India",
    "VenueCode": "JTPC",
    "VenueName": "Jayanthi Cinemas A/C 4K LASER ATMOS: P.N Palayam"
  },
  "JTSH": {
    "AvailableFormats": "",
    "City": "Kasibugga",
    "FirstTracked": "2026-07-14",
    "Latitude": "18.765408",
    "Longitude": "84.41901",
    "RegionCode": "KSBG",
    "State": "Andhra Pradesh",
    "SubRegionCode": "KSBG",
    "VenueAddress": "KT Road, Near LIC of India Branch Office, Kasibugga, Andhra Pradesh 532222, India",
    "VenueCode": "JTSH",
    "VenueName": "Hari Shankar Theatre: Kasibugga"
  },
  "JTVM": {
    "AvailableFormats": "2D",
    "City": "Anakapalle",
    "Latitude": "17.6903",
    "Longitude": "83.0088",
    "RegionCode": "ANKP",
    "State": "Andhra Pradesh",
    "SubRegionCode": "ANKP",
    "VenueAddress": "Number 11-4-22, Chinna Veedhi, Woodpeta, Anakapalle, Andhra Pradesh 531001, India",
    "VenueCode": "JTVM",
    "VenueName": "Venkateswara Movie Mart: Anakapalle"
  },
  "JYCR": {
    "AvailableFormats": "2D",
    "City": "Ramanathapuram",
    "Latitude": "9.36626",
    "Longitude": "78.8362",
    "RegionCode": "RAPU",
    "State": "Tamil Nadu",
    "SubRegionCode": "RAPU",
    "VenueAddress": "41/1 Devipattinam Road, Vaigai Nagar, Ramanathapuram, Tamil Nadu 623504, India",
    "VenueCode": "JYCR",
    "VenueName": "Jagan Theatre A/C Sony 4K 3D: Ramanathapuram"
  },
  "KACX": {
    "AvailableFormats": "2D",
    "City": "Raikot",
    "Latitude": "30.6484",
    "Longitude": "75.5757",
    "RegionCode": "RKOT",
    "State": "Punjab",
    "SubRegionCode": "RKOT",
    "VenueAddress": "Modern Footwear, 305/3888, Jagraon Road, Raikot, Raikot, Punjab 142034, India",
    "VenueCode": "KACX",
    "VenueName": "KVA Cineplex: Raikot"
  },
  "KATS": {
    "AvailableFormats": "",
    "City": "Rupnagar",
    "FirstTracked": "2026-07-14",
    "Latitude": "30.968328",
    "Longitude": "76.52254",
    "RegionCode": "RUPN",
    "State": "Punjab",
    "SubRegionCode": "RUPN",
    "VenueAddress": "Kalyan Cinema, Dashmesh Nagar, Near Phool Chakker College Road, Rupnagar, Punjab 140001, India",
    "VenueCode": "KATS",
    "VenueName": "KBP Kalyan Talkies: Rupnagar"
  },
  "KCCA": {
    "AvailableFormats": "2D",
    "City": "Goalpara",
    "Latitude": "26.1752",
    "Longitude": "90.6195",
    "RegionCode": "GOAL",
    "State": "Assam",
    "SubRegionCode": "GOAL",
    "VenueAddress": "Pancharatna Road, Near Kim Photostate Center, Goalpara, Assam 783101, India",
    "VenueCode": "KCCA",
    "VenueName": "Kalpana Cinema: Goalpara"
  },
  "KCMR": {
    "AvailableFormats": "2D",
    "City": "Udgir",
    "Latitude": "18.3814",
    "Longitude": "77.1251",
    "RegionCode": "UDGR",
    "State": "Maharashtra",
    "SubRegionCode": "UDGR",
    "VenueAddress": "Shelhal Road, Vikas Nagar, Udgir, Maharashtra 413517, India",
    "VenueCode": "KCMR",
    "VenueName": "Kalpana Chitra Mandir: Udgir"
  },
  "KCTK": {
    "AvailableFormats": "2D",
    "City": "Kochi",
    "Latitude": "10.1269",
    "Longitude": "76.199",
    "RegionCode": "PALY",
    "State": "Kerala",
    "SubRegionCode": "PALY",
    "VenueAddress": "Ayyampilly, Pallippuram Rd,Kochi, Near Rama Varma Union High School, Kochi, Kerala 682501, India",
    "VenueCode": "KCTK",
    "VenueName": "K Cinemas 4K Dolby Atmos Tripplebeam 3D: Cherai"
  },
  "KESR": {
    "AvailableFormats": "2D",
    "City": "Indapur",
    "Latitude": "18.1114",
    "Longitude": "75.0296",
    "RegionCode": "INDA",
    "State": "Maharashtra",
    "SubRegionCode": "INDA",
    "VenueAddress": "Near Bhaji Mandai Nehru Chowk, Dargah  Masjid, Indapur, Maharashtra 413106, India",
    "VenueCode": "KESR",
    "VenueName": "Keshar Cinema: Indapur"
  },
  "KICT": {
    "AvailableFormats": "2D",
    "City": "Tirupur",
    "Latitude": "11.142",
    "Longitude": "77.3239",
    "RegionCode": "TIRP",
    "State": "Tamil Nadu",
    "SubRegionCode": "TIRP",
    "VenueAddress": "Kumaran Road No 71, AVP Rd, Periyar Colony, Anupparpalayam Pudur, Near Juki Machinery India Private Limited, Tirupur, Tamil Nadu 641601, India",
    "VenueCode": "KICT",
    "VenueName": "Kalaivani Cinemas A/C DOLBY 9.2 Surround: Tirupur"
  },
  "KKSC": {
    "AvailableFormats": "2D",
    "City": "Memari",
    "Latitude": "23.1691",
    "Longitude": "88.0982",
    "RegionCode": "MMRR",
    "State": "West Bengal",
    "SubRegionCode": "MMRR",
    "VenueAddress": "Memari-Tarkeswar Road, Near Anita Super Market, Memari Auto Stores, Memari, West Bengal 713146, India",
    "VenueCode": "KKSC",
    "VenueName": "Kristi Cinema: Memari"
  },
  "KMAJ": {
    "AvailableFormats": "2D",
    "City": "Lonand",
    "Latitude": "18.038",
    "Longitude": "74.1832",
    "RegionCode": "LONZ",
    "State": "Maharashtra",
    "SubRegionCode": "LONZ",
    "VenueAddress": "Near Kumar Gas Egancy, Gyanaba Mauli Road, Lonand, Maharashtra 415521, India",
    "VenueCode": "KMAJ",
    "VenueName": "K Mahindra Cinema: Lonand"
  },
  "KMTV": {
    "AvailableFormats": "2D",
    "City": "Vadakara",
    "Latitude": "11.5927",
    "Longitude": "75.5903",
    "RegionCode": "VDKR",
    "State": "Kerala",
    "SubRegionCode": "VDKR",
    "VenueAddress": "Edodi, Near ICICI Bank Vadakara, Vadakara, Kerala 673101, India",
    "VenueCode": "KMTV",
    "VenueName": "Kirthi Mudra 4K RGB Laser Dolby Atmos"
  },
  "KPSG": {
    "AvailableFormats": "",
    "City": "Gooty",
    "FirstTracked": "2026-07-14",
    "Latitude": "15.110157",
    "Longitude": "77.63626",
    "RegionCode": "GOOT",
    "State": "Andhra Pradesh",
    "SubRegionCode": "GOOT",
    "VenueAddress": "Anantapur Road, Opp Ravi Teja Hotel, Gooty, Andhra Pradesh 515401, India",
    "VenueCode": "KPSG",
    "VenueName": "KPS Movie Land: Gooty"
  },
  "KRMT": {
    "AvailableFormats": "2D",
    "City": "Sakti",
    "Latitude": "22.0182",
    "Longitude": "82.9593",
    "RegionCode": "SAKT",
    "State": "Chhattisgarh",
    "SubRegionCode": "SAKT",
    "VenueAddress": "1st Floor, Jindal Plaza Station Road, Sakti Marg, Sakti, Chhattisgarh 495689, India",
    "VenueCode": "KRMT",
    "VenueName": "Krishna Metro Cinema: Sakti"
  },
  "KSCK": {
    "AvailableFormats": "",
    "City": "Karunagapally",
    "FirstTracked": "2026-07-14",
    "Latitude": "9.054752",
    "Longitude": "76.52673",
    "RegionCode": "KARG",
    "State": "Kerala",
    "SubRegionCode": "KARG",
    "VenueAddress": "Alumkadavu Road, Karunagappalli, Karunagapally, Kerala 690518, India",
    "VenueCode": "KSCK",
    "VenueName": "Khans Cinema A/C: Karunagapally"
  },
  "KSSB": {
    "AvailableFormats": "2D",
    "City": "Durg",
    "Latitude": "21.1646",
    "Longitude": "81.2613",
    "RegionCode": "DURG",
    "State": "Chhattisgarh",
    "SubRegionCode": "DURG",
    "VenueAddress": "Mahalaxmi Market, Mini Mata Chowk, Pulgaon, Near Kapada Market, Durg, Chhattisgarh 491001, India",
    "VenueCode": "KSSB",
    "VenueName": "K Sera Sera Miniplex: Durg"
  },
  "KTDI": {
    "AvailableFormats": "2D",
    "City": "Deoli(Rajasthan)",
    "Latitude": "25.7613",
    "Longitude": "75.3766",
    "RegionCode": "DEOY",
    "State": "Rajasthan",
    "SubRegionCode": "DEOY",
    "VenueAddress": "National Highway 52, Tonk Road, Narayani Nagar, Deoli(Rajasthan), Rajasthan 304804, India",
    "VenueCode": "KTDI",
    "VenueName": "Kisan Talkies: Deoli (RJ)"
  },
  "KTSN": {
    "AvailableFormats": "",
    "City": "Soron",
    "FirstTracked": "2026-07-14",
    "Latitude": "27.735193",
    "Longitude": "78.944405",
    "RegionCode": "SORO",
    "State": "Uttar Pradesh",
    "SubRegionCode": "SORO",
    "VenueAddress": "Krishna Talkies, Kachla Chungi town, Soron, Uttar Pradesh 207403, India",
    "VenueCode": "KTSN",
    "VenueName": "Krishna Talkies: Soron"
  },
  "KYRR": {
    "AvailableFormats": "2D",
    "City": "Rayakottai",
    "Latitude": "12.5146",
    "Longitude": "78.032",
    "RegionCode": "RTTA",
    "State": "Tamil Nadu",
    "SubRegionCode": "RTTA",
    "VenueAddress": "4/424, Shoolagiri Main Road, Rahamath Colony, Rayakottai, Tamil Nadu 635116, India",
    "VenueCode": "KYRR",
    "VenueName": "Kamaraj Theatre: Rayakottai"
  },
  "LARC": {
    "AvailableFormats": "2D",
    "City": "Perambalur",
    "Latitude": "11.2388",
    "Longitude": "78.8665",
    "RegionCode": "ARIY",
    "State": "Tamil Nadu",
    "SubRegionCode": "ARIY",
    "VenueAddress": "Perambalur Elambalur Road, Samiyappa Nagar, Near Sri Anand Jewellers and silks, Perambalur, Tamil Nadu 621212, India",
    "VenueCode": "LARC",
    "VenueName": "LA Ram Cinema 4K Dolby ATMOS: Perambalur"
  },
  "LCKR": {
    "AvailableFormats": "2D",
    "City": "Kannur",
    "Latitude": "11.8798",
    "Longitude": "75.3691",
    "RegionCode": "KANN",
    "State": "Kerala",
    "SubRegionCode": "KANN",
    "VenueAddress": "Tulichery Road, Talap, Near Oriental Bank of commerce, Kannur, Kerala 670002, India",
    "VenueCode": "LCKR",
    "VenueName": "Liberty Cinema: Kannur (Ambili Theatre)"
  },
  "LCXA": {
    "AvailableFormats": "2D",
    "City": "Amgaon",
    "Latitude": "21.3759",
    "Longitude": "80.381",
    "RegionCode": "AMGN",
    "State": "Maharashtra",
    "SubRegionCode": "AMGN",
    "VenueAddress": "Liya Cinemax, OPP Bail Bazar, Amgaon, Maharashtra 441902, India",
    "VenueCode": "LCXA",
    "VenueName": "Liya Cinemax: Amgaon"
  },
  "LISA": {
    "AvailableFormats": "2D",
    "City": "Sehore",
    "Latitude": "23.2016",
    "Longitude": "77.0796",
    "RegionCode": "SEHO",
    "State": "Madhya Pradesh",
    "SubRegionCode": "SEHO",
    "VenueAddress": "42, Sindhi Colony, Main Road, Near State bank of India, Next to City Post Office, Sehore, Madhya Pradesh 466001, India",
    "VenueCode": "LISA",
    "VenueName": "Lisa Multiplex Screen 1: Sehore"
  },
  "LKTH": {
    "AvailableFormats": "2D",
    "City": "Bengaluru",
    "Latitude": "12.9253",
    "Longitude": "77.6076",
    "RegionCode": "HOKT",
    "State": "Karnataka",
    "SubRegionCode": "HOKT",
    "VenueAddress": "Near to Bangalore Dairy BTM Layout, Balaji Nagar, Tavarekere Road, Opposite to Forum Mall, Bengaluru, Karnataka 560081, India",
    "VenueCode": "LKTH",
    "VenueName": "Lakshmi Cinema 4K Dolby Atmos RGB Laser Tavarekere"
  },
  "LMHO": {
    "AvailableFormats": "2D|3D",
    "City": "Hosur",
    "Latitude": "12.7422",
    "Longitude": "77.8288",
    "RegionCode": "HSUR",
    "State": "Tamil Nadu",
    "SubRegionCode": "HSUR",
    "VenueAddress": "Survy No- 518/1A, Plot No.205-A, NHS Hosur, Phase VII, Krishnagiri, Hosur, Tamil Nadu 635109, India",
    "VenueCode": "LMHO",
    "VenueName": "Lakshmi Cinemas RGB Laser QSC Dolby Atmos: Hosur"
  },
  "LSCB": {
    "AvailableFormats": "",
    "City": "Bhiwadi",
    "FirstTracked": "2026-07-14",
    "Latitude": "28.194407",
    "Longitude": "76.81226",
    "RegionCode": "BHWD",
    "State": "Rajasthan",
    "SubRegionCode": "BHWD",
    "VenueAddress": "3rd Floor, Legend Centra Mall, 1st Mile Stone, Alwar By Pass Road, Bhiwadi, Rajasthan 301019, India",
    "VenueCode": "LSCB",
    "VenueName": "Legend SRS Cinemas: Bhiwadi"
  },
  "LVCD": {
    "AvailableFormats": "2D",
    "City": "Durg",
    "Latitude": "21.1959",
    "Longitude": "81.2844",
    "RegionCode": "DURG",
    "State": "Chhattisgarh",
    "SubRegionCode": "DURG",
    "VenueAddress": "Guru Nanak Nagar, Station Road, Near Apsara Talkies, Durg, Chhattisgarh 491001, India",
    "VenueCode": "LVCD",
    "VenueName": "Tarun LV Cinemas: Durg"
  },
  "MAAG": {
    "AvailableFormats": "2D",
    "City": "Navsari",
    "Latitude": "20.9502",
    "Longitude": "72.9171",
    "RegionCode": "NVSR",
    "State": "Gujarat",
    "SubRegionCode": "NVSR",
    "VenueAddress": "Mukta A2 Cinemas, Giriraj, Station Road, Taskand Nagar, Vejalpore, Near Udipi Hotel, Navsari, Gujarat 396445, India",
    "VenueCode": "MAAG",
    "VenueName": "Mukta A2 Cinemas: Giriraj"
  },
  "MACT": {
    "AvailableFormats": "2D",
    "City": "Machilipatnam",
    "Latitude": "16.1836",
    "Longitude": "81.1324",
    "RegionCode": "MAPM",
    "State": "Andhra Pradesh",
    "SubRegionCode": "MAPM",
    "VenueAddress": "NH 214A, Srinivas Nagar Colony, Krishna District, Machilipatnam, Andhra Pradesh 521001, India",
    "VenueCode": "MACT",
    "VenueName": "Siri Complex: Machilipatnam"
  },
  "MAHM": {
    "AvailableFormats": "2D",
    "City": "Hyderabad",
    "Latitude": "17.4999",
    "Longitude": "78.3866",
    "RegionCode": "HYD",
    "State": "Telangana",
    "SubRegionCode": "HYD",
    "VenueAddress": "1-2-29/93, Jai Bharat Nagar, Hyder Nagar, Vasantha Nagar, Nizampet, Hyderabad, Telangana 500090, India",
    "VenueCode": "MAHM",
    "VenueName": "Mallikarjuna 70mm A/C DTS: Kukatpally"
  },
  "MAOP": {
    "AvailableFormats": "",
    "City": "Surat",
    "FirstTracked": "2026-07-16",
    "Latitude": "21.1773",
    "Longitude": "72.8853",
    "RegionCode": "SURT",
    "State": "Gujarat",
    "SubRegionCode": "SURT",
    "VenueAddress": "5th Floor, Orbit Plaza by Pramukh, Devadh-Kumbhariya Road, Godadara, Beside Sunday Lagoon, Surat, Gujarat 395010, India",
    "VenueCode": "MAOP",
    "VenueName": "Mukta A2 Cinemas: Orbit Plaza by Pramukh, Surat"
  },
  "MATN": {
    "AvailableFormats": "2D|3D",
    "City": "Ahmedabad",
    "Latitude": "23.0145",
    "Longitude": "72.5174",
    "RegionCode": "AHD",
    "State": "Gujarat",
    "SubRegionCode": "AHD",
    "VenueAddress": "Ratnanjali Infra LLP, 2nd Floor, 208 To 215, Ratnanjali Square, Near Gloriya Restaurant, Prerna Tirth Road, Prahladnagar, Ahmedabad, Gujarat 380015, India",
    "VenueCode": "MATN",
    "VenueName": "Mukta A2 Cinemas: Ratnanjali Square Satellite"
  },
  "MBBR": {
    "AvailableFormats": "2D",
    "City": "Rajakumari",
    "Latitude": "9.9686",
    "Longitude": "77.1495",
    "RegionCode": "RAAJ",
    "State": "Kerala",
    "SubRegionCode": "RAAJ",
    "VenueAddress": "X49X+CQX, Murikkumthotti - Senapathy, Vattapara Udumbanchola Road, Rajakumari, Kerala 685619, India",
    "VenueCode": "MBBR",
    "VenueName": "MAR Basil EVM Theatre: Rajakumari"
  },
  "MCAA": {
    "AvailableFormats": "2D|3D",
    "City": "Ulhasnagar",
    "Latitude": "19.2251",
    "Longitude": "73.1642",
    "RegionCode": "MUMBAI",
    "State": "Maharashtra",
    "SubRegionCode": "ULHA",
    "VenueAddress": "Ramayan Nagar, Ulhasnagar No. 3, Kalyan Ambarnath Road, Near Indian Bank, Ulhasnagar, Maharashtra 421002, India",
    "VenueCode": "MCAA",
    "VenueName": "Ashok Anil Multiplex, Miraj Cinemas: Ulhasnagar"
  },
  "MCCM": {
    "AvailableFormats": "",
    "City": "Pathankot",
    "FirstTracked": "2026-07-14",
    "Latitude": "32.272804",
    "Longitude": "75.65372",
    "RegionCode": "PATH",
    "State": "Punjab",
    "SubRegionCode": "PATH",
    "VenueAddress": "City Centre, Dalhousie Road, Pathankot, Punjab 145001, India",
    "VenueCode": "MCCM",
    "VenueName": "Miraj Cinemas: City Centre Mall, Pathankot"
  },
  "MCFD": {
    "AvailableFormats": "2D",
    "City": "Thalassery",
    "Latitude": "11.7452",
    "Longitude": "75.4955",
    "RegionCode": "THAY",
    "State": "Kerala",
    "SubRegionCode": "THAY",
    "VenueAddress": "Jubilee Road, Pilakool, Thalassery, Kerala 670101, India",
    "VenueCode": "MCFD",
    "VenueName": "Magic Frames Downtown Mall: Thalassery"
  },
  "MCGZ": {
    "AvailableFormats": "",
    "City": "Ghaziabad",
    "FirstTracked": "2026-07-14",
    "Latitude": "28.654917",
    "Longitude": "77.43575",
    "RegionCode": "MRDG",
    "State": "NCR",
    "SubRegionCode": "MRDG",
    "VenueAddress": "19, GT Road, Chaudhary Mall, Gandhi Nagar, Nehru Nagar III, Near Hotel Royal Palace, Ghaziabad, NCR 201001, India",
    "VenueCode": "MCGZ",
    "VenueName": "Miraj Chaudhary Cinemas: Ghaziabad"
  },
  "MCJR": {
    "AvailableFormats": "2D",
    "City": "Janjgir",
    "Latitude": "22.0112",
    "Longitude": "82.5834",
    "RegionCode": "JANR",
    "State": "Chhattisgarh",
    "SubRegionCode": "JANR",
    "VenueAddress": "Link Road, Old Chandaniya Para, Janjgir, Chhattisgarh 495668, India",
    "VenueCode": "MCJR",
    "VenueName": "Metro Cinema(Dolby 7.1 sound): Janjgir Naila"
  },
  "MCMJ": {
    "AvailableFormats": "2D",
    "City": "Rajkot",
    "Latitude": "22.2795",
    "Longitude": "70.7632",
    "RegionCode": "RAJK",
    "State": "Gujarat",
    "SubRegionCode": "RAJK",
    "VenueAddress": "2nd Floor, Crystal Mall, Kalawad Road, Rajkot, Gujarat 360005, India",
    "VenueCode": "MCMJ",
    "VenueName": "MOVIE TIME: Crystal Mall"
  },
  "MCPT": {
    "AvailableFormats": "",
    "City": "Sitapur",
    "FirstTracked": "2026-07-14",
    "Latitude": "27.57371",
    "Longitude": "80.660995",
    "RegionCode": "SITA",
    "State": "Uttar Pradesh",
    "SubRegionCode": "SITA",
    "VenueAddress": "Penguin Tower, 1st Floor, Chungi Choraha, Hardoi Road, Sitapur, Uttar Pradesh 261001, India",
    "VenueCode": "MCPT",
    "VenueName": "Miraj Cinemas: Penguin Tower, Sitapur"
  },
  "MCSN": {
    "AvailableFormats": "",
    "City": "Sonipat",
    "FirstTracked": "2026-07-14",
    "Latitude": "28.9969",
    "Longitude": "77.02605",
    "RegionCode": "RAIH",
    "State": "Haryana",
    "SubRegionCode": "RAIH",
    "VenueAddress": "3rd Floor, City Mall, Bawa Tarana Road, Adarsh Nagar, Sonipat, Haryana 131001, India",
    "VenueCode": "MCSN",
    "VenueName": "Miraj Cinemas: Sonipat"
  },
  "MCTY": {
    "AvailableFormats": "2D|3D",
    "City": "Indore",
    "Latitude": "22.7451",
    "Longitude": "75.9038",
    "RegionCode": "IND",
    "State": "Madhya Pradesh",
    "SubRegionCode": "IND",
    "VenueAddress": "Miraj Velocity Multiplex, Scheme 94C, Ring Road Indore, Near Radisson Hotel, Indore, Madhya Pradesh 452010, India",
    "VenueCode": "MCTY",
    "VenueName": "Velocity III: Miraj Cinemas, Indore"
  },
  "MDDC": {
    "AvailableFormats": "",
    "City": "Delhi",
    "Latitude": "28.6752",
    "Longitude": "77.288",
    "RegionCode": "NCR",
    "State": "NCR",
    "SubRegionCode": "DELHI",
    "VenueAddress": "Miraj Cinema Shahdara, Plot no.-813/1,G.T.Road, 2nd Floor, Vikash Mall, Shahdara, Delhi, NCR 110032, India",
    "VenueCode": "MDDC",
    "VenueName": "Miraj Cinemas: Vikas Cinemall, Shahdara"
  },
  "MEDM": {
    "AvailableFormats": "7D",
    "City": "Ghaziabad",
    "Latitude": "28.6412",
    "Longitude": "77.3172",
    "RegionCode": "NCR",
    "State": "NCR",
    "SubRegionCode": "GHAZ",
    "VenueAddress": "East Delhi Mall, Opposite Anand Vihar, Kaushambi, Near Big Bazaar, Ghaziabad, NCR 201001, India",
    "VenueCode": "MEDM",
    "VenueName": "7D Masti: EDM Mall, Ghaziabad"
  },
  "MENO": {
    "AvailableFormats": "2D",
    "City": "Kolkata",
    "Latitude": "22.5112",
    "Longitude": "88.3507",
    "RegionCode": "KOLK",
    "State": "West Bengal",
    "SubRegionCode": "KOLK",
    "VenueAddress": "5, Sarat Chatterjee Avenue, Sarat Bose Road, , Kalighat, Near Deshopriya Park, Kolkata, West Bengal 700029, India",
    "VenueCode": "MENO",
    "VenueName": "Menoka Cinema: Kolkata"
  },
  "MHAL": {
    "AvailableFormats": "2D",
    "City": "Tadepalligudem",
    "Latitude": "16.8126",
    "Longitude": "81.5299",
    "RegionCode": "TADP",
    "State": "Andhra Pradesh",
    "SubRegionCode": "TADP",
    "VenueAddress": "Sheshamahal Road, Karri Satyavathi Nagar, Tadepalligudem, Andhra Pradesh 534101, India",
    "VenueCode": "MHAL",
    "VenueName": "Sri Seshmahal Theatre: Tadepalligudem"
  },
  "MIDO": {
    "AvailableFormats": "2D|3D",
    "City": "Mumbai",
    "Latitude": "19.2183",
    "Longitude": "73.0953",
    "RegionCode": "MUMBAI",
    "State": "Maharashtra",
    "SubRegionCode": "MCENT",
    "VenueAddress": "Mahavir Heights NX, Next To Plasma Blood Bank, Above Reliance Smart Point, VP Road, Dombivli East, Mumbai, Maharashtra 421201, India",
    "VenueCode": "MIDO",
    "VenueName": "Miraj V Cinemas: Dombivali"
  },
  "MJCU": {
    "AvailableFormats": "2D",
    "City": "Umerkote",
    "Latitude": "19.668",
    "Longitude": "82.1916",
    "RegionCode": "UMEK",
    "State": "Odisha",
    "SubRegionCode": "UMEK",
    "VenueAddress": "Bhaskel Dam, Umerkote Road, Umerkote, Odisha 764073, India",
    "VenueCode": "MJCU",
    "VenueName": "MJ Cinema: Umerkote"
  },
  "MKLJ": {
    "AvailableFormats": "2D|3D",
    "City": "Gurugram (Gurgaon)",
    "Latitude": "28.3907",
    "Longitude": "76.975",
    "RegionCode": "NCR",
    "State": "NCR",
    "SubRegionCode": "GURG",
    "VenueAddress": "KLJ Square Mall, 3rd Floor, NH 8, Sector 83, Gurugram (Gurgaon), NCR 122004, India",
    "VenueCode": "MKLJ",
    "VenueName": "Miraj Cinemas: KLJ Square, Gurugram"
  },
  "MLCA": {
    "AvailableFormats": "2D",
    "City": "Haripad",
    "Latitude": "9.28209",
    "Longitude": "76.4529",
    "RegionCode": "HRPD",
    "State": "Kerala",
    "SubRegionCode": "HRPD",
    "VenueAddress": "National Highway 66, Haripad, Alappuzha District, Near Madhava Junction, Haripad, Kerala 690514, India",
    "VenueCode": "MLCA",
    "VenueName": "M Lal Cineplexx (Aashirvad): Haripad"
  },
  "MMAP": {
    "AvailableFormats": "2D",
    "City": "Gurugram (Gurgaon)",
    "Latitude": "28.5115",
    "Longitude": "77.042",
    "RegionCode": "NCR",
    "State": "NCR",
    "SubRegionCode": "GURG",
    "VenueAddress": "Ansal Plaza, 3rd Floor, G Block, Sector 23, Palam Vihar, Gurugram (Gurgaon), NCR 122017, India",
    "VenueCode": "MMAP",
    "VenueName": "MovieMax: Ansal Plaza, Gurgaon"
  },
  "MMET": {
    "AvailableFormats": "2D|3D",
    "City": "Thane",
    "Latitude": "19.1871",
    "Longitude": "72.9625",
    "RegionCode": "MUMBAI",
    "State": "Maharashtra",
    "SubRegionCode": "THNE",
    "VenueAddress": "MovieMax, Eternity Mall, Teen Haath Naka, Junction of Eastern Express Highway,Lal Bahadur Shastri Road, Thane West, Thane, Maharashtra 400604, India",
    "VenueCode": "MMET",
    "VenueName": "MovieMax: Eternity Mall, Thane"
  },
  "MMMX": {
    "AvailableFormats": "2D",
    "City": "Ajmer",
    "Latitude": "26.4832",
    "Longitude": "74.665",
    "RegionCode": "AJMER",
    "State": "Rajasthan",
    "SubRegionCode": "AJMER",
    "VenueAddress": "Opposite Forest Department, Jaipur Road, Near Hyundai Showroom, Ajmer, Rajasthan 305001, India",
    "VenueCode": "MMMX",
    "VenueName": "MayaMandir Multiplex (Dolby Atmos Sound): Ajmer"
  },
  "MMSZ": {
    "AvailableFormats": "2D|3D",
    "City": "Mumbai",
    "Latitude": "19.0417",
    "Longitude": "72.8643",
    "RegionCode": "MUMBAI",
    "State": "Maharashtra",
    "SubRegionCode": "MCENT",
    "VenueAddress": "MovieMax, Sion Circle, Sion (East), Opposite Peninsula Restaurant, Mumbai, Maharashtra 400022, India",
    "VenueCode": "MMSZ",
    "VenueName": "MovieMax: Sion"
  },
  "MMXS": {
    "AvailableFormats": "2D",
    "City": "Surat",
    "Latitude": "21.1396",
    "Longitude": "72.8827",
    "RegionCode": "SURT",
    "State": "Gujarat",
    "SubRegionCode": "SURT",
    "VenueAddress": "Kardava Road, New Dindoli, Vrukshmani Society, Surat, Gujarat 394210, India",
    "VenueCode": "MMXS",
    "VenueName": "Madhuram Multiplex: Surat"
  },
  "MNKH": {
    "AvailableFormats": "2D",
    "City": "Madurai",
    "Latitude": "9.82126",
    "Longitude": "77.9865",
    "RegionCode": "MADU",
    "State": "Tamil Nadu",
    "SubRegionCode": "MADU",
    "VenueAddress": "26, Virudhunagar Road, Madurai, Tamil Nadu 625706, India",
    "VenueCode": "MNKH",
    "VenueName": "Meenakshi theatre A/C 7.1 Surround: Thirumangalam"
  },
  "MPDX": {
    "AvailableFormats": "",
    "City": "Bhopal",
    "FirstTracked": "2026-07-14",
    "Latitude": "23.23263",
    "Longitude": "77.372635",
    "RegionCode": "BHOP",
    "State": "Madhya Pradesh",
    "SubRegionCode": "BHOP",
    "VenueAddress": "MPT Lake View Residency, Shymala Hills, Near Hotel Ashoka Lake View, Bhopal, Madhya Pradesh 462002, India",
    "VenueCode": "MPDX",
    "VenueName": "MPT DDX Drive in Cinema: Bhopal"
  },
  "MRGB": {
    "AvailableFormats": "2D",
    "City": "Bengaluru",
    "Latitude": "12.8906",
    "Longitude": "77.5622",
    "RegionCode": "BANG",
    "State": "Karnataka",
    "SubRegionCode": "BANG",
    "VenueAddress": "No 21/5A, Konanakunte Cross Marg, Konanakunte, Bengaluru, Karnataka 560062, India",
    "VenueCode": "MRGB",
    "VenueName": "Manasa RGB Laser ATMOS: Konanakunte"
  },
  "MRSE": {
    "AvailableFormats": "3D|2D",
    "City": "Kadapa",
    "Latitude": "14.4635",
    "Longitude": "78.8235",
    "RegionCode": "KDPA",
    "State": "Andhra Pradesh",
    "SubRegionCode": "KDPA",
    "VenueAddress": "RSR Square , D NO. 1/700, SY NO 72/1, Dwaraka Nagar, R S Road, Nagarajupalli Village, Kadapa, Andhra Pradesh 516001, India",
    "VenueCode": "MRSE",
    "VenueName": "Mukta A2 Cinemas: RSR Square Mall"
  },
  "MSCM": {
    "AvailableFormats": "2D|3D",
    "City": "Pune",
    "Latitude": "18.6504",
    "Longitude": "73.8393",
    "RegionCode": "PUNE",
    "State": "Maharashtra",
    "SubRegionCode": "PUNE",
    "VenueAddress": "Sector No. 9, Sant Nagar, Spine Road, Pune, Maharashtra 412105, India",
    "VenueCode": "MSCM",
    "VenueName": "Miraj Cinemas: Spine City Mall, Pune"
  },
  "MSRM": {
    "AvailableFormats": "",
    "City": "Punganur",
    "FirstTracked": "2026-07-14",
    "Latitude": "13.363947",
    "Longitude": "78.56852",
    "RegionCode": "PGNR",
    "State": "Andhra Pradesh",
    "SubRegionCode": "PGNR",
    "VenueAddress": "Vidya Nagar, Vet Hospital Road, Nagapyam, Punganur, Andhra Pradesh 517247, India",
    "VenueCode": "MSRM",
    "VenueName": "MSR Movie Land: Punganur"
  },
  "MTCM": {
    "AvailableFormats": "2D",
    "City": "Chidambaram",
    "Latitude": "11.3949",
    "Longitude": "79.7012",
    "RegionCode": "CHID",
    "State": "Tamil Nadu",
    "SubRegionCode": "CHID",
    "VenueAddress": "SP Kovil Street, OP Main Road, Near Gm Vandayar Thirumana Mahal, Chidambaram, Tamil Nadu 608001, India",
    "VenueCode": "MTCM",
    "VenueName": "Mariyappa Theatre: Chidambaram"
  },
  "MTJA": {
    "AvailableFormats": "2D",
    "City": "Jammu",
    "Latitude": "32.7274",
    "Longitude": "74.8458",
    "RegionCode": "JAMM",
    "State": "Jammu and Kashmir",
    "SubRegionCode": "JAMM",
    "VenueAddress": "K C Central, Indira Theater, Canal Road, Jammu Tawi, Near The Raymond Shop, Jammu, Jammu and Kashmir 180002, India",
    "VenueCode": "MTJA",
    "VenueName": "Movietime Cinemas: Jammu"
  },
  "MTND": {
    "AvailableFormats": "2D|3D",
    "City": "Noida",
    "Latitude": "28.5717",
    "Longitude": "77.3225",
    "RegionCode": "NCR",
    "State": "NCR",
    "SubRegionCode": "NOIDA",
    "VenueAddress": "Tulsi Marg, K Block, Pocket E, Dharam Palace Mall, Sector 18, Noida, NCR 201301, India",
    "VenueCode": "MTND",
    "VenueName": "Movietime Cinemas: Sector 18, Noida"
  },
  "MTYA": {
    "AvailableFormats": "",
    "City": "Nandigama",
    "FirstTracked": "2026-07-14",
    "Latitude": "16.7752",
    "Longitude": "80.2837",
    "RegionCode": "NDGM",
    "State": "Andhra Pradesh",
    "SubRegionCode": "NDGM",
    "VenueAddress": "Mayuri Theatre Road, Ramannapet Road, Nandigama, Andhra Pradesh 521185, India",
    "VenueCode": "MTYA",
    "VenueName": "Mayuri Theater A/c Dolby 7.1 Surround: Nandigama"
  },
  "MUTB": {
    "AvailableFormats": "2D",
    "City": "Bengaluru",
    "Latitude": "13.0385",
    "Longitude": "77.5529",
    "RegionCode": "BANG",
    "State": "Karnataka",
    "SubRegionCode": "BANG",
    "VenueAddress": "Muthyala Nagar, 19th Cross, 2nd Stage, Mathikere, Near Railway Gate and J.P.Park, Near Mega Mart, Bengaluru, Karnataka 560054, India",
    "VenueCode": "MUTB",
    "VenueName": "Murali Cinemas(Gokula)4K Dolby7.1 A/C 3D:Mathikere"
  },
  "MXBO": {
    "AvailableFormats": "2D",
    "City": "Mumbai",
    "Latitude": "19.232",
    "Longitude": "72.8287",
    "RegionCode": "MUMBAI",
    "State": "Maharashtra",
    "SubRegionCode": "MWEST",
    "VenueAddress": "Zoom Plaza Mall, 4th Floor,L.T. Road, Borivali (W), Opposite Gorai Depot, Mumbai, Maharashtra 400092, India",
    "VenueCode": "MXBO",
    "VenueName": "Maxus Cinemas: Borivali (W)"
  },
  "MYBG": {
    "AvailableFormats": "2D",
    "City": "Balaghat",
    "Latitude": "21.8109",
    "Longitude": "80.1954",
    "RegionCode": "BLGT",
    "State": "Madhya Pradesh",
    "SubRegionCode": "BLGT",
    "VenueAddress": "Chitragupt Nagar, Gondia Road, Near HDFC Bank, Balaghat, Madhya Pradesh 481001, India",
    "VenueCode": "MYBG",
    "VenueName": "Mayur Talkies: Balaghat"
  },
  "MYRP": {
    "AvailableFormats": "2D",
    "City": "Kollam",
    "Latitude": "8.88953",
    "Longitude": "76.5858",
    "RegionCode": "KOLM",
    "State": "Kerala",
    "SubRegionCode": "KOLM",
    "VenueAddress": "RP Mall, Level 5, Salem-Kochi Highway, Near Reliance Trends, Kollam, Kerala 691001, India",
    "VenueCode": "MYRP",
    "VenueName": "MY Cinemas, RP Mall: Kollam"
  },
  "NAGO": {
    "AvailableFormats": "2D",
    "City": "Nagaur",
    "Latitude": "27.1957",
    "Longitude": "73.7501",
    "RegionCode": "NAGR",
    "State": "Rajasthan",
    "SubRegionCode": "NAGR",
    "VenueAddress": "NH 65, Hanuman Bagh Colony,Bassi Mohalla, Nagaur, Rajasthan 341001, India",
    "VenueCode": "NAGO",
    "VenueName": "Laxmi Tara Cinema: Nagaur"
  },
  "NCCW": {
    "AvailableFormats": "2D",
    "City": "Wai",
    "Latitude": "17.9525",
    "Longitude": "73.8873",
    "RegionCode": "WAIP",
    "State": "Maharashtra",
    "SubRegionCode": "WAIP",
    "VenueAddress": "Chota Pul, Gangapuri Road, Danebazar, Ganpati Ali, Wai, Maharashtra 412803, India",
    "VenueCode": "NCCW",
    "VenueName": "New Chitra Cinema: Wai"
  },
  "NCMD": {
    "AvailableFormats": "2D",
    "City": "Doraha",
    "Latitude": "30.7867",
    "Longitude": "76.0467",
    "RegionCode": "DORH",
    "State": "Punjab",
    "SubRegionCode": "DORH",
    "VenueAddress": "West View Plaza, GT Road, Doraha, Near Mcdonalds, Doraha, Punjab 141421, India",
    "VenueCode": "NCMD",
    "VenueName": "Nova Cinemaz: Doraha"
  },
  "NECB": {
    "AvailableFormats": "2D",
    "City": "Billawar",
    "Latitude": "32.6136",
    "Longitude": "75.6041",
    "RegionCode": "BILL",
    "State": "Jammu and Kashmir",
    "SubRegionCode": "BILL",
    "VenueAddress": "Tilla Billawar, Near Bharat Stone Crusher, Billawar, Jammu and Kashmir 184203, India",
    "VenueCode": "NECB",
    "VenueName": "Neelam Cinema: Billawar"
  },
  "NHCG": {
    "AvailableFormats": "2D",
    "City": "Mumbai",
    "Latitude": "18.962",
    "Longitude": "72.824",
    "RegionCode": "MUMBAI",
    "State": "Maharashtra",
    "SubRegionCode": "MWEST",
    "VenueAddress": "Plot no: 266, Nishat Talkies, Maulana shaukatali Road, Mumbai, Maharashtra 400008, India",
    "VenueCode": "NHCG",
    "VenueName": "Nishat Cinema: Grant Road"
  },
  "NLPS": {
    "AvailableFormats": "",
    "City": "Perundurai",
    "FirstTracked": "2026-07-14",
    "Latitude": "11.286024",
    "Longitude": "77.58599",
    "RegionCode": "PEDR",
    "State": "Tamil Nadu",
    "SubRegionCode": "PEDR",
    "VenueAddress": "Thiruvenkadampalayam, Nallapa Theatre Road, Opposite Sri Vishnu Car Wash, Perundurai, Tamil Nadu 638052, India",
    "VenueCode": "NLPS",
    "VenueName": "Nallappas Cinemas: Perundurai"
  },