{
  "AACS": {
    "AvailableFormats": "",
    "City": "Salem",
    "Latitude": "11.6699",
    "Longitude": "78.0181",
    "RegionCode": "SALM",
    "State": "Tamil Nadu",
    "SubRegionCode": "SALM",
    "VenueAddress": "Ranganathan Nagar, Alagusamudram, Salem, Tamil Nadu 636013, India",
    "VenueCode": "AACS",
    "VenueName": "Amman Arangham Cinemas A/C Dolby: Alagusamuthiram"
  },
  "AAPW": {
    "AvailableFormats": "2D",
    "City": "Warangal",
    "Latitude": "18.0077",
    "Longitude": "79.567",
    "RegionCode": "WAR",
    "State": "Telangana",
    "SubRegionCode": "WAR",
    "VenueAddress": "Ashoka A plex, Beside Warangal Hyderabad Highway, Near Govt Juniour College, Warangal, Telangana 506001, India",
    "VenueCode": "AAPW",
    "VenueName": "Asian Ashoka Air-Conditioned: Hanumakonda"
  },
  "ABCR": {
    "AvailableFormats": "",
    "City": "Vijayawada",
    "Latitude": "16.4859",
    "Longitude": "80.6828",
    "RegionCode": "VIJA",
    "State": "Andhra Pradesh",
    "SubRegionCode": "VIJA",
    "VenueAddress": "Elevate Mall, Pune-Machilipatnam Highway, Kanuru, Vijayawada, Andhra Pradesh 520007, India",
    "VenueCode": "ABCR",
    "VenueName": "ABR Cinemas Neo Screen X:  Kanuru, Vijayawada"
  },
  "ABTK": {
    "AvailableFormats": "",
    "City": "Kottayam",
    "Latitude": "9.58599",
    "Longitude": "76.5244",
    "RegionCode": "ETTU",
    "State": "Kerala",
    "SubRegionCode": "ETTU",
    "VenueAddress": "M.C Road, Opp Kalyan Jewellery, Near Asha Theatre, Kottayam, Kerala 686001, India",
    "VenueCode": "ABTK",
    "VenueName": "Abhilash Theatre 4K RGB Laser 3D: Kottayam"
  },
  "ACCD": {
    "AvailableFormats": "2D",
    "City": "Deoria",
    "Latitude": "26.2107",
    "Longitude": "83.9653",
    "RegionCode": "DEEO",
    "State": "Uttar Pradesh",
    "SubRegionCode": "DEEO",
    "VenueAddress": "Mod, Beside Union Bank Of India, Lakhu, Lar, Deoria, Uttar Pradesh 274502, India",
    "VenueCode": "ACCD",
    "VenueName": "Aura Cineplex: Lar, Deoria"
  },
  "ACHV": {
    "AvailableFormats": "2D",
    "City": "Vijayawada",
    "Latitude": "16.5133",
    "Longitude": "80.6259",
    "RegionCode": "VIJA",
    "State": "Andhra Pradesh",
    "SubRegionCode": "VIJA",
    "VenueAddress": "Governor Peta, Eluru Road, Opposite Swarna Mutiplex, Vijayawada, Andhra Pradesh 520002, India",
    "VenueCode": "ACHV",
    "VenueName": "Apsara Cinema House: Vijayawada"
  },
  "ACKR": {
    "AvailableFormats": "2D",
    "City": "Karukachal",
    "Latitude": "9.50297",
    "Longitude": "76.64363",
    "RegionCode": "KAKC",
    "State": "Kerala",
    "SubRegionCode": "KAKC",
    "VenueAddress": "Karukachal Manimala Road, Neriyani Poika, Karukachal, Kerala 686540, India",
    "VenueCode": "ACKR",
    "VenueName": "Anchani Cinemas 4k RGB LASER ATMOS: Karukachal"
  },
  "ACNL": {
    "AvailableFormats": "2D",
    "City": "Nilanga",
    "Latitude": "18.1276",
    "Longitude": "76.7493",
    "RegionCode": "NLNG",
    "State": "Maharashtra",
    "SubRegionCode": "NLNG",
    "VenueAddress": "Nilanga Main Road, Opposite Nilanga Bus Stop, Nilanga, Maharashtra 413521, India",
    "VenueCode": "ACNL",
    "VenueName": "Ajanta Cineplex: Nilanga, Latur"
  },
  "ACSK": {
    "AvailableFormats": "2D",
    "City": "Shindkheda",
    "Latitude": "21.2726",
    "Longitude": "74.7454",
    "RegionCode": "SHDK",
    "State": "Maharashtra",
    "SubRegionCode": "SHDK",
    "VenueAddress": "Station Road, Near Bus Stand, Shindkheda, Maharashtra 425406, India",
    "VenueCode": "ACSK",
    "VenueName": "Ashok Chitramandir: Shindkheda"
  },
  "ACXB": {
    "AvailableFormats": "2D",
    "City": "Bhandara",
    "Latitude": "21.1761",
    "Longitude": "79.6388",
    "RegionCode": "BHAA",
    "State": "Maharashtra",
    "SubRegionCode": "BHAA",
    "VenueAddress": "Aswale Park, Samruddhi Nagar, Bhandara, Maharashtra 441906, India",
    "VenueCode": "ACXB",
    "VenueName": "AR Cineplex: Bhandara"
  },
  "ADGC": {
    "AvailableFormats": "2D",
    "City": "Narayanpur (CH)",
    "Latitude": "19.7218",
    "Longitude": "81.2415",
    "RegionCode": "NRYA",
    "State": "Chhattisgarh",
    "SubRegionCode": "NRYA",
    "VenueAddress": "Collectorate Road, Near Sports Ground, Narayanpur (CH), Chhattisgarh 494661, India",
    "VenueCode": "ADGC",
    "VenueName": "Adeshwar Global Cinemas: Narayanpur"
  },
  "AFST": {
    "AvailableFormats": "2D",
    "City": "Siddhpur",
    "Latitude": "23.9425",
    "Longitude": "72.3653",
    "RegionCode": "SIDD",
    "State": "Gujarat",
    "SubRegionCode": "SIDD",
    "VenueAddress": "Gokul Highway Food Mall, Highway Road, Near Sujanpur Patia, Siddhpur, Gujarat 384151, India",
    "VenueCode": "AFST",
    "VenueName": "Ajayshree Films (Gokul Theater): Siddhpur"
  },
  "AICP": {
    "AvailableFormats": "2D",
    "City": "Pallickathodu",
    "Latitude": "9.60499",
    "Longitude": "76.681",
    "RegionCode": "PKTU",
    "State": "Kerala",
    "SubRegionCode": "PKTU",
    "VenueAddress": "Kodungoor Road, Mutholy Pallickathodu, Near Federal Bank Pallikathodu, Pallickathodu, Kerala 686503, India",
    "VenueCode": "AICP",
    "VenueName": "Anchani Cinemas 4K Dolby Atmos: Pallickathodu"
  },
  "AKRF": {
    "AvailableFormats": "2D",
    "City": "Faridabad",
    "Latitude": "28.4553",
    "Longitude": "77.316",
    "RegionCode": "NCR",
    "State": "NCR",
    "SubRegionCode": "FARI",
    "VenueAddress": "SLF Mall St, Indraprastha Colony, Sector 32, Faridabad, NCR 121003, India",
    "VenueCode": "AKRF",
    "VenueName": "AKR Cinemas: SLF Mall, Faridabad"
  },
  "ALCS": {
    "AvailableFormats": "2D",
    "City": "Shirpur",
    "Latitude": "21.3442",
    "Longitude": "74.8805",
    "RegionCode": "SRUR",
    "State": "Maharashtra",
    "SubRegionCode": "SRUR",
    "VenueAddress": "Main Road, Krantinagar, Shirpur, Maharashtra 425405, India",
    "VenueCode": "ALCS",
    "VenueName": "Alankar Chitramandir: Shirpur"
  },
  "AMBH": {
    "AvailableFormats": "2D|3D",
    "City": "Hyderabad",
    "Latitude": "17.4578",
    "Longitude": "78.3642",
    "RegionCode": "HYD",
    "State": "Telangana",
    "SubRegionCode": "HYD",
    "VenueAddress": "Sarath City Capital Mall, Forest Dept Colony, Kondapur, Gachibowli - Miyapur Road, White Field Road, Opposite Mahindra Showroom, Hyderabad, Telangana 500084, India",
    "VenueCode": "AMBH",
    "VenueName": "AMB Cinemas: Gachibowli"
  },
  "AMDK": {
    "AvailableFormats": "2D",
    "City": "Devarakonda",
    "Latitude": "16.6908",
    "Longitude": "78.9227",
    "RegionCode": "DEVK",
    "State": "Telangana",
    "SubRegionCode": "DEVK",
    "VenueAddress": "Devarakonda Road, Mallepally Road, Near State Bank of India ATM, Devarakonda, Telangana 508248, India",
    "VenueCode": "AMDK",
    "VenueName": "Asian Manoj: Devarakonda"
  },
  "AMNG": {
    "AvailableFormats": "3D|2D",
    "City": "Nagpur",
    "Latitude": "21.086",
    "Longitude": "79.0911",
    "RegionCode": "NAGP",
    "State": "Maharashtra",
    "SubRegionCode": "NAGP",
    "VenueAddress": "2nd Floor, Jayanti Nagri 5 Mall, Besa Road, Above Haldirams, Nagpur, Maharashtra 440027, India",
    "VenueCode": "AMNG",
    "VenueName": "AM Cinema: Manish Nagar, Nagpur"
  },
  "AMZB": {
    "AvailableFormats": "2D",
    "City": "Zaheerabad",
    "Latitude": "17.6803",
    "Longitude": "77.6154",
    "RegionCode": "ZAGE",
    "State": "Telangana",
    "SubRegionCode": "ZAGE",
    "VenueAddress": "Main Road, Opposite to Bus Stand, Zaheerabad, Telangana 502220, India",
    "VenueCode": "AMZB",
    "VenueName": "Asian Sri Mohan: Zaheerabad"
  },
  "ANCV": {
    "AvailableFormats": "",
    "City": "Varanasi",
    "Latitude": "25.328384",
    "Longitude": "82.995",
    "RegionCode": "VAR",
    "State": "Uttar Pradesh",
    "SubRegionCode": "VAR",
    "VenueAddress": "S 13/18, Anand Mandir Andhrapull, Teliyabag, Raja Bazar Road, Varanasi, Uttar Pradesh 221002, India",
    "VenueCode": "ANCV",
    "VenueName": "Anand Mandir Cinema: Varanasi"
  },
  "ANRR": {
    "AvailableFormats": "2D",
    "City": "Kanpur",
    "Latitude": "26.4643",
    "Longitude": "80.3573",
    "RegionCode": "KANP",
    "State": "Uttar Pradesh",
    "SubRegionCode": "KANP",
    "VenueAddress": "Birhana Road, Naughara, General Ganj, Kanpur, Uttar Pradesh 208001, India",
    "VenueCode": "ANRR",
    "VenueName": "Navrang Cineplex: Kanpur"
  },
  "AOCH": {
    "AvailableFormats": "2D",
    "City": "Nabadwip",
    "Latitude": "23.4051",
    "Longitude": "88.3661",
    "RegionCode": "NABB",
    "State": "West Bengal",
    "SubRegionCode": "NABB",
    "VenueAddress": "78, Banerjee Para Road, Near Allahabad Bank, Nabadwip, West Bengal 741302, India",
    "VenueCode": "AOCH",
    "VenueName": "Alochaya Cinema: Nabadwip"
  },
  "APJC": {
    "AvailableFormats": "2D",
    "City": "Madurai",
    "Latitude": "9.90666",
    "Longitude": "78.0975",
    "RegionCode": "MADU",
    "State": "Tamil Nadu",
    "SubRegionCode": "MADU",
    "VenueAddress": "No. 6 Kambar street, Pasumpon Nagar, Madurai, Tamil Nadu 625003, India",
    "VenueCode": "APJC",
    "VenueName": "APR Cinemas Jeyam AC Christie 4K Dolby: Madurai"
  },
  "APSC": {
    "AvailableFormats": "3D|2D",
    "City": "Changanassery",
    "Latitude": "9.44915",
    "Longitude": "76.5436",
    "RegionCode": "CNSY",
    "State": "Kerala",
    "SubRegionCode": "CNSY",
    "VenueAddress": "Aramanapady, Palace Road, Near South Indian Bank, Changanassery, Kerala 686101, India",
    "VenueCode": "APSC",
    "VenueName": "Apsara Theatre Dolby 7.1: Changanassery"
  },
  "ARBL": {
    "AvailableFormats": "2D",
    "City": "Buldana",
    "Latitude": "20.5467",
    "Longitude": "76.1763",
    "RegionCode": "BULD",
    "State": "Maharashtra",
    "SubRegionCode": "BULD",
    "VenueAddress": "ARD Green Valley, Malkapur Road, Opposite Hero Honda Showroom, Buldana, Maharashtra 443001, India",
    "VenueCode": "ARBL",
    "VenueName": "ARD Cinemall: Buldana"
  },
  "ARMH": {
    "AvailableFormats": "2D",
    "City": "Hyderabad",
    "Latitude": "17.4767",
    "Longitude": "78.5632",
    "RegionCode": "HYD",
    "State": "Telangana",
    "SubRegionCode": "HYD",
    "VenueAddress": "Anupuram Colony, Dr A S Rao Nagar Road, ECIL Main Road, Near Parivaar Banquet Halls, Hyderabad, Telangana 500062, India",
    "VenueCode": "ARMH",
    "VenueName": "Asian Radhika Multiplex: ECIL"
  },
  "ARYH": {
    "AvailableFormats": "2D",
    "City": "Hyderabad",
    "Latitude": "17.3967",
    "Longitude": "78.5608",
    "RegionCode": "HYD",
    "State": "Telangana",
    "SubRegionCode": "HYD",
    "VenueAddress": "Raj Laxmi Theater, 2-1-40, Uppal Ring Road, Raj Nagar, Uppal, Near Indane Gas Service, Hyderabad, Telangana 500039, India",
    "VenueCode": "ARYH",
    "VenueName": "Asian Rajya Lakshmi: Uppal"
  },
  "ASHC": {
    "AvailableFormats": "2D",
    "City": "Pune",
    "Latitude": "18.6148",
    "Longitude": "73.8039",
    "RegionCode": "PUNE",
    "State": "Maharashtra",
    "SubRegionCode": "PUNE",
    "VenueAddress": "Shastri Nagar, Pimpri Colony, Pune, Maharashtra 411017, India",
    "VenueCode": "ASHC",
    "VenueName": "Ashok Theatre: Pimpri"
  },
  "ASMR": {
    "AvailableFormats": "2D",
    "City": "Miryalaguda",
    "Latitude": "16.8703",
    "Longitude": "79.5631",
    "RegionCode": "MRGD",
    "State": "Telangana",
    "SubRegionCode": "MRGD",
    "VenueAddress": "Islampura Road, Beside Madhusudhan Reddy Hospital, Miryalaguda, Telangana 508207, India",
    "VenueCode": "ASMR",
    "VenueName": "Asian Srinivasa Theater: Miryalaguda"
  },
  "ASSA": {
    "AvailableFormats": "2D",
    "City": "Mancherial",
    "Latitude": "18.8705",
    "Longitude": "79.4472",
    "RegionCode": "MANC",
    "State": "Telangana",
    "SubRegionCode": "MANC",
    "VenueAddress": "Station Road, Mancherial, Mancherial, Telangana 504302, India",
    "VenueCode": "ASSA",
    "VenueName": "Asian Srinivasa: Mancherial"
  },
  "ASTS": {
    "AvailableFormats": "2D",
    "City": "Davanagere",
    "Latitude": "14.4673",
    "Longitude": "75.9249",
    "RegionCode": "DAVA",
    "State": "Karnataka",
    "SubRegionCode": "DAVA",
    "VenueAddress": "SH 65, Ashoka Road, KB Extension, Near Railway Gate, Davanagere, Karnataka 577001, India",
    "VenueCode": "ASTS",
    "VenueName": "Ashoka Talkies: Davanagere"
  },
  "ATCK": {
    "AvailableFormats": "3D|2D",
    "City": "Kolkata",
    "Latitude": "22.7641",
    "Longitude": "88.3696",
    "RegionCode": "BARR",
    "State": "West Bengal",
    "SubRegionCode": "BARR",
    "VenueAddress": "91-73, Ghosh Para Road, North 24Pgs, Barrackpore, Near Barrackpore Railway Station, Kolkata, West Bengal 700120, India",
    "VenueCode": "ATCK",
    "VenueName": "Atindra Cinema: Barrackpore"
  },
  "ATKY": {
    "AvailableFormats": "",
    "City": "Kottayam",
    "Latitude": "9.589517",
    "Longitude": "76.51791",
    "RegionCode": "KTYM",
    "State": "Kerala",
    "SubRegionCode": "KTYM",
    "VenueAddress": "Palace Road, Thirunakara, Behind Bharath Hospital Puthenangady, Kottayam, Kerala 686001, India",
    "VenueCode": "ATKY",
    "VenueName": "Anaswara Theatre 2K Triple Beam 3D: Kottayam"
  },
  "ATTS": {
    "AvailableFormats": "2D",
    "City": "Hoshiarpur",
    "Latitude": "31.5552",
    "Longitude": "75.8694",
    "RegionCode": "TNDA",
    "State": "Punjab",
    "SubRegionCode": "TNDA",
    "VenueAddress": "Tanda Road, Bharat Petroleum, Hoshiarpur, Hoshiarpur, Punjab 146001, India",
    "VenueCode": "ATTS",
    "VenueName": "AG Star Cinemaz Hoshiarpur (Near Amber Palace)"
  },
  "AVCH": {
    "AvailableFormats": "2D",
    "City": "Khandwa",
    "Latitude": "21.8169",
    "Longitude": "76.3434",
    "RegionCode": "KHDW",
    "State": "Madhya Pradesh",
    "SubRegionCode": "KHDW",
    "VenueAddress": "Burhanpur - Pandhana Road, Plot No.106, Kunbi, East Nimar, Khandwa, Madhya Pradesh 450001, India",
    "VenueCode": "AVCH",
    "VenueName": "Abhishek Veer Cinemas: Khandwa"
  },
  "AWCT": {
    "AvailableFormats": "2D",
    "City": "Thodupuzha",
    "Latitude": "9.90285",
    "Longitude": "76.7153",
    "RegionCode": "THOD",
    "State": "Kerala",
    "SubRegionCode": "THOD",
    "VenueAddress": "Silver Hills, Mount Sinai Road, Near Mount Senai Hospital, Thodupuzha, Kerala 685584, India",
    "VenueCode": "AWCT",
    "VenueName": "Silver Hills Naxa Cinemas 4K Dolby ATMOS"
  },
  "AYOU": {
    "AvailableFormats": "2D",
    "City": "Pithampur",
    "Latitude": "22.6153",
    "Longitude": "75.6509",
    "RegionCode": "PITH",
    "State": "Madhya Pradesh",
    "SubRegionCode": "PITH",
    "VenueAddress": "S 24 Mall, Mhow Neemuch Road, Bardari Gram, Pithampur, Madhya Pradesh 454775, India",
    "VenueCode": "AYOU",
    "VenueName": "AYOU Cinemas: Pithampur"
  },
  "BARA": {
    "AvailableFormats": "2D",
    "City": "Kolkata",
    "Latitude": "22.5794",
    "Longitude": "88.4595",
    "RegionCode": "KOLK",
    "State": "West Bengal",
    "SubRegionCode": "KOLK",
    "VenueAddress": "4TH Floor, Axis Mall, 1C, 11, CF Block(Newtown), Action Area 1C, CF-9 New Town, Rajarhat, Near Novotel Kolkata Hotel And Residences, Kolkata, West Bengal 700156, India",
    "VenueCode": "BARA",
    "VenueName": "Bioscope: Axis Mall, Rajarhat"
  },
  "BBTC": {
    "AvailableFormats": "2D",
    "City": "Channapatna",
    "Latitude": "12.6456",
    "Longitude": "77.1945",
    "RegionCode": "CPTN",
    "State": "Karnataka",
    "SubRegionCode": "CPTN",
    "VenueAddress": "16th Cross, Mangalavara Pete Road, Near Big Bazar, Channapatna, Karnataka 562160, India",
    "VenueCode": "BBTC",
    "VenueName": "Sri Balaji Talkies: Channapatna"
  },
  "BCWG": {
    "AvailableFormats": "2D|3D",
    "City": "Ghaziabad",
    "Latitude": "28.6797",
    "Longitude": "77.3819",
    "RegionCode": "NCR",
    "State": "NCR",
    "SubRegionCode": "GHAZ",
    "VenueAddress": "Bhutani City Centre, Ghaziabad T-Point, Mohan Nagar, Near Air Force Station Hindon, Ghaziabad, NCR 201007, India",
    "VenueCode": "BCWG",
    "VenueName": "B18 Cinemas (Bhutani Cineplex) City Center GZB"
  },
  "BHAC": {
    "AvailableFormats": "2D",
    "City": "Bengaluru",
    "Latitude": "13.0415",
    "Longitude": "77.5175",
    "RegionCode": "HOKT",
    "State": "Karnataka",
    "SubRegionCode": "HOKT",
    "VenueAddress": "Prashanth Nagar, T. Dasarahalli, Dasara Halli Cross, Next To Rockline Mall, Bengaluru, Karnataka 560057, India",
    "VenueCode": "BHAC",
    "VenueName": "Bharathi Theatre (Peenya) A/C 4K 7.1 Dolby Digital"
  },
  "BIJH": {
    "AvailableFormats": "2D",
    "City": "Jhabua",
    "Latitude": "22.7609",
    "Longitude": "74.5879",
    "RegionCode": "JHAB",
    "State": "Madhya Pradesh",
    "SubRegionCode": "JHAB",
    "VenueAddress": "Infront of College Ground, Ranapur Road, Jhabua, Madhya Pradesh 457661, India",
    "VenueCode": "BIJH",
    "VenueName": "B4 Cinema: Jhabua"
  },
  "BJTS": {
    "AvailableFormats": "2D",
    "City": "Chikkaballapur",
    "Latitude": "13.4311",
    "Longitude": "77.7307",
    "RegionCode": "CHIK",
    "State": "Karnataka",
    "SubRegionCode": "CHIK",
    "VenueAddress": "B B Road, Near Chikkaballapur Road, Chikkaballapur, Karnataka 562101, India",
    "VenueCode": "BJTS",
    "VenueName": "Balaji Talkies: Chikkaballapura"
  },
  "BLJI": {
    "AvailableFormats": "2D",
    "City": "Vijayawada",
    "Latitude": "16.4726",
    "Longitude": "80.7163",
    "RegionCode": "KADU",
    "State": "Andhra Pradesh",
    "SubRegionCode": "KADU",
    "VenueAddress": "Bundar Road, Poranki, Near Priya Foods, Vijayawada, Andhra Pradesh 521137, India",
    "VenueCode": "BLJI",
    "VenueName": "Balaji Cine Villa: Vijayawada"
  },
  "BMRV": {
    "AvailableFormats": "2D",
    "City": "Veeraghattam",
    "Latitude": "18.6896",
    "Longitude": "83.6086",
    "RegionCode": "VEER",
    "State": "Andhra Pradesh",
    "SubRegionCode": "VEER",
    "VenueAddress": "Jiyyammavalasa Road, Down street, Veeraghattam, Andhra Pradesh 532460, India",
    "VenueCode": "BMRV",
    "VenueName": "BMR CINEMAX: Veeraghattam"
  },
  "BPKC": {
    "AvailableFormats": "",
    "City": "Bhopal",
    "Latitude": "23.144285",
    "Longitude": "77.497505",
    "RegionCode": "BHOP",
    "State": "Madhya Pradesh",
    "SubRegionCode": "BHOP",
    "VenueAddress": "2nd Floor, British Park Minimall,11th Mile, Hoshanagabad Road, Opposite IPER College, Bhopal, Madhya Pradesh 462026, India",
    "VenueCode": "BPKC",
    "VenueName": "British Park Cineplex: Bhopal"
  },
  "BSMP": {
    "AvailableFormats": "2D",
    "City": "Ambikapur",
    "Latitude": "23.1147",
    "Longitude": "83.198",
    "RegionCode": "AMBI",
    "State": "Chhattisgarh",
    "SubRegionCode": "AMBI",
    "VenueAddress": "Kharsia Road, Beside Hotel Grand Basant, NH 78, Ambikapur, Chhattisgarh 497001, India",
    "VenueCode": "BSMP",
    "VenueName": "Basant Multiplex: Ambikapur"
  },
  "BTDA": {
    "AvailableFormats": "2D",
    "City": "Acharapakkam",
    "Latitude": "12.4071",
    "Longitude": "79.8161",
    "RegionCode": "ACHA",
    "State": "Tamil Nadu",
    "SubRegionCode": "ACHA",
    "VenueAddress": "Periyar Nagar, Acharapakam, Near Abhiram Honda Showroom, Acharapakkam, Tamil Nadu 603301, India",
    "VenueCode": "BTDA",
    "VenueName": "Balaji Theatre A/C Dolby 7.1: Acharapakkam"
  },
  "BWCM": {
    "AvailableFormats": "2D",
    "City": "Georai",
    "Latitude": "19.2639",
    "Longitude": "75.7489",
    "RegionCode": "GEOR",
    "State": "Maharashtra",
    "SubRegionCode": "GEOR",
    "VenueAddress": "S No. 59, Shivaji Complex, Georai Main Road, Shastri Chowk Bus Stand Road, Dist-Beed, Georai, Maharashtra 431127, India",
    "VenueCode": "BWCM",
    "VenueName": "Bhagwati Chitra Mandir: Georai"
  },
  "CAIS": {
    "AvailableFormats": "2D",
    "City": "Kochi",
    "Latitude": "10.1068",
    "Longitude": "76.3631",
    "RegionCode": "PALY",
    "State": "Kerala",
    "SubRegionCode": "PALY",
    "VenueAddress": "Little Flower Ln, Periyar Nagar, Perumbavoor Aluva Road, Near Passport Office, Kochi, Kerala 683101, India",
    "VenueCode": "CAIS",
    "VenueName": "Casino Talkies A/C Real Laser 3D DOLBY 7.1: Aluva"
  },
  "CCAD": {
    "AvailableFormats": "2D",
    "City": "Anand",
    "Latitude": "22.5673",
    "Longitude": "72.9433",
    "RegionCode": "AND",
    "State": "Gujarat",
    "SubRegionCode": "AND",
    "VenueAddress": "Lambhvel Road, Purushottam Nagar, Anand, Gujarat 388001, India",
    "VenueCode": "CCAD",
    "VenueName": "Connplex Cinemas: Anand"
  },
  "CCDU": {
    "AvailableFormats": "",
    "City": "Dehradun",
    "Latitude": "30.32804",
    "Longitude": "78.04471",
    "RegionCode": "DEH",
    "State": "Uttarakhand",
    "SubRegionCode": "DEH",
    "VenueAddress": "19, Rajpur Road, Chukkuwala, Near State Bank Of India, Dehradun, Uttarakhand 248001, India",
    "VenueCode": "CCDU",
    "VenueName": "Chhayadeep Cinema: Dehradun"
  },
  "CCKP": {
    "AvailableFormats": "2D",
    "City": "Kalol (Panchmahal)",
    "Latitude": "22.6112",
    "Longitude": "73.4662",
    "RegionCode": "PANH",
    "State": "Gujarat",
    "SubRegionCode": "PANH",
    "VenueAddress": "Cinema City, GJ SH 87, Near Lal Darwaja, Jantral, Kalol (Panchmahal), Gujarat 389330, India",
    "VenueCode": "CCKP",
    "VenueName": "FUN Cinemas Cinema City Multiplex: Kalol"
  },
  "CCMP": {
    "AvailableFormats": "3D|2D",
    "City": "Navi Mumbai",
    "Latitude": "18.9991",
    "Longitude": "73.123",
    "RegionCode": "MUMBAI",
    "State": "Maharashtra",
    "SubRegionCode": "THAN",
    "VenueAddress": "Plot 1/3 Shubham Commercial Complex, Sector 11 New Panvel, Near Punjab National Bank Near Ganaraj Auto Service And Petrol Pump, Navi Mumbai, Maharashtra 410206, India",
    "VenueCode": "CCMP",
    "VenueName": "Miraj Cineraj Cinemas: Panvel"
  },
  "CCPN": {
    "AvailableFormats": "2D",
    "City": "Pathalgaon",
    "Latitude": "22.5576",
    "Longitude": "83.4644",
    "RegionCode": "PAHT",
    "State": "Chhattisgarh",
    "SubRegionCode": "PAHT",
    "VenueAddress": "C2 Cinemas, 3rd Floor HM Tower, Jashpur Road, Pathalgaon, Chhattisgarh 496118, India",
    "VenueCode": "CCPN",
    "VenueName": "C2 Cinema: Pathalgaon"
  },
  "CCSP": {
    "AvailableFormats": "",
    "City": "Patna",
    "Latitude": "25.6188",
    "Longitude": "85.0483",
    "RegionCode": "PATN",
    "State": "Bihar",
    "SubRegionCode": "PATN",
    "VenueAddress": "Bailey Road, Shri Krishna Puram, Opposite RPS More, Patna, Bihar 801503, India",
    "VenueCode": "CCSP",
    "VenueName": "Cinema Cafe Max Western Mall, Opp RPS More: Patna"
  },
  "CDOK": {
    "AvailableFormats": "2D",
    "City": "Jajpur Road",
    "Latitude": "20.9518",
    "Longitude": "86.1306",
    "RegionCode": "JAJP",
    "State": "Odisha",
    "SubRegionCode": "JAJP",
    "VenueAddress": "Utkal Centre Point Mall, Chorda Bypass Square, Byasanagar Main Road, Jajpur Road, Odisha 755019, India",
    "VenueCode": "CDOK",
    "VenueName": "Connplex Cinemas (Signature): Utkal Centre Point"
  },
  "CEPO": {
    "AvailableFormats": "2D",
    "City": "Pune",
    "Latitude": "18.518",
    "Longitude": "73.8561",
    "RegionCode": "PUNE",
    "State": "Maharashtra",
    "SubRegionCode": "PUNE",
    "VenueAddress": "Near Nana Wada, Chhatrapati Shivaji Maharaj Road, Budhwar Peth, Pune, Maharashtra 411002, India",
    "VenueCode": "CEPO",
    "VenueName": "CinePRO: Vasant Cinema, Pune"
  },
  "CGCB": {
    "AvailableFormats": "",
    "City": "Bathinda",
    "Latitude": "30.1649",
    "Longitude": "74.9233",
    "RegionCode": "BHAT",
    "State": "Punjab",
    "SubRegionCode": "BHAT",
    "VenueAddress": "3rd Floor, Green city square, Near AIIMS hospital, Dabwali Road, Bathinda, Punjab 151001, India",
    "VenueCode": "CGCB",
    "VenueName": "Cinepolis: Green City Square, Bathinda"
  },
  "CGOS": {
    "AvailableFormats": "2D",
    "City": "Ahmedabad",
    "Latitude": "23.0157",
    "Longitude": "72.5294",
    "RegionCode": "AHD",
    "State": "Gujarat",
    "SubRegionCode": "AHD",
    "VenueAddress": "Near Shyamal, Cross Road, 132 Feet Ring Road, Ahmedabad, Gujarat 380015, India",
    "VenueCode": "CGOS",
    "VenueName": "City Gold Satellite: Ahmedabad"
  },
  "CHKM": {
    "AvailableFormats": "2D",
    "City": "Kadalundi",
    "Latitude": "11.1549",
    "Longitude": "75.8473",
    "RegionCode": "KOZH",
    "State": "Kerala",
    "SubRegionCode": "KOZH",
    "VenueAddress": "8/567, Mannur Valavu, Mannur Valavu, Kadalundi, Kadalundi, Kerala 673328, India",
    "VenueCode": "CHKM",
    "VenueName": "Chithra Cineplex 4K RGB Laser dtsX: Mannur Valavu"
  },
  "CIBA": {
    "AvailableFormats": "2D",
    "City": "Korba",
    "Latitude": "22.3513",
    "Longitude": "82.6993",
    "RegionCode": "KRBA",
    "State": "Chhattisgarh",
    "SubRegionCode": "KRBA",
    "VenueAddress": "City Center Mall, B-10, Purani Basti, Power House Road, Korba, Chhattisgarh 495678, India",
    "VenueCode": "CIBA",
    "VenueName": "Cinemood Multiplex (Dolby Atmos Sound): Korba"
  },
  "CIMN": {
    "AvailableFormats": "",
    "City": "Greater Noida",
    "Latitude": "28.457985",
    "Longitude": "77.52814",
    "RegionCode": "NCR",
    "State": "NCR",
    "SubRegionCode": "GRET",
    "VenueAddress": "MSX Mall, Sector Swarn Nagri, Plot No. K-4, 4th Avenue, Sector 18 Block F, Industrial Area, Greater Noida, NCR 201310, India",
    "VenueCode": "CIMN",
    "VenueName": "Cineport Cinemas: MSX Mall, Greater Noida"
  },
  "CKMC": {
    "AvailableFormats": "2D",
    "City": "Palakkad",
    "Latitude": "10.7566",
    "Longitude": "76.5009",
    "RegionCode": "PLKK",
    "State": "Kerala",
    "SubRegionCode": "PLKK",
    "VenueAddress": "Kuzhalmannam mankara Road, Pilappulli, Peringottukurissi, Near Peringottukurissi Service Cooperative Bank, Palakkad, Kerala 678573, India",
    "VenueCode": "CKMC",
    "VenueName": "CKM Victory Cinemas: Peringottukurissi"
  },
  "CLDR": {
    "AvailableFormats": "2D",
    "City": "Ramanathapuram",
    "Latitude": "9.35868",
    "Longitude": "78.8433",
    "RegionCode": "RAPU",
    "State": "Tamil Nadu",
    "SubRegionCode": "RAPU",
    "VenueAddress": "9R5V+F8C, Mandapam Road, Kadampa Nagar, Ramanathapuram, Tamil Nadu 623501, India",
    "VenueCode": "CLDR",
    "VenueName": "The Cine Lounge Dolby 7.1: GSM Mall Ramanathapuram"
  },
  "CLSB": {
    "AvailableFormats": "2D",
    "City": "Siwan",
    "Latitude": "26.2307",
    "Longitude": "84.3694",
    "RegionCode": "SWNB",
    "State": "Bihar",
    "SubRegionCode": "SWNB",
    "VenueAddress": "Chandrika Tower, Gaushala Road, Pakdi Bus Stand, Siwan, Bihar 841226, India",
    "VenueCode": "CLSB",
    "VenueName": "Connplex Cinemas (Luxuriance): Siwan"
  },
  "CMCT": {
    "AvailableFormats": "2D",
    "City": "Thamarassery",
    "Latitude": "11.4148",
    "Longitude": "75.9358",
    "RegionCode": "KOZH",
    "State": "Kerala",
    "SubRegionCode": "KOZH",
    "VenueAddress": "City Mall, Thamarassery, Kerala, Thamarassery, Kerala 673573, India",
    "VenueCode": "CMCT",
    "VenueName": "City Mall Cinemas: Thamarassery"
  },
  "CMMH": {
    "AvailableFormats": "2D",
    "City": "Bhandara",
    "Latitude": "21.0849",
    "Longitude": "79.782",
    "RegionCode": "BHAA",
    "State": "Maharashtra",
    "SubRegionCode": "BHAA",
    "VenueAddress": "Lakhani, Gadegaon, Opposite - Ashok Leyland, Bhandara, Maharashtra 441804, India",
    "VenueCode": "CMMH",
    "VenueName": "Chhotu Maharaj Cine Cafe: Lakhani"
  },
  "CMSA": {
    "AvailableFormats": "2D",
    "City": "Shrigonda",
    "Latitude": "18.6277",
    "Longitude": "74.6887",
    "RegionCode": "SHRI",
    "State": "Maharashtra",
    "SubRegionCode": "SHRI",
    "VenueAddress": "Pargaon, Ahmednagar Road, Shrigonda, Maharashtra 413701, India",
    "VenueCode": "CMSA",
    "VenueName": "Chhotu Maharaj Cine Cafe: Shrigonda"
  },
  "CMVB": {
    "AvailableFormats": "2D",
    "City": "Vikarabad",
    "Latitude": "17.3464",
    "Longitude": "77.9056",
    "RegionCode": "VKBD",
    "State": "Telangana",
    "SubRegionCode": "VKBD",
    "VenueAddress": "Vikarabad - Mominpet Road, Alampally, Near Petrol Pump, Opposite Fathe Garden Function Hall, Vikarabad, Telangana 501101, India",
    "VenueCode": "CMVB",
    "VenueName": "Cinemax: Vikarabad"
  },
  "CNAD": {
    "AvailableFormats": "",
    "City": "Ahmedabad",
    "Latitude": "23.163",
    "Longitude": "72.5399",
    "RegionCode": "AHD",
    "State": "Gujarat",
    "SubRegionCode": "AHD",
    "VenueAddress": "306-308, Center Point, Adani Shantigram Township, Khodiyar, Ahmedabad, Gujarat 382501, India",
    "VenueCode": "CNAD",
    "VenueName": "Connplex Cinemas (Luxuriance): Adani Shantigram"
  },
  "CNFX": {
    "AvailableFormats": "2D",
    "City": "Datia",
    "Latitude": "25.6653",
    "Longitude": "78.4609",
    "RegionCode": "DATI",
    "State": "Madhya Pradesh",
    "SubRegionCode": "DATI",
    "VenueAddress": "National Highway 44 Jhansi road, First floor Ratan mega mall, Near District and sessions court, Datia, Madhya Pradesh 475661, India",
    "VenueCode": "CNFX",
    "VenueName": "Cineflix Cinemas: Datia"
  },
  "CNPS": {
    "AvailableFormats": "3D|2D",
    "City": "Bilaspur",
    "Latitude": "22.071",
    "Longitude": "82.1504",
    "RegionCode": "BILA",
    "State": "Chhattisgarh",
    "SubRegionCode": "BILA",
    "VenueAddress": "4th Floor, Shri Krishna Central Mall, Vinoba Nagar, Bilaspur, Chhattisgarh 495001, India",
    "VenueCode": "CNPS",
    "VenueName": "Connplex Cinemas (Signature) : Bilaspur"
  },
  "CNVG": {
    "AvailableFormats": "2D",
    "City": "Gurugram (Gurgaon)",
    "Latitude": "28.4157",
    "Longitude": "77.1027",
    "RegionCode": "NCR",
    "State": "NCR",
    "SubRegionCode": "GURG",
    "VenueAddress": "Ireo Grand View High Street, Golf Course Extension Road, Sector 58, Gurugram (Gurgaon), NCR 122102, India",
    "VenueCode": "CNVG",
    "VenueName": "Cinepolis: Grand View High Street, Gurugram"
  },
  "CONX": {
    "AvailableFormats": "2D",
    "City": "Bettiah",
    "Latitude": "26.809",
    "Longitude": "84.516",
    "RegionCode": "BETA",
    "State": "Bihar",
    "SubRegionCode": "BETA",
    "VenueAddress": "Kishore Kunj, Sant Kabir Road, Banuchapara, West Champaran, Bettiah, Bihar 845438, India",
    "VenueCode": "CONX",
    "VenueName": "Connplex Cinemas (Signature): Bettiah"
  },
  "CPCK": {
    "AvailableFormats": "2D|IMAX 2D",
    "City": "Kochi",
    "Latitude": "9.97799",
    "Longitude": "76.2833",
    "RegionCode": "KOCH",
    "State": "Kerala",
    "SubRegionCode": "KOCH",
    "VenueAddress": "6th floor, M.G.Rroad, Ernakulam, Near Abad Plaza Hotel, Kochi, Kerala 682035, India",
    "VenueCode": "CPCK",
    "VenueName": "Cinepolis: Centre Square, Kochi"
  },
  "CPGV": {
    "AvailableFormats": "3D|2D",
    "City": "Greater Noida",
    "Latitude": "28.4529",
    "Longitude": "77.526",
    "RegionCode": "NCR",
    "State": "NCR",
    "SubRegionCode": "GRET",
    "VenueAddress": "Plot No SH 3, Site IV, Greater Noida, Near Pari Chowk, Greater Noida, NCR 201308, India",
    "VenueCode": "CPGV",
    "VenueName": "Cinepolis: Grand Venice Mall, Greater Noida"
  },
  "CPKT": {
    "AvailableFormats": "3D|2D",
    "City": "Pune",
    "Latitude": "18.4997",
    "Longitude": "73.821",
    "RegionCode": "PUNE",
    "State": "Maharashtra",
    "SubRegionCode": "PUNE",
    "VenueAddress": "Survey No.20/1,2, Kothrud, Near Tara Residency, Pune, Maharashtra 411038, India",
    "VenueCode": "CPKT",
    "VenueName": "City Pride: Kothrud"
  },
  "CPMX": {
    "AvailableFormats": "",
    "City": "Jasdan",
    "Latitude": "22.024336",
    "Longitude": "71.17932",
    "RegionCode": "JASD",
    "State": "Gujarat",
    "SubRegionCode": "JASD",
    "VenueAddress": "Ring Road, Atkot Road, Aanand Nagar, Jasdan, Gujarat 360050, India",
    "VenueCode": "CPMX",
    "VenueName": "City Pride Multiplex: Jasdan"
  },
  "CPRP": {
    "AvailableFormats": "2D|3D",
    "City": "Pune",
    "Latitude": "18.5933",
    "Longitude": "73.7864",
    "RegionCode": "PUNE",
    "State": "Maharashtra",
    "SubRegionCode": "PUNE",
    "VenueAddress": "Spot-18 Mall, 3rd Floor, Rahatani Rd, Pimpri Chinchwad, Pune, Maharashtra 411017, India",
    "VenueCode": "CPRP",
    "VenueName": "City Pride Royal Cinemas: Rahatani"
  },
  "CPUS": {
    "AvailableFormats": "2D",
    "City": "Surat",
    "Latitude": "21.1361",
    "Longitude": "72.7521",
    "RegionCode": "SURT",
    "State": "Gujarat",
    "SubRegionCode": "SURT",
    "VenueAddress": "Dumas Road, Opposite L and T Colony, Near Magdalla Circle, Surat, Gujarat 395007, India",
    "VenueCode": "CPUS",
    "VenueName": "City Plus Multiplex: Surat"
  },
  "CRJG": {
    "AvailableFormats": "2D",
    "City": "Jayamkondacholapuram",
    "Latitude": "11.2143",
    "Longitude": "79.3613",
    "RegionCode": "JYAM",
    "State": "Tamil Nadu",
    "SubRegionCode": "JYAM",
    "VenueAddress": "National Highway 227, Jayakondam, Near JK Plaza, Jayamkondacholapuram, Tamil Nadu 621802, India",
    "VenueCode": "CRJG",
    "VenueName": "CR Palace Theatre A/C 4K HD Dolby Digital 7.1"
  },
  "CSCV": {
    "AvailableFormats": "2D|3D",
    "City": "Vizag (Visakhapatnam)",
    "Latitude": "17.8083",
    "Longitude": "83.3751",
    "RegionCode": "VIZA",
    "State": "Andhra Pradesh",
    "SubRegionCode": "VIZA",
    "VenueAddress": "100 Feet Road, Madhurawada, Vizag (Visakhapatnam), Andhra Pradesh 530048, India",
    "VenueCode": "CSCV",
    "VenueName": "Cinepolis: Sreekanya Cineglitz, Madhurawada"
  },
  "CSSA": {
    "AvailableFormats": "2D|3D",
    "City": "Ahilyanagar (Ahmednagar)",
    "Latitude": "19.1192",
    "Longitude": "74.7289",
    "RegionCode": "AHMED",
    "State": "Maharashtra",
    "SubRegionCode": "AHMED",
    "VenueAddress": "3rd Floor, Kohinoor Mall, Premdan Chowk, Opposite Big Bazar, Ahilyanagar (Ahmednagar), Maharashtra 414003, India",
    "VenueCode": "CSSA",
    "VenueName": "Connplex Cinemas: Ahilyanagar"
  },
  "CSTR": {
    "AvailableFormats": "2D",
    "City": "Rajkot",
    "Latitude": "22.276",
    "Longitude": "70.7415",
    "RegionCode": "RAJK",
    "State": "Gujarat",
    "SubRegionCode": "RAJK",
    "VenueAddress": "2nd Ring Road, Serenity Garden Road, Near Valupani restaurant, Rajkot, Gujarat 360004, India",
    "VenueCode": "CSTR",
    "VenueName": "Connplex Cinemas: Rajkot"
  },
  "CTLC": {
    "AvailableFormats": "2D",
    "City": "Chapra",
    "Latitude": "25.7875",
    "Longitude": "84.7145",
    "RegionCode": "CHPR",
    "State": "Bihar",
    "SubRegionCode": "CHPR",
    "VenueAddress": "Ware House Colony, Main Road, Near Gudri Chowk, Chapra, Bihar 841301, India",
    "VenueCode": "CTLC",
    "VenueName": "Cinemaoo The Luxury: Chapra"
  },
  "CTNR": {
    "AvailableFormats": "",
    "City": "Hyderabad",
    "Latitude": "17.503",
    "Longitude": "78.4773",
    "RegionCode": "HYD",
    "State": "Telangana",
    "SubRegionCode": "HYD",
    "VenueAddress": "Cinepolis TNR North City, SY No 85 and 89, NH-44, 7, Suchitra Road, NH-44, 7, Suchitra Road, Hyderabad, Telangana 500055, India",
    "VenueCode": "CTNR",
    "VenueName": "Cinepolis: TNR North City, Suchitra, Hyderabad"
  },
  "CUDN": {
    "AvailableFormats": "",
    "City": "Nagpur",
    "Latitude": "20.8422",
    "Longitude": "79.3181",
    "RegionCode": "NAGP",
    "State": "Maharashtra",
    "SubRegionCode": "NAGP",
    "VenueAddress": "Plot No. 1, 2, and 3, Giradkar Layout, Bypass Road, Nagpur, Maharashtra 441203, India",
    "VenueCode": "CUDN",
    "VenueName": "Chhotu Maharaj: Umred, Nagpur"
  },
  "CVMU": {
    "AvailableFormats": "",
    "City": "Hyderabad",
    "Latitude": "17.402",
    "Longitude": "78.5719",
    "RegionCode": "HYD",
    "State": "Telangana",
    "SubRegionCode": "HYD",
    "VenueAddress": "Main Road, IBP Petrol Bunk, Shanthi Nagar, Medchal Malkajgiri, Hyderabad, Telangana 500039, India",
    "VenueCode": "CVMU",
    "VenueName": "Cineverse Multiplex: Uppal"
  },
  "CXJD": {
    "AvailableFormats": "2D",
    "City": "Patna",
    "Latitude": "25.6106",
    "Longitude": "85.1404",
    "RegionCode": "PATN",
    "State": "Bihar",
    "SubRegionCode": "PATN",
    "VenueAddress": "4th Floor, J.D. Mall, S.P. Verma Road, Patna, Bihar 800001, India",
    "VenueCode": "CXJD",
    "VenueName": "Connplex Cinemas: S P Verma Road (JD Mall), Patna"
  },
  "CYKR": {
    "AvailableFormats": "2D|DOLBY CINEMA 2D|3D",
    "City": "Pune",
    "Latitude": "18.5502",
    "Longitude": "73.9379",
    "RegionCode": "PUNE",
    "State": "Maharashtra",
    "SubRegionCode": "PUNE",
    "VenueAddress": "Nyati Plaza, Thite Nagar, Kharadi, Pune, Maharashtra 411014, India",
    "VenueCode": "CYKR",
    "VenueName": "City Pride: Kharadi"
  },
  "DCAA": {
    "AvailableFormats": "",
    "City": "Barabanki",
    "Latitude": "26.9243",
    "Longitude": "81.1742",
    "RegionCode": "BARK",
    "State": "Uttar Pradesh",
    "SubRegionCode": "BARK",
    "VenueAddress": "Awadh avenue Mall, Awas Vikas Colony, Near RTO office, Barabanki, Uttar Pradesh 225001, India",
    "VenueCode": "DCAA",
    "VenueName": "DD Cinemas Awadh Avenue Mall: Barabanki"
  },
  "DCGO": {
    "AvailableFormats": "2D",
    "City": "Guruvayur",
    "Latitude": "10.5918",
    "Longitude": "76.0405",
    "RegionCode": "GUVY",
    "State": "Kerala",
    "SubRegionCode": "GUVY",
    "VenueAddress": "Opposite Temple Police Station, South Nada, Guruvayur, Kerala 680101, India",
    "VenueCode": "DCGO",
    "VenueName": "Devaky Cinemas 2K 3D Dolby Atmos: Guruvayoor"
  },
  "DCRL": {
    "AvailableFormats": "2D",
    "City": "Pappanadu",
    "Latitude": "10.5423",
    "Longitude": "79.2821",
    "RegionCode": "MANB",
    "State": "Tamil Nadu",
    "SubRegionCode": "MANB",
    "VenueAddress": "SH 29, Pappanadu, Nemilithippiakudi, Pappanadu, Tamil Nadu 614626, India",
    "VenueCode": "DCRL",
    "VenueName": "Devasuki Cinemas Laser Dolby Atmos: Pappanadu"
  },
  "DDTD": {
    "AvailableFormats": "2D|3D",
    "City": "Dharmapuri",
    "Latitude": "12.1329",
    "Longitude": "78.1608",
    "RegionCode": "DMPI",
    "State": "Tamil Nadu",
    "SubRegionCode": "DMPI",
    "VenueAddress": "Dharmapuri, Tamil Nadu, Dharmapuri, Tamil Nadu 636701, India",
    "VenueCode": "DDTD",
    "VenueName": "DMAX DNC Theatres: Dharmapuri"
  },
  "DEVI": {
    "AvailableFormats": "2D",
    "City": "Ahmedabad",
    "Latitude": "23.073",
    "Longitude": "72.65",
    "RegionCode": "AHD",
    "State": "Gujarat",
    "SubRegionCode": "AHD",
    "VenueAddress": "Opp. Mahaprabhuji Bethak, Naroda, Near Axis Bank ATM, Ahmedabad, Gujarat 382330, India",
    "VenueCode": "DEVI",
    "VenueName": "Devi Multiplex: Naroda"
  },
  "DICI": {
    "AvailableFormats": "2D",
    "City": "Indore",
    "Latitude": "22.6273",
    "Longitude": "75.8388",
    "RegionCode": "IND",
    "State": "Madhya Pradesh",
    "SubRegionCode": "IND",
    "VenueAddress": "Windasa Theme Park, Near - State Institute of Hotel Management, Indore, Madhya Pradesh 453331, India",
    "VenueCode": "DICI",
    "VenueName": "Cine Wheels Drive in by Windasa: Indore"
  },
  "DLGK": {
    "AvailableFormats": "2D",
    "City": "Katni",
    "Latitude": "23.8149",
    "Longitude": "80.3782",
    "RegionCode": "KATN",
    "State": "Madhya Pradesh",
    "SubRegionCode": "KATN",
    "VenueAddress": "Relaince Petrol Pump, Shanti Nagar, Katni, Madhya Pradesh 483504, India",
    "VenueCode": "DLGK",
    "VenueName": "DLG Cinemas: Katni"
  },
  "DMXM": {
    "AvailableFormats": "2D",
    "City": "Morbi",
    "Latitude": "22.7781",
    "Longitude": "70.9053",
    "RegionCode": "MOBI",
    "State": "Gujarat",
    "SubRegionCode": "MOBI",
    "VenueAddress": "SURVEY NO-66/1 AND 66/2, C/o Dariyalal Business Center, Opposite Rafaleshwar, 8 A National Highway, Jambudiya, Morbi, Gujarat 363642, India",
    "VenueCode": "DMXM",
    "VenueName": "Dariyalal Multiplex: Morbi"
  },
  "DPTD": {
    "AvailableFormats": "2D",
    "City": "Mavelikkara",
    "Latitude": "9.2543",
    "Longitude": "76.545",
    "RegionCode": "MVLR",
    "State": "Kerala",
    "SubRegionCode": "MVLR",
    "VenueAddress": "Kayamkulam-Thiruvalla Road (SH 6), Old Mavelikkara, Mavelikkara, Kerala 690101, India",
    "VenueCode": "DPTD",
    "VenueName": "Dreambig Prathibha Theatre: Mavelikkara"
  },
  "DSCC": {
    "AvailableFormats": "",
    "City": "Kochi",
    "Latitude": "9.873097",
    "Longitude": "76.487305",
    "RegionCode": "ERNK",
    "State": "Kerala",
    "SubRegionCode": "ERNK",
    "VenueAddress": "Kaduthuruthy Road, Darshana, Kerala State, Near Government High School, Kochi, Kerala 686664, India",
    "VenueCode": "DSCC",
    "VenueName": "Dharsana Cinema Complex: Piravom"
  },
  "DTPY": {
    "AvailableFormats": "2D",
    "City": "Pondicherry",
    "Latitude": "11.8642",
    "Longitude": "79.7524",
    "RegionCode": "POND",
    "State": "Tamil Nadu",
    "SubRegionCode": "POND",
    "VenueAddress": "Madukarai Road, Karikalapakkam, Pondicherry, Tamil Nadu 605007, India",
    "VenueCode": "DTPY",
    "VenueName": "Divya Theatre A/C 4K RGB LASER: Pondicherry"
  },
  "DVMY": {
    "AvailableFormats": "2D",
    "City": "Salem",
    "Latitude": "11.6276",
    "Longitude": "78.1344",
    "RegionCode": "SALM",
    "State": "Tamil Nadu",
    "SubRegionCode": "SALM",
    "VenueAddress": "P M P Nagar, Kondalampatty Bypass, Salem, Tamil Nadu 636010, India",
    "VenueCode": "DVMY",
    "VenueName": "Dhivyam Cinemax 4K Dolby Atmos 3D: Salem"
  },
  "ECGH": {
    "AvailableFormats": "2D",
    "City": "Jamshedpur",
    "Latitude": "22.8441",
    "Longitude": "86.2163",
    "RegionCode": "JMDP",
    "State": "Jharkhand",
    "SubRegionCode": "JMDP",
    "VenueAddress": "Zone 1 Mall, 4th Floor Big Bazar Building, NH 33, Pardih, Dimna Road, Jamshedpur, Jharkhand 831012, India",
    "VenueCode": "ECGH",
    "VenueName": "Eylex Cinemas: Jamshedpur"
  },
  "EEBC": {
    "AvailableFormats": "",
    "City": "Greater Noida",
    "Latitude": "28.464",
    "Longitude": "77.5078",
    "RegionCode": "NCR",
    "State": "NCR",
    "SubRegionCode": "GRET",
    "VenueAddress": "ANSAL PLAZA MALL SHOPPING COMPLEX, Pari Chowk, Amit Nagar, Greater Noida, NCR 201310, India",
    "VenueCode": "EEBC",
    "VenueName": "eBox Cinema: Ansal Plaza Mall, Greater Noida"
  },
  "EMCC": {
    "AvailableFormats": "2D",
    "City": "Kozhikode",
    "Latitude": "11.2701",
    "Longitude": "75.8443",
    "RegionCode": "KOZH",
    "State": "Kerala",
    "SubRegionCode": "KOZH",
    "VenueAddress": "Velliparamba, Kozhikode, Near Medical collage Hospital, Kozhikode, Kerala 673008, India",
    "VenueCode": "EMCC",
    "VenueName": "E Max Cinemas Dolby Atmos RGB Laser: Calicut"
  },
  "EPJM": {
    "AvailableFormats": "",
    "City": "Jaipur",
    "Latitude": "26.838",
    "Longitude": "75.7971",
    "RegionCode": "JAIP",
    "State": "Rajasthan",
    "SubRegionCode": "JAIP",
    "VenueAddress": "J L N Marg, Jawahar Circle, Tonk Road, Jaipur, Rajasthan 302017, India",
    "VenueCode": "EPJM",
    "VenueName": "Miraj Cinemas: Entertainment Paradise, Jaipur"
  },
  "ESOS": {
    "AvailableFormats": "2D|3D",
    "City": "Solapur",
    "Latitude": "17.6766",
    "Longitude": "75.8985",
    "RegionCode": "SOLA",
    "State": "Maharashtra",
    "SubRegionCode": "SOLA",
    "VenueAddress": "11/A, NH13, Old Police Line, Murarji Peth, Solapur, Maharashtra 413001, India",
    "VenueCode": "ESOS",
    "VenueName": "E-SQUARE Oasis (A.C): Solapur"
  },
  "EVCK": {
    "AvailableFormats": "2D",
    "City": "Kumily",
    "Latitude": "9.60762",
    "Longitude": "77.1697",
    "RegionCode": "KUMI",
    "State": "Kerala",
    "SubRegionCode": "KUMI",
    "VenueAddress": "Mar Thoma Church Road, Thekkady, Kumily, Kumily, Kerala 685509, India",
    "VenueCode": "EVCK",
    "VenueName": "EVM Cinemas: Kumily"
  },
  "FCAX": {
    "AvailableFormats": "",
    "City": "Rudrapur",
    "Latitude": "28.982658",
    "Longitude": "79.35822",
    "RegionCode": "RUDP",
    "State": "Uttarakhand",
    "SubRegionCode": "RUDP",
    "VenueAddress": "Skylark Petals, Kashipur Road, Near Samiah Lake, Rudrapur, Uttarakhand 263153, India",
    "VenueCode": "FCAX",
    "VenueName": "Fun Cinemas Rave Multiplex: Rudrapur"
  },
  "FCPS": {
    "AvailableFormats": "",
    "City": "Veraval",
    "Latitude": "20.936192",
    "Longitude": "70.367195",
    "RegionCode": "VRAL",
    "State": "Gujarat",
    "SubRegionCode": "VRAL",
    "VenueAddress": "Somnath Jetpur Highway, Near Ahir Samaj, Veraval Bypass Road, Veraval, Gujarat 362266, India",
    "VenueCode": "FCPS",
    "VenueName": "Fun Cinemas Phoenix Cinema: Veraval"
  },
  "FMCN": {
    "AvailableFormats": "2D",
    "City": "Chennai",
    "Latitude": "13.0476",
    "Longitude": "80.1904",
    "RegionCode": "CHEN",
    "State": "Tamil Nadu",
    "SubRegionCode": "CHEN",
    "VenueAddress": "Chandra Metro Mall, Arcot Road, Aranganathan Nagar, Valasaravakkam, Near Mega Mart, Chennai, Tamil Nadu 600092, India",
    "VenueCode": "FMCN",
    "VenueName": "INOX National: Arcot Road"
  },
  "FMOT": {
    "AvailableFormats": "2D",
    "City": "Thrissur",
    "Latitude": "10.4869",
    "Longitude": "76.2386",
    "RegionCode": "MANR",
    "State": "Kerala",
    "SubRegionCode": "MANR",
    "VenueAddress": "Bus Stop, Company Padi, High Road, Christopher, Ollur, Thrissur, Near Ollur Town Cooperative Society Ltd, Thrissur, Kerala 680306, India",
    "VenueCode": "FMOT",
    "VenueName": "Fun Movies: Thrissur"
  },
  "FNBP": {
    "AvailableFormats": "3D|2D",
    "City": "Bhopal",
    "Latitude": "23.2329",
    "Longitude": "77.4298",
    "RegionCode": "BHOP",
    "State": "Madhya Pradesh",
    "SubRegionCode": "BHOP",
    "VenueAddress": "Arera Hills, DB City Mall, Maharana Pratap Nagar, Bhopal, Madhya Pradesh 462011, India",
    "VenueCode": "FNBP",
    "VenueName": "Cinepolis: DB Mall, Bhopal"
  },
  "FNLK": {
    "AvailableFormats": "2D|3D",
    "City": "Lucknow",
    "Latitude": "26.8582",
    "Longitude": "80.9762",
    "RegionCode": "LUCK",
    "State": "Uttar Pradesh",
    "SubRegionCode": "LUCK",
    "VenueAddress": "Near Eldeco Greens, Nehru Enclave, Gomti Nagar, Opposite Lohia Park, Lucknow, Uttar Pradesh 226010, India",
    "VenueCode": "FNLK",
    "VenueName": "Fun Cinemas: Fun Republic Mall, Lucknow"
  },
  "FRGS": {
    "AvailableFormats": "2D|3D",
    "City": "Thanjavur",
    "Latitude": "10.7857",
    "Longitude": "79.1392",
    "RegionCode": "TANJ",
    "State": "Tamil Nadu",
    "SubRegionCode": "TANJ",
    "VenueAddress": "78/3, Abraham Pandither Road, Next to P.K Hospital, Thanjavur, Tamil Nadu 613001, India",
    "VenueCode": "FRGS",
    "VenueName": "Frame Cinemas RGB Laser Atmos: Thanjavur"
  },
  "FUCG": {
    "AvailableFormats": "2D",
    "City": "Guwahati",
    "Latitude": "26.167",
    "Longitude": "91.7669",
    "RegionCode": "GUW",
    "State": "Assam",
    "SubRegionCode": "GUW",
    "VenueAddress": "5th Floor, Hub Mall, Bhangaghar, G. S. Road, Guwahati, Assam 781005, India",
    "VenueCode": "FUCG",
    "VenueName": "Galleria Cinema: HUB Mall, Guwahati"
  },
  "GAHC": {
    "AvailableFormats": "2D",
    "City": "Chennai",
    "Latitude": "13.2499",
    "Longitude": "80.1568",
    "RegionCode": "CHEN",
    "State": "Tamil Nadu",
    "SubRegionCode": "CHEN",
    "VenueAddress": "Sholavaram, Karanodai, Chennai, Tamil Nadu 600067, India",
    "VenueCode": "GAHC",
    "VenueName": "Gopalakrishna A/C 2K DOLBY 7.1-Karanodai(Redhills)"
  },
  "GATY": {
    "AvailableFormats": "2D",
    "City": "Mumbai",
    "Latitude": "19.0615",
    "Longitude": "72.8387",
    "RegionCode": "MUMBAI",
    "State": "Maharashtra",
    "SubRegionCode": "MWEST",
    "VenueAddress": "Swami Vivekanand Marg, Tata Blocks, 30th Cross Road, Near Tata Blocks, Bandra West, Mumbai, Maharashtra 400050, India",
    "VenueCode": "GATY",
    "VenueName": "G7 Multiplex: Bandra (W)"
  },
  "GCCA": {
    "AvailableFormats": "2D|3D",
    "City": "Gondia",
    "Latitude": "21.4531",
    "Longitude": "80.1912",
    "RegionCode": "GNDA",
    "State": "Maharashtra",
    "SubRegionCode": "GNDA",
    "VenueAddress": "City Mall, Opposite - Circus Ground, Ganesh Nagar, Main Road, Gondia, Maharashtra 441601, India",
    "VenueCode": "GCCA",
    "VenueName": "Gold Cinema: City Mall, Gondia"
  },
  "GCFA": {
    "AvailableFormats": "2D",
    "City": "Fulkusma",
    "Latitude": "22.7119",
    "Longitude": "86.8696",
    "RegionCode": "FULK",
    "State": "West Bengal",
    "SubRegionCode": "FULK",
    "VenueAddress": "Gandheswari Chitralaya, Bankura Road, Fulkusma, West Bengal 722134, India",
    "VenueCode": "GCFA",
    "VenueName": "Gandheswari Chitralaya: Fulkushma"
  },
  "GCKJ": {
    "AvailableFormats": "2D",
    "City": "Kotputli",
    "Latitude": "27.7032",
    "Longitude": "76.2297",
    "RegionCode": "KPLI",
    "State": "Rajasthan",
    "SubRegionCode": "KPLI",
    "VenueAddress": "Bansur Road ,Bhuchahira, Moh. Badabas, Kotputli, Kotputli, Rajasthan 303108, India",
    "VenueCode": "GCKJ",
    "VenueName": "Gold Cinema: Kotputli"
  },
  "GCPT": {
    "AvailableFormats": "2D",
    "City": "Pathankot",
    "Latitude": "32.2726",
    "Longitude": "75.6535",
    "RegionCode": "PATH",
    "State": "Punjab",
    "SubRegionCode": "PATH",
    "VenueAddress": "4th Floor, City Centre Mall, Dalhousie Road, Pathankot, Punjab 145001, India",
    "VenueCode": "GCPT",
    "VenueName": "Grand Cinemaz: Pathankot"
  },
  "GCTI": {
    "AvailableFormats": "2D",
    "City": "Tinsukia",
    "Latitude": "27.492",
    "Longitude": "95.3617",
    "RegionCode": "TINS",
    "State": "Assam",
    "SubRegionCode": "TINS",
    "VenueAddress": "ATC Mall, GNB Road, Tinsukia, Assam 786125, India",
    "VenueCode": "GCTI",
    "VenueName": "Galleria Cinemas: ATC Mall, Tinsukia"
  },
  "GDCN": {
    "AvailableFormats": "2D",
    "City": "Guwahati",
    "Latitude": "26.1795",
    "Longitude": "91.8302",
    "RegionCode": "GUW",
    "State": "Assam",
    "SubRegionCode": "GUW",
    "VenueAddress": "LG Tower Tiniali, Narengi, Near Tulip Resturant, Guwahati, Assam 781026, India",
    "VenueCode": "GDCN",
    "VenueName": "Gold Cinema: Narengi"
  },
  "GDMT": {
    "AvailableFormats": "2D|3D",
    "City": "Mathura",
    "Latitude": "27.4943",
    "Longitude": "77.6551",
    "RegionCode": "MATH",
    "State": "Uttar Pradesh",
    "SubRegionCode": "MATH",
    "VenueAddress": "Highway Plaza Shopping Complex, NH2 Delhi-Agra Road, Near Mandi Crossing, Mathura, Uttar Pradesh 281004, India",
    "VenueCode": "GDMT",
    "VenueName": "Gold Cinema: Mathura"
  },
  "GETT": {
    "AvailableFormats": "2D",
    "City": "Hindaun City",
    "Latitude": "26.7284",
    "Longitude": "77.0333",
    "RegionCode": "HIND",
    "State": "Rajasthan",
    "SubRegionCode": "HIND",
    "VenueAddress": "SH 1, Keshav Pura, Opposite Government Girls Senior Secondary School, Hindaun City, Rajasthan 322230, India",
    "VenueCode": "GETT",
    "VenueName": "Geeta Talkies: Hindaun City"
  },
  "GGRJ": {
    "AvailableFormats": "",
    "City": "Gajapathinagaram",
    "Latitude": "18.28414",
    "Longitude": "83.33718",
    "RegionCode": "GJPT",
    "State": "Andhra Pradesh",
    "SubRegionCode": "GJPT",
    "VenueAddress": "Jayanthi Colony, Near Canara Bank, Gajapathinagaram, Andhra Pradesh 535270, India",
    "VenueCode": "GGRJ",
    "VenueName": "Gangaraju Kalamandir: Gajapathinagaram"
  },
  "GKCS": {
    "AvailableFormats": "2D",
    "City": "Sarangpur",
    "Latitude": "23.5761",
    "Longitude": "76.4842",
    "RegionCode": "SARA",
    "State": "Madhya Pradesh",
    "SubRegionCode": "SARA",
    "VenueAddress": "AB Road, Sudarshan Nagar, Sarangpur, Madhya Pradesh 465697, India",
    "VenueCode": "GKCS",
    "VenueName": "Gopal Krishna Multiplex: Sarangpur"
  },
  "GLXJ": {
    "AvailableFormats": "2D",
    "City": "Jaipur",
    "Latitude": "26.8337",
    "Longitude": "75.7783",
    "RegionCode": "JAIP",
    "State": "Rajasthan",
    "SubRegionCode": "JAIP",
    "VenueAddress": "SP, 9, Shipra Path, RIICO Industrial Area, Mansarovar, Jaipur, Rajasthan 302020, India",
    "VenueCode": "GLXJ",
    "VenueName": "Galaxy Cinema Mansarovar: Jaipur"
  },
  "GOCL": {
    "AvailableFormats": "",
    "City": "Lakhimpur",
    "Latitude": "27.236189",
    "Longitude": "94.10158",
    "RegionCode": "LAHA",
    "State": "Assam",
    "SubRegionCode": "LAHA",
    "VenueAddress": "North Lakhimpur, Thakurbari Road, Lakhimpur, Assam 787001, India",
    "VenueCode": "GOCL",
    "VenueName": "Gold Cinema: Lakhimpur"
  },
  "GPBR": {
    "AvailableFormats": "2D",
    "City": "Bengaluru",
    "Latitude": "12.9144",
    "Longitude": "77.5995",
    "RegionCode": "HOKT",
    "State": "Karnataka",
    "SubRegionCode": "HOKT",
    "VenueAddress": "Near Jayadeva Hospital, Bannerghatta Road, Opp Shoppers Stop, Bengaluru, Karnataka 560076, India",
    "VenueCode": "GPBR",
    "VenueName": "Gopalan Cinemas: Bannerghatta Road"
  },
  "GPTB": {
    "AvailableFormats": "2D",
    "City": "Bengaluru",
    "Latitude": "12.8912",
    "Longitude": "77.6265",
    "RegionCode": "HOKT",
    "State": "Karnataka",
    "SubRegionCode": "HOKT",
    "VenueAddress": "12th Cross, Bommanahalli Post, Begur Main Road,Hongasandra Next To Banashankari Tent, Bengaluru, Karnataka 560068, India",
    "VenueCode": "GPTB",
    "VenueName": "Galaxy Paradise (Miniplex): Begur Road"
  },
  "GSEE": {
    "AvailableFormats": "",
    "City": "Baikunthpur",
    "Latitude": "23.2686",
    "Longitude": "82.5548",
    "RegionCode": "BKTH",
    "State": "Chhattisgarh",
    "SubRegionCode": "BKTH",
    "VenueAddress": "Mission School Road, Harratola, Near Hotel Shree Ganga, Baikunthpur, Chhattisgarh 497335, India",
    "VenueCode": "GSEE",
    "VenueName": "Ganga Shree Cineplex: Baikunthpur"
  },
  "GTCP": {
    "AvailableFormats": "",
    "City": "Channarayapatna",
    "Latitude": "12.905309",
    "Longitude": "76.38963",
    "RegionCode": "CHNN",
    "State": "Karnataka",
    "SubRegionCode": "CHNN",
    "VenueAddress": "Renukamba Road, Near Channarayapatna Post Office, Channarayapatna, Karnataka 573116, India",
    "VenueCode": "GTCP",
    "VenueName": "Gayatri Theatre: Channarayapatna"
  },
  "GTTA": {
    "AvailableFormats": "2D",
    "City": "Falakata",
    "Latitude": "26.5179",
    "Longitude": "89.2024",
    "RegionCode": "FALA",
    "State": "West Bengal",
    "SubRegionCode": "FALA",
    "VenueAddress": "Babupara, Near Netaji Road, Opposite Falakata Park, Falakata, West Bengal 735211, India",
    "VenueCode": "GTTA",
    "VenueName": "Gouri Talkies: Falakata"
  },
  "GVCP": {
    "AvailableFormats": "2D",
    "City": "Pileru",
    "Latitude": "13.6577",
    "Longitude": "78.9366",
    "RegionCode": "PLRU",
    "State": "Andhra Pradesh",
    "SubRegionCode": "PLRU",
    "VenueAddress": "Off National Highway 205, Piler, Pileru, Andhra Pradesh 517214, India",
    "VenueCode": "GVCP",
    "VenueName": "GV Cinemas (Ajantha Theater): Pileru"
  },
  "HANS": {
    "AvailableFormats": "",
    "City": "Chalisgaon",
    "Latitude": "20.4616",
    "Longitude": "74.9972",
    "RegionCode": "CHLS",
    "State": "Maharashtra",
    "SubRegionCode": "CHLS",
    "VenueAddress": "92, Ganesh Nagar, Hans Theatre Road, Chalisgaon, Maharashtra 424101, India",
    "VenueCode": "HANS",
    "VenueName": "Raj Chitramandir: Chalisgaon"
  },
  "HFLM": {
    "AvailableFormats": "",
    "City": "Margao",
    "Latitude": "15.2715",
    "Longitude": "73.9686",
    "RegionCode": "MARG",
    "State": "Goa",
    "SubRegionCode": "MARG",
    "VenueAddress": "St. Joaquim Aquem Road, Opp Monastery, Near Aquem Post Office, Margao, Goa 403601, India",
    "VenueCode": "HFLM",
    "VenueName": "Z Square Cine Vishant: Margao"
  },
  "HILC": {
    "AvailableFormats": "2D",
    "City": "Renukoot",
    "Latitude": "24.2144",
    "Longitude": "83.0364",
    "RegionCode": "RENU",
    "State": "Uttar Pradesh",
    "SubRegionCode": "RENU",
    "VenueAddress": "Hindalco Colony, Opp. Ramleela ground, Birla Market, Renukoot, Uttar Pradesh 231217, India",
    "VenueCode": "HILC",
    "VenueName": "HIL Cinema: Renukoot"
  },
  "HSTK": {
    "AvailableFormats": "2D",
    "City": "Trivandrum",
    "Latitude": "8.58223",
    "Longitude": "76.8612",
    "RegionCode": "VKAL",
    "State": "Kerala",
    "SubRegionCode": "VKAL",
    "VenueAddress": "Vettur Road, Kazhakootam, Trivandrum, Kerala 695301, India",
    "VenueCode": "HSTK",
    "VenueName": "Harisree Theatre 4K 3D Dolby 7.1: Kazhakkoottam"
  },
  "ICCM": {
    "AvailableFormats": "2D|3D",
    "City": "Mysuru (Mysore)",
    "Latitude": "12.3098",
    "Longitude": "76.6585",
    "RegionCode": "MYS",
    "State": "Karnataka",
    "SubRegionCode": "MYS",
    "VenueAddress": "INOX Leisure Ltd, 3rd Floor, Centro, Bangalore-Nilgiri Road, Mysuru (Mysore), Karnataka 570001, India",
    "VenueCode": "ICCM",
    "VenueName": "INOX: Centro, Mysore"
  },
  "IGAM": {
    "AvailableFormats": "2D|3D",
    "City": "Gurugram (Gurgaon)",
    "Latitude": "28.4453",
    "Longitude": "77.0811",
    "RegionCode": "NCR",
    "State": "NCR",
    "SubRegionCode": "GURG",
    "VenueAddress": "4th Floor, Ardee Mall, Ardee City, Sector 52, Gurugram, Haryana, Gurugram (Gurgaon), NCR 122003, India",
    "VenueCode": "IGAM",
    "VenueName": "INOX: Ardee Mall, Gurugram"
  },
  "IMCH": {
    "AvailableFormats": "2D",
    "City": "Namchi",
    "Latitude": "27.164",
    "Longitude": "88.3619",
    "RegionCode": "NAMI",
    "State": "Sikkim",
    "SubRegionCode": "NAMI",
    "VenueAddress": "NMC Museum Building, Singithang, Shaheed Sanjog Chettri Marg, Namchi, Sikkim 737126, India",
    "VenueCode": "IMCH",
    "VenueName": "Imperial Talkies: Namchi"
  },
  "IMSH": {
    "AvailableFormats": "3D|2D",
    "City": "Shajapur",
    "Latitude": "23.4188",
    "Longitude": "76.2637",
    "RegionCode": "SJUR",
    "State": "Madhya Pradesh",
    "SubRegionCode": "SJUR",
    "VenueAddress": "1st floor, Seva Shree Mall, Dupada Road, Near Vyas Hospital, Shajapur, Madhya Pradesh 465001, India",
    "VenueCode": "IMSH",
    "VenueName": "Imusica Cinema: Shajapur"
  },
  "INBC": {
    "AvailableFormats": "2D",
    "City": "Bengaluru",
    "Latitude": "12.9166",
    "Longitude": "77.5923",
    "RegionCode": "HOKT",
    "State": "Karnataka",
    "SubRegionCode": "HOKT",
    "VenueAddress": "5th Floor Central, 45th Cross, J P Nagar 2nd Phase, Marenhalli Road, Bengaluru, Karnataka 560069, India",
    "VenueCode": "INBC",
    "VenueName": "INOX: Central, JP Nagar, Mantri Junction"
  },
  "INCH": {
    "AvailableFormats": "2D",
    "City": "Chennai",
    "Latitude": "13.0432",
    "Longitude": "80.2738",
    "RegionCode": "CHEN",
    "State": "Tamil Nadu",
    "SubRegionCode": "CHEN",
    "VenueAddress": "3rd Floor, Chennai Citi Center, Doctor Radha Krishnan Salai, Chennai, Tamil Nadu 600004, India",
    "VenueCode": "INCH",
    "VenueName": "INOX: Chennai Citi Centre, Dr. RK Salai"
  },
  "INGA": {
    "AvailableFormats": "2D",
    "City": "Gandhinagar",
    "Latitude": "23.1803",
    "Longitude": "72.5653",
    "RegionCode": "GNAGAR",
    "State": "Gujarat",
    "SubRegionCode": "GNAGAR",
    "VenueAddress": "Near Adalaj, Gandhinagar Sarkhej Highway, Near Tri Mandir, Gandhinagar, Gujarat 380055, India",
    "VenueCode": "INGA",
    "VenueName": "INOX: Gandhinagar, Adalaj"
  },
  "INJV": {
    "AvailableFormats": "3D|2D",
    "City": "Jaipur",
    "Latitude": "26.9128",
    "Longitude": "75.7435",
    "RegionCode": "JAIP",
    "State": "Rajasthan",
    "SubRegionCode": "JAIP",
    "VenueAddress": "Vaibhav Complex, C-1 C Block, Amrapali Circle, Vaishali Nagar, Near Vaishali Hospital, Jaipur, Rajasthan 302021, India",
    "VenueCode": "INJV",
    "VenueName": "INOX: Vaibhav, Amarapali Circle"
  },
  "INMT": {
    "AvailableFormats": "2D",
    "City": "Kakinada",
    "Latitude": "16.9979",
    "Longitude": "82.2434",
    "RegionCode": "KAKI",
    "State": "Andhra Pradesh",
    "SubRegionCode": "KAKI",
    "VenueAddress": "3rd Floor, 82-EAST, SRMT Mall, Lalitha Nagar, Ramanayyapeta, Pithapuram Road, Sarpavaram Junction, Kakinada, Andhra Pradesh 533005, India",
    "VenueCode": "INMT",
    "VenueName": "INOX: SRMT Mall, Kakinada"
  },
  "INPN": {
    "AvailableFormats": "2D|3D",
    "City": "Pune",
    "Latitude": "18.527",
    "Longitude": "73.8777",
    "RegionCode": "PUNE",
    "State": "Maharashtra",
    "SubRegionCode": "PUNE",
    "VenueAddress": "Plot No.D, Bund Garden Road, Agarkar Nagar, Near Central Park Hotel, Pune, Maharashtra 411001, India",
    "VenueCode": "INPN",
    "VenueName": "INOX: Bund Garden Road"
  },
  "INRJ": {
    "AvailableFormats": "2D|3D",
    "City": "Jalandhar",
    "Latitude": "31.307",
    "Longitude": "75.5926",
    "RegionCode": "JALA",
    "State": "Punjab",
    "SubRegionCode": "JALA",
    "VenueAddress": "INOX Leisure Ltd., 3rd Floor, Reliance Mall, Chotti Baradari Part-2, Puda, Jalandhar, Punjab 144001, India",
    "VenueCode": "INRJ",
    "VenueName": "INOX: Reliance Mall, Jalandhar"
  },
  "INSL": {
    "AvailableFormats": "2D|3D",
    "City": "Kolkata",
    "Latitude": "22.589",
    "Longitude": "88.4082",
    "RegionCode": "BARR",
    "State": "West Bengal",
    "SubRegionCode": "BARR",
    "VenueAddress": "City Centre, DC Block I, Sector-1, City Center Mall, Kolkata, West Bengal 700020, India",
    "VenueCode": "INSL",
    "VenueName": "INOX: City Center, Salt Lake"
  },
  "INVB": {
    "AvailableFormats": "2D|3D",
    "City": "Vizag (Visakhapatnam)",
    "Latitude": "17.7111",
    "Longitude": "83.3167",
    "RegionCode": "SABB",
    "State": "Andhra Pradesh",
    "SubRegionCode": "SABB",
    "VenueAddress": "Survey No.120 and 121, Varun Beach, 3rd Floor, R K Beach Road, Maharani Pet, Vizag, Andhra Pradesh 530003, India",
    "VenueCode": "INVB",
    "VenueName": "INOX: Varun Beach, Beach Road"
  },
  "INVZ": {
    "AvailableFormats": "",
    "City": "Vizianagaram",
    "Latitude": "18.107111",
    "Longitude": "83.39902",
    "RegionCode": "VIZI",
    "State": "Andhra Pradesh",
    "SubRegionCode": "VIZI",
    "VenueAddress": "3rd Floor, NCS Mall, Bochu Peta, Beside Thotapalem Road, Opposite RTC Complex, Vizianagaram, Andhra Pradesh 535002, India",
    "VenueCode": "INVZ",
    "VenueName": "INOX: NCS Mall, Vizianagaram"
  },
  "IOMM": {
    "AvailableFormats": "2D|3D",
    "City": "Gorakhpur",
    "Latitude": "26.7498",
    "Longitude": "83.4007",
    "RegionCode": "GRKP",
    "State": "Uttar Pradesh",
    "SubRegionCode": "GRKP",
    "VenueAddress": "INOX Leisure Ltd, 4th Floor, Orion Mall, Mohaddipur, Gorakhpur, Uttar Pradesh 273010, India",
    "VenueCode": "IOMM",
    "VenueName": "INOX: Orion Mall, Gorakhpur"
  },
  "IPPL": {
    "AvailableFormats": "2D|MX4D|IMAX 2D|3D|MX4D 3D",
    "City": "Lucknow",
    "Latitude": "26.8085",
    "Longitude": "81.0123",
    "RegionCode": "LUCK",
    "State": "Uttar Pradesh",
    "SubRegionCode": "LUCK",
    "VenueAddress": "INOX Leisure Ltd., 3rd Floor, Phoenix Palassio Mall Amar Saheed Path, Gomti Nagar Extension, Lucknow, Uttar Pradesh 226010, India",
    "VenueCode": "IPPL",
    "VenueName": "INOX: Megaplex Phoenix Palassio Mall"
  },
  "ISMR": {
    "AvailableFormats": "2D",
    "City": "Dharwad",
    "Latitude": "15.4452",
    "Longitude": "75.0136",
    "RegionCode": "DHAW",
    "State": "Karnataka",
    "SubRegionCode": "DHAW",
    "VenueAddress": "2nd Floor, Smart City Mall, Lakamanahalli, P B Road, Dharwad, Karnataka 580001, India",
    "VenueCode": "ISMR",
    "VenueName": "INOX: Smartcity Mall, Dharwad"
  },
  "IXIM": {
    "AvailableFormats": "2D",
    "City": "Jodhpur",
    "Latitude": "26.2195",
    "Longitude": "73.0422",
    "RegionCode": "JODH",
    "State": "Rajasthan",
    "SubRegionCode": "JODH",
    "VenueAddress": "1st Floor, Indiabulls Mega Mall, Vijayrajey Nagar, NH-65, Pali Road, Jodhpur, Rajasthan 342005, India",
    "VenueCode": "IXIM",
    "VenueName": "INOX: Indiabulls Mall, Jodhpur"
  },
  "JBCA": {
    "AvailableFormats": "2D",
    "City": "Trivandrum",
    "Latitude": "8.71232",
    "Longitude": "76.813",
    "RegionCode": "VKAL",
    "State": "Kerala",
    "SubRegionCode": "VKAL",
    "VenueAddress": "Alamcode, Near - Vazhiyorakkada Restaurant, Trivandrum, Kerala 695102, India",
    "VenueCode": "JBCA",
    "VenueName": "Thapasya Cine House: Attingal"
  },
  "JCMA": {
    "AvailableFormats": "2D|3D",
    "City": "Ambikapur",
    "Latitude": "23.1266",
    "Longitude": "83.1916",
    "RegionCode": "AMBI",
    "State": "Chhattisgarh",
    "SubRegionCode": "AMBI",
    "VenueAddress": "Devigang Road, Near Mahamaya Chowk, Ambikapur, Chhattisgarh 497001, India",
    "VenueCode": "JCMA",
    "VenueName": "JCM Multiplex: Ambikapur"
  },
  "JDDG": {
    "AvailableFormats": "",
    "City": "Gauriganj",
    "Latitude": "26.210785",
    "Longitude": "81.71261",
    "RegionCode": "GNGJ",
    "State": "Uttar Pradesh",
    "SubRegionCode": "GNGJ",
    "VenueAddress": "Jamo Shopping Centre, Near Bank of Baraoda-V mart, Gauriganj, Uttar Pradesh 227409, India",
    "VenueCode": "JDDG",
    "VenueName": "Jamo DD Cinema: Gauriganj"
  },
  "JHVN": {
    "AvailableFormats": "2D",
    "City": "Varanasi",
    "Latitude": "25.3358",
    "Longitude": "82.9773",
    "RegionCode": "VAR",
    "State": "Uttar Pradesh",
    "SubRegionCode": "VAR",
    "VenueAddress": "JHV Mall, The Mall Road, Cantonment, Varanasi Cantt, Near Nehru Park, Varanasi, Uttar Pradesh 221001, India",
    "VenueCode": "JHVN",
    "VenueName": "JHV Cinemas: Varanasi"
  },
  "JLSL": {
    "AvailableFormats": "2D",
    "City": "Peddapuram",
    "Latitude": "17.0801",
    "Longitude": "82.1326",
    "RegionCode": "PEDP",
    "State": "Andhra Pradesh",
    "SubRegionCode": "PEDP",
    "VenueAddress": "7, Peddapuram Rajahmundry Main Road, Chadalada, Near Main Mosque, Peddapuram, Andhra Pradesh 533437, India",
    "VenueCode": "JLSL",
    "VenueName": "Lalitha Sri Lalitha Theatre: Peddapuram"
  },
  "JMRC": {
    "AvailableFormats": "2D",
    "City": "Vellampalli",
    "Latitude": "15.6382",
    "Longitude": "80.0137",
    "RegionCode": "VMPL",
    "State": "Andhra Pradesh",
    "SubRegionCode": "VMPL",
    "VenueAddress": "Vellampalli - Tallur Road, Near Panchayathi Office, Vellampalli, Andhra Pradesh 523211, India",
    "VenueCode": "JMRC",
    "VenueName": "JMR Cinemas: Vellampalli"
  },
  "JSCH": {
    "AvailableFormats": "",
    "City": "Haldwani",
    "Latitude": "29.2267",
    "Longitude": "79.4217",
    "RegionCode": "HALD",
    "State": "Uttarakhand",
    "SubRegionCode": "HALD",
    "VenueAddress": "JAGS City Mall, Naripur, Lamachaur Khas, Near Amrapali University, Haldwani, Uttarakhand 263139, India",
    "VenueCode": "JSCH",
    "VenueName": "Jags Cinema: Haldwani"
  },
  "JTGA": {
    "AvailableFormats": "",
    "City": "Lucknow",
    "Latitude": "26.84866",
    "Longitude": "80.92571",
    "RegionCode": "LUCK",
    "State": "Uttar Pradesh",
    "SubRegionCode": "LUCK",
    "VenueAddress": "Central Hotal, Khayali Ganj, Aminabad, Near Ameeruddaula Jhande Wala Park, Lucknow, Uttar Pradesh 226018, India",
    "VenueCode": "JTGA",
    "VenueName": "Jagat Cinema: Lucknow"
  },
  "JTME": {
    "AvailableFormats": "",
    "City": "Maheshwar",
    "Latitude": "22.178774",
    "Longitude": "75.58646",
    "RegionCode": "MAHE",
    "State": "Madhya Pradesh",
    "SubRegionCode": "MAHE",
    "VenueAddress": "Near Ajanta Lodge, Dhamnod Road, Maheshwar, Madhya Pradesh 451224, India",
    "VenueCode": "JTME",
    "VenueName": "Janata Talkies: Maheshwar"
  },
  "JTPL": {
    "AvailableFormats": "2D",
    "City": "Chennai",
    "Latitude": "12.9697",
    "Longitude": "80.1494",
    "RegionCode": "CHEN",
    "State": "Tamil Nadu",
    "SubRegionCode": "CHEN",
    "VenueAddress": "Srinivasa Perumal Koil, Rajendra Nagar, Pallavaram, Behind Pallavaram Bus Stop, Chennai, Tamil Nadu 600043, India",
    "VenueCode": "JTPL",
    "VenueName": "Janatha Theatre 4K AC DTS (JBL AUDIO): Pallavaram"
  },
  "JTSM": {
    "AvailableFormats": "2D",
    "City": "Nellore",
    "Latitude": "14.4561",
    "Longitude": "79.9816",
    "RegionCode": "NELL",
    "State": "Andhra Pradesh",
    "SubRegionCode": "NELL",
    "VenueAddress": "Ramji Nagar, ., Nellore, Andhra Pradesh 524001, India",
    "VenueCode": "JTSM",
    "VenueName": "Siri Multiplex: Nellore"
  },
  "JTYS": {
    "AvailableFormats": "2D",
    "City": "Vizag (Visakhapatnam)",
    "Latitude": "17.7255",
    "Longitude": "83.3025",
    "RegionCode": "SABB",
    "State": "Andhra Pradesh",
    "SubRegionCode": "SABB",
    "VenueAddress": "Station Road, Dondaparthy, Dwaraka Nagar, Vizag, Andhra Pradesh 530016, India",
    "VenueCode": "JTYS",
    "VenueName": "Sangam Theatre 4K Dolby Atmos: Vizag"
  },
  "JYKL": {
    "AvailableFormats": "3D|2D",
    "City": "Kolkata",
    "Latitude": "22.7609",
    "Longitude": "88.3668",
    "RegionCode": "KOLK",
    "State": "West Bengal",
    "SubRegionCode": "KOLK",
    "VenueAddress": "2, B.T Road, Barrackpore Chiriamore, North 24 Parganas, Near Samanta Automobiles and SBI Railway Station Branch, Kolkata, West Bengal 700120, India",
    "VenueCode": "JYKL",
    "VenueName": "Jayanti Cinema: Barrackpore"
  },
  "KAGY": {
    "AvailableFormats": "",
    "City": "Jaggayyapeta",
    "Latitude": "16.8928",
    "Longitude": "80.1012",
    "RegionCode": "JGGY",
    "State": "Andhra Pradesh",
    "SubRegionCode": "JGGY",
    "VenueAddress": "JRC College Road, Y.Y. Colony, Jaggayyapeta, Andhra Pradesh 521175, India",
    "VenueCode": "KAGY",
    "VenueName": "Kamala Theater: Jaggayyapeta"
  },
  "KAVE": {
    "AvailableFormats": "2D",
    "City": "Coimbatore",
    "Latitude": "11.0192",
    "Longitude": "76.9639",
    "RegionCode": "COIM",
    "State": "Tamil Nadu",
    "SubRegionCode": "COIM",
    "VenueAddress": "No 167, Dr Rajendraprasad Road (100 ft road), Karpagam Cine Complex, Gandhipuram, Coimbatore, Tamil Nadu 641012, India",
    "VenueCode": "KAVE",
    "VenueName": "Kaveri Cinema: Coimbatore"
  },
  "KCCG": {
    "AvailableFormats": "2D",
    "City": "Gwalior",
    "Latitude": "26.2045",
    "Longitude": "78.1555",
    "RegionCode": "GWAL",
    "State": "Madhya Pradesh",
    "SubRegionCode": "GWAL",
    "VenueAddress": "Lashkar, Gangwal Bhawan Marg, Gwalior, Madhya Pradesh 474001, India",
    "VenueCode": "KCCG",
    "VenueName": "Kailash Cineplex Dolby Digital: Gwalior"
  },
  "KCMW": {
    "AvailableFormats": "2D",
    "City": "Mawana",
    "Latitude": "29.1007",
    "Longitude": "77.9156",
    "RegionCode": "MERT",
    "State": "Uttar Pradesh",
    "SubRegionCode": "MERT",
    "VenueAddress": "Mill Road, Mohalla Kalyan Singh, Mawana, Uttar Pradesh 250401, India",
    "VenueCode": "KCMW",
    "VenueName": "Kapil Cinema: Mawana"
  },
  "KDCA": {
    "AvailableFormats": "",
    "City": "Akbarpur",
    "Latitude": "26.417946",
    "Longitude": "82.53027",
    "RegionCode": "AKBR",
    "State": "Uttar Pradesh",
    "SubRegionCode": "AKBR",
    "VenueAddress": "Indralok Colony, Shahzad Pur, Akbarpur, Uttar Pradesh 224122, India",
    "VenueCode": "KDCA",
    "VenueName": "Kapoor DD Cinemas: Akbarpur"
  },
  "KFMT": {
    "AvailableFormats": "2D",
    "City": "Thalikulam",
    "Latitude": "10.4413",
    "Longitude": "76.0938",
    "RegionCode": "THAI",
    "State": "Kerala",
    "SubRegionCode": "THAI",
    "VenueAddress": "Karthika Movies, National Highway 66, Thalikulam, Kerala 680569, India",
    "VenueCode": "KFMT",
    "VenueName": "Karthika Fun Movies Thalikulam RGB 4K Laser Atmos"
  },
  "KIGH": {
    "AvailableFormats": "2D",
    "City": "Mandla",
    "Latitude": "22.5624",
    "Longitude": "80.3518",
    "RegionCode": "MADL",
    "State": "Madhya Pradesh",
    "SubRegionCode": "MADL",
    "VenueAddress": "Maharajpur, Kolpewadi, Mandla Road, Rangoli Restaurant, Mandla, Madhya Pradesh 481665, India",
    "VenueCode": "KIGH",
    "VenueName": "Kingfisher Multiplex: Mandla"
  },
  "KKTJ": {
    "AvailableFormats": "2D",
    "City": "Jeypore",
    "Latitude": "18.8573",
    "Longitude": "82.5722",
    "RegionCode": "JEYP",
    "State": "Odisha",
    "SubRegionCode": "JEYP",
    "VenueAddress": "Bidyadhar Market Road, Mill Street, Jeypore, Odisha 764001, India",
    "VenueCode": "KKTJ",
    "VenueName": "Korosudha Kalamandir Theatre: Jeypore"
  },
  "KMJR": {
    "AvailableFormats": "2D",
    "City": "Jintur",
    "Latitude": "19.5956",
    "Longitude": "76.6741",
    "RegionCode": "PARB",
    "State": "Maharashtra",
    "SubRegionCode": "PARB",
    "VenueAddress": "Jalna, Jintur Road, Jintur, Maharashtra 431509, India",
    "VenueCode": "KMJR",
    "VenueName": "Khushi Multiplex: Jintur"
  },
  "KNOX": {
    "AvailableFormats": "2D",
    "City": "Keonjhar",
    "Latitude": "21.6354",
    "Longitude": "85.616",
    "RegionCode": "KNJH",
    "State": "Odisha",
    "SubRegionCode": "KNJH",
    "VenueAddress": "Kashvi Mall, Mining Road, Opposite Keonjhar Law College, Keonjhar, Odisha 758001, India",
    "VenueCode": "KNOX",
    "VenueName": "KNOX Cinema: Keonjhar"
  },
  "KRBC": {
    "AvailableFormats": "2D|3D",
    "City": "Bahadurgarh",
    "Latitude": "28.6779",
    "Longitude": "76.8975",
    "RegionCode": "BAHD",
    "State": "Haryana",
    "SubRegionCode": "BAHD",
    "VenueAddress": "2nd Floor, Minervas West Side Mall, Sector 14, Jhajjar Road, Jhajjar, Bahadurgarh, Haryana 124507, India",
    "VenueCode": "KRBC",
    "VenueName": "KRB Cineplex: Bahadurgarh"
  },
  "KRPM": {
    "AvailableFormats": "2D",
    "City": "Kurumaseri",
    "Latitude": "10.180087",
    "Longitude": "76.331202",
    "RegionCode": "KURY",
    "State": "Kerala",
    "SubRegionCode": "KURY",
    "VenueAddress": "N Poovathusssery - Meladoor Road, Nearby Kaitharan Build Ware, Kurumaseri, Kerala 683579, India",
    "VenueCode": "KRPM",
    "VenueName": "Kripa Movies 4K Dolby: Kurumassery"
  },
  "KSDE": {
    "AvailableFormats": "",
    "City": "Deoli (Rajasthan)",
    "Latitude": "25.76135",
    "Longitude": "75.37665",
    "RegionCode": "DEOY",
    "State": "Rajasthan",
    "SubRegionCode": "DEOY",
    "VenueAddress": "National Highway 52, Tonk Road, Narayani Nagar, Deoli (Rajasthan), Rajasthan 304804, India",
    "VenueCode": "KSDE",
    "VenueName": "Kisan Talkies: Deoli"
  },
  "KSTC": {
    "AvailableFormats": "2D",
    "City": "Alappuzha",
    "Latitude": "9.68907",
    "Longitude": "76.3428",
    "RegionCode": "CRTL",
    "State": "Kerala",
    "SubRegionCode": "CRTL",
    "VenueAddress": "Cherthala Road, Kodathikavala, Cherthala, Near State Bank of India, Cherthala Branch, Alappuzha, Kerala 688524, India",
    "VenueCode": "KSTC",
    "VenueName": "Cherthala: Kairali Sree Theatre"
  },
  "KTEK": {
    "AvailableFormats": "2D",
    "City": "Kochi",
    "Latitude": "9.97858",
    "Longitude": "76.2826",
    "RegionCode": "PALY",
    "State": "Kerala",
    "SubRegionCode": "PALY",
    "VenueAddress": "Paza Hotel, Mahatma Gandhi Road, Shenoys - Ernakulam, Near Abad, Kochi, Kerala 682011, India",
    "VenueCode": "KTEK",
    "VenueName": "Kavitha Theatre 4K 3D Dolby 7.1: Ernakulam"
  },
  "KTTT": {
    "AvailableFormats": "",
    "City": "Tonk",
    "Latitude": "26.173922",
    "Longitude": "75.794624",
    "RegionCode": "TONK",
    "State": "Rajasthan",
    "SubRegionCode": "TONK",
    "VenueAddress": "Rooi Panch ka Maidan, Ambika Colony, Near Janki Bai Guest House, Tonk, Rajasthan 304001, India",
    "VenueCode": "KTTT",
    "VenueName": "Kiran Talkies: Tonk"
  },
  "LACK": {
    "AvailableFormats": "",
    "City": "Chanpatia",
    "Latitude": "26.948313",
    "Longitude": "84.53663",
    "RegionCode": "CHAT",
    "State": "Bihar",
    "SubRegionCode": "CHAT",
    "VenueAddress": "Chanpatia Station Road, Near Chanpatia Police Station, Chanpatia, Bihar 845449, India",
    "VenueCode": "LACK",
    "VenueName": "Lal Talkies(AC, Dolby 7.1): Chanpatia"
  },
  "LASK": {
    "AvailableFormats": "",
    "City": "Karaikal",
    "Latitude": "10.936586",
    "Longitude": "79.830025",
    "RegionCode": "KARA",
    "State": "Tamil Nadu",
    "SubRegionCode": "KARA",
    "VenueAddress": "National Highway 45A, Viola Garden, Nehrunagar, Karaikal, Puducherry, Near Pondicherry University, Karaikal, Tamil Nadu 609605, India",
    "VenueCode": "LASK",
    "VenueName": "LA Cinema Shamina A/C Dolby Atmos: Karaikal"
  },
  "LCMV": {
    "AvailableFormats": "2D",
    "City": "Kankavli",
    "Latitude": "16.2655",
    "Longitude": "73.7061",
    "RegionCode": "KNKS",
    "State": "Maharashtra",
    "SubRegionCode": "KNKS",
    "VenueAddress": "Achara Road, Near - Police Station, Kalmath, Kankavli, Maharashtra 416602, India",
    "VenueCode": "LCMV",
    "VenueName": "Laxmi Chitramandir: Kankavli"
  },
  "LCZP": {
    "AvailableFormats": "2D",
    "City": "Zirakpur",
    "Latitude": "30.6599",
    "Longitude": "76.8218",
    "RegionCode": "CHD",
    "State": "Punjab",
    "SubRegionCode": "ZRIK",
    "VenueAddress": "Paras Down Town Square Mall, The Golden Plaza Hotel, Ambala Chandigarh Express Way, Zirakpur, Zirakpur, Punjab 140603, India",
    "VenueCode": "LCZP",
    "VenueName": "Legend Cinemas: Paras Downtown Square, Zirakpur"
  },
  "LITH": {
    "AvailableFormats": "2D",
    "City": "Hinganghat",
    "Latitude": "20.5505",
    "Longitude": "78.8364",
    "RegionCode": "HINA",
    "State": "Maharashtra",
    "SubRegionCode": "HINA",
    "VenueAddress": "Civil Lines Road, Dag Borkhedi, Hinganghat, Maharashtra 442301, India",
    "VenueCode": "LITH",
    "VenueName": "Laxmi Talkies: Hinganghat"
  },
  "LKTH": {
    "AvailableFormats": "2D",
    "City": "Bengaluru",
    "Latitude": "12.9253",
    "Longitude": "77.6076",
    "RegionCode": "HOKT",
    "State": "Karnataka",
    "SubRegionCode": "HOKT",
    "VenueAddress": "Near to Bangalore Dairy BTM Layout, Balaji Nagar, Tavarekere Road, Opposite to Forum Mall, Bengaluru, Karnataka 560081, India",
    "VenueCode": "LKTH",
    "VenueName": "Lakshmi Cinema 4K Dolby Atmos RGB Laser Tavarekere"
  },
  "LMHO": {
    "AvailableFormats": "2D|3D",
    "City": "Hosur",
    "Latitude": "12.7422",
    "Longitude": "77.8288",
    "RegionCode": "HSUR",
    "State": "Tamil Nadu",
    "SubRegionCode": "HSUR",
    "VenueAddress": "Survy No- 518/1A, Plot No.205-A, NHS Hosur, Phase VII, Krishnagiri, Hosur, Tamil Nadu 635109, India",
    "VenueCode": "LMHO",
    "VenueName": "Lakshmi Cinemas RGB Laser QSC Dolby Atmos: Hosur"
  },
  "LSCB": {
    "AvailableFormats": "",
    "City": "Bhiwadi",
    "Latitude": "28.194407",
    "Longitude": "76.81226",
    "RegionCode": "BHWD",
    "State": "Rajasthan",
    "SubRegionCode": "BHWD",
    "VenueAddress": "3rd Floor, Legend Centra Mall, 1st Mile Stone, Alwar By Pass Road, Bhiwadi, Rajasthan 301019, India",
    "VenueCode": "LSCB",
    "VenueName": "Legend SRS Cinemas: Bhiwadi"
  },
  "LVCD": {
    "AvailableFormats": "2D",
    "City": "Durg",
    "Latitude": "21.1959",
    "Longitude": "81.2844",
    "RegionCode": "DURG",
    "State": "Chhattisgarh",
    "SubRegionCode": "DURG",
    "VenueAddress": "Guru Nanak Nagar, Station Road, Near Apsara Talkies, Durg, Chhattisgarh 491001, India",
    "VenueCode": "LVCD",
    "VenueName": "Tarun LV Cinemas: Durg"
  },
  "MAAG": {
    "AvailableFormats": "2D",
    "City": "Navsari",
    "Latitude": "20.9502",
    "Longitude": "72.9171",
    "RegionCode": "NVSR",
    "State": "Gujarat",
    "SubRegionCode": "NVSR",
    "VenueAddress": "Mukta A2 Cinemas, Giriraj, Station Road, Taskand Nagar, Vejalpore, Near Udipi Hotel, Navsari, Gujarat 396445, India",
    "VenueCode": "MAAG",
    "VenueName": "Mukta A2 Cinemas: Giriraj"
  },
  "MACT": {
    "AvailableFormats": "2D",
    "City": "Machilipatnam",
    "Latitude": "16.1836",
    "Longitude": "81.1324",
    "RegionCode": "MAPM",
    "State": "Andhra Pradesh",
    "SubRegionCode": "MAPM",
    "VenueAddress": "NH 214A, Srinivas Nagar Colony, Krishna District, Machilipatnam, Andhra Pradesh 521001, India",
    "VenueCode": "MACT",
    "VenueName": "Siri Complex: Machilipatnam"
  },
  "MAHM": {
    "AvailableFormats": "2D",
    "City": "Hyderabad",
    "Latitude": "17.4999",
    "Longitude": "78.3866",
    "RegionCode": "HYD",
    "State": "Telangana",
    "SubRegionCode": "HYD",
    "VenueAddress": "1-2-29/93, Jai Bharat Nagar, Hyder Nagar, Vasantha Nagar, Nizampet, Hyderabad, Telangana 500090, India",
    "VenueCode": "MAHM",
    "VenueName": "Mallikarjuna 70mm A/C DTS: Kukatpally"
  },
  "MAOU": {
    "AvailableFormats": "2D",
    "City": "Routhulapudi",
    "Latitude": "17.3789",
    "Longitude": "82.3691",
    "RegionCode": "ROUT",
    "State": "Andhra Pradesh",
    "SubRegionCode": "ROUT",
    "VenueAddress": "Tuni Kathipudi Road, Nearby Lakshami Durga atoz Emporeya, Routhulapudi, Andhra Pradesh 533446, India",
    "VenueCode": "MAOU",
    "VenueName": "Maha Lakshmi Theatre: Routhulapudi"
  },
  "MAVC": {
    "AvailableFormats": "3D|2D",
    "City": "Vizag (Visakhapatnam)",
    "Latitude": "17.7088",
    "Longitude": "83.3002",
    "RegionCode": "SABB",
    "State": "Andhra Pradesh",
    "SubRegionCode": "SABB",
    "VenueAddress": "4th Floor,Town Main Road, Next Super Bazaar, Vizag, Andhra Pradesh 530002, India",
    "VenueCode": "MAVC",
    "VenueName": "Mukta A2 Cinemas: Vizag (ONLY RECLINERS AND SOFAS)"
  },
  "MBBT": {
    "AvailableFormats": "2D",
    "City": "Kasaragod",
    "Latitude": "12.5024",
    "Longitude": "74.9892",
    "RegionCode": "KASA",
    "State": "Kerala",
    "SubRegionCode": "KASA",
    "VenueAddress": "KPR Rao Road, Kasaragod, Kasaragod, Kerala 671121, India",
    "VenueCode": "MBBT",
    "VenueName": "Magic Frames Mehboob Theatre Complex 4K: Kasaragod"
  },
  "MCAJ": {
    "AvailableFormats": "",
    "City": "Anjar",
    "Latitude": "23.101154",
    "Longitude": "70.035416",
    "RegionCode": "ANJR",
    "State": "Gujarat",
    "SubRegionCode": "ANJR",
    "VenueAddress": "Vaishali Enclave, Chitrakut Circle, Shiv Shakti Society, Vir Bhaghat Singh Nagar, Anjar, Gujarat 370110, India",
    "VenueCode": "MCAJ",
    "VenueName": "FUN Cinemas Modern Cineplex: Anjar"
  },
  "MCCP": {
    "AvailableFormats": "",
    "City": "Ahmedabad",
    "Latitude": "23.0535",
    "Longitude": "72.6421",
    "RegionCode": "AHD",
    "State": "Gujarat",
    "SubRegionCode": "AHD",
    "VenueAddress": "Krishna Nagar, Naroda-Narol BRTS Road, Vijaya Bank, Ahmedabad, Gujarat 382346, India",
    "VenueCode": "MCCP",
    "VenueName": "Miraj Cinemas: Cinepride, Krishna Nagar"
  },
  "MCFF": {
    "AvailableFormats": "3D|2D",
    "City": "Mumbai",
    "Latitude": "19.4246",
    "Longitude": "72.8119",
    "RegionCode": "MUMBAI",
    "State": "Maharashtra",
    "SubRegionCode": "MWEST",
    "VenueAddress": "Sri Swastik Mega City, Sri Prastha Complex, Zero Road, Opposite Poonam Complex, Nalasopara (West), Near Mother Mary English High School, Mumbai, Maharashtra 401203, India",
    "VenueCode": "MCFF",
    "VenueName": "Miraj Fun Fiesta Cinemas: Nalasopara"
  },
  "MCHL": {
    "AvailableFormats": "",
    "City": "Ludhiana",
    "Latitude": "30.925505",
    "Longitude": "75.847305",
    "RegionCode": "LUDH",
    "State": "Punjab",
    "SubRegionCode": "LUDH",
    "VenueAddress": "Clock Tower Road, Fatehgarh Mohalla, Near Bhagvan Valmiki Park, Ludhiana, Punjab 141008, India",
    "VenueCode": "MCHL",
    "VenueName": "Mini Chand Cinema: Ludhiana"
  },
  "MCKK": {
    "AvailableFormats": "2D|3D",
    "City": "Kolkata",
    "Latitude": "22.5816",
    "Longitude": "88.4627",
    "RegionCode": "KOLK",
    "State": "West Bengal",
    "SubRegionCode": "KOLK",
    "VenueAddress": "The Terminus Bulding, Plot No. BG/12, AA-1B, New Town, Rajarhat, Kolkata, West Bengal 700156, India",
    "VenueCode": "MCKK",
    "VenueName": "Miraj Cinemas: Newtown, Kolkata"
  },
  "MCMN": {
    "AvailableFormats": "",
    "City": "Malegaon",
    "Latitude": "20.557009",
    "Longitude": "74.52555",
    "RegionCode": "MALE",
    "State": "Maharashtra",
    "SubRegionCode": "MALE",
    "VenueAddress": "Shreeram Nagar Road, Vardhaman Nagar, Malegaon, Maharashtra 423105, India",
    "VenueCode": "MCMN",
    "VenueName": "Mohan Cinema: Malegaon"
  },
  "MCRC": {
    "AvailableFormats": "2D|3D",
    "City": "Mumbai",
    "Latitude": "18.9543",
    "Longitude": "72.8166",
    "RegionCode": "MUMBAI",
    "State": "Maharashtra",
    "SubRegionCode": "MCENT",
    "VenueAddress": "5th Floor, Jewel Building, 23-27 New Queens Road, Opera House, Girgaon, Mumbai, Maharashtra 400004, India",
    "VenueCode": "MCRC",
    "VenueName": "Roxy Mukta A2 Cinemas: Charni Road"
  },
  "MCSO": {
    "AvailableFormats": "3D|2D",
    "City": "Vadodara",
    "Latitude": "22.2922",
    "Longitude": "73.1357",
    "RegionCode": "VAD",
    "State": "Gujarat",
    "SubRegionCode": "VAD",
    "VenueAddress": "The Emperor Mall, 2nd Floor, Beside VCA Ground, Vasna-Bhayli Road, Opposite Shakti Green Party Plot, Vadodara, Gujarat 391410, India",
    "VenueCode": "MCSO",
    "VenueName": "Mukta A2 Cinemas (Opulence): The Emperor Mall"
  },
  "MCUS": {
    "AvailableFormats": "3D|2D",
    "City": "Alwar",
    "Latitude": "27.6024",
    "Longitude": "76.6314",
    "RegionCode": "ALWR",
    "State": "Rajasthan",
    "SubRegionCode": "ALWR",
    "VenueAddress": "Urban Square Galleria Mall, 4th Floor, Shalimar Apna Ghar, Gate No. 1, Near Telco Chowk, Alwar, Rajasthan 301001, India",
    "VenueCode": "MCUS",
    "VenueName": "Miraj Cinemas: Urban Square Galleria Mall, Alwar"
  },
  "MDGD": {
    "AvailableFormats": "",
    "City": "Gurugram (Gurgaon)",
    "Latitude": "28.424637",
    "Longitude": "76.93061",
    "RegionCode": "NCR",
    "State": "NCR",
    "SubRegionCode": "GURG",
    "VenueAddress": "Newtown Square, Sector 95A Gurgaon, Sector 95A, Gurugram (Gurgaon), NCR 122505, India",
    "VenueCode": "MDGD",
    "VenueName": "Mad Cinemas: Gurgaon"
  },
  "MEEN": {
    "AvailableFormats": "2D",
    "City": "Coimbatore",
    "Latitude": "11.0831",
    "Longitude": "77.186",
    "RegionCode": "COIM",
    "State": "Tamil Nadu",
    "SubRegionCode": "COIM",
    "VenueAddress": "Somanur Rd,Bharathiyar Nagar, Somanur,Tamil Nadu, Coimbatore, Tamil Nadu 641668, India",
    "VenueCode": "MEEN",
    "VenueName": "Meenambiga Cinemas A/C 2K DOLBY ATMOS: Somanur"
  },
  "MERM": {
    "AvailableFormats": "2D",
    "City": "Noida",
    "Latitude": "28.5608",
    "Longitude": "77.3565",
    "RegionCode": "NCR",
    "State": "NCR",
    "SubRegionCode": "NOIDA",
    "VenueAddress": "4th Floor, R Cube Monad Mall, Block A, Sector 43, Noida, NCR 201303, India",
    "VenueCode": "MERM",
    "VenueName": "MovieMax Edition (Luxe): Rcube Monad Mall, Noida"
  },
  "MHCK": {
    "AvailableFormats": "2D|3D",
    "City": "Koraput",
    "Latitude": "18.8263",
    "Longitude": "82.7004",
    "RegionCode": "KOPT",
    "State": "Odisha",
    "SubRegionCode": "KOPT",
    "VenueAddress": "Megha Township, Manabar, Unnamed Road, Koraput, Odisha 764020, India",
    "VenueCode": "MHCK",
    "VenueName": "Meghraj Cinemaz: Koraput"
  },
  "MIFU": {
    "AvailableFormats": "3D|2D",
    "City": "Ulhasnagar",
    "Latitude": "19.226",
    "Longitude": "73.1657",
    "RegionCode": "MUMBAI",
    "State": "Maharashtra",
    "SubRegionCode": "ULHA",
    "VenueAddress": "Plot no.93, Sector 6A Ambarnath Road, Victory Ice Factory Compound, Press Bazaar, Ulhasnagar, Maharashtra 421003, India",
    "VenueCode": "MIFU",
    "VenueName": "Funcity Big Cinemas: Ulhasnagar"
  },
  "MJDG": {
    "AvailableFormats": "2D",
    "City": "Shivamogga",
    "Latitude": "13.9239",
    "Longitude": "75.5756",
    "RegionCode": "SHIA",
    "State": "Karnataka",
    "SubRegionCode": "SHIA",
    "VenueAddress": "K.R.Puram, Mahakavi Kalidasa Road, Gandhi Bazar, Shivamogga, Karnataka 577202, India",
    "VenueCode": "MJDG",
    "VenueName": "Manjunatha Digital 2K Cinema: Shivamogga"
  },
  "MKML": {
    "AvailableFormats": "2D",
    "City": "Pune",
    "Latitude": "18.5437",
    "Longitude": "73.9088",
    "RegionCode": "PUNE",
    "State": "Maharashtra",
    "SubRegionCode": "PUNE",
    "VenueAddress": "Marigold Complex, Kalyani Nagar, Pune, Maharashtra 411006, India",
    "VenueCode": "MKML",
    "VenueName": "MovieMax Gold: Mariplex Mall, Kalyani Nagar"
  },
  "MLCK": {
    "AvailableFormats": "2D",
    "City": "Shoranur",
    "Latitude": "10.7603",
    "Longitude": "76.2736",
    "RegionCode": "SHNR",
    "State": "Kerala",
    "SubRegionCode": "SHNR",
    "VenueAddress": "Shoranur Ring Road, Railway Station Junction, Shoranur, Kerala 679121, India",
    "VenueCode": "MLCK",
    "VenueName": "M Lal, Aashirvad Cineplexx: Shoranur"
  },
  "MMCA": {
    "AvailableFormats": "3D|2D",
    "City": "Hyderabad",
    "Latitude": "17.4956",
    "Longitude": "78.3533",
    "RegionCode": "HYD",
    "State": "Telangana",
    "SubRegionCode": "HYD",
    "VenueAddress": "Cinetown, Survey No. 71, Miyapur Village Ranga Reddy, Hyderabad, Telangana 500049, India",
    "VenueCode": "MMCA",
    "VenueName": "Miraj Cinemas: CineTown, Miyapur"
  },
  "MMHA": {
    "AvailableFormats": "3D|2D",
    "City": "Mumbai",
    "Latitude": "19.1287",
    "Longitude": "72.926",
    "RegionCode": "MUMBAI",
    "State": "Maharashtra",
    "SubRegionCode": "MCENT",
    "VenueAddress": "Huma Mall, LBS Road, Kanjurmarg (W), Near Kanjurmarg Railway Station, Mumbai, Maharashtra 400078, India",
    "VenueCode": "MMHA",
    "VenueName": "MovieMax: Huma, Kanjurmarg"
  },
  "MMMZ": {
    "AvailableFormats": "",
    "City": "Chickmagaluru",
    "Latitude": "13.3173",
    "Longitude": "75.7707",
    "RegionCode": "CHKA",
    "State": "Karnataka",
    "SubRegionCode": "CHKA",
    "VenueAddress": "KM Road, Next to bus stand, Kadur, Chickmagaluru, Karnataka 577101, India",
    "VenueCode": "MMMZ",
    "VenueName": "Milan Theatre: Chickmagaluru"
  },
  "MMTA": {
    "AvailableFormats": "2D",
    "City": "Kochi",
    "Latitude": "10.1072",
    "Longitude": "76.3603",
    "RegionCode": "PALY",
    "State": "Kerala",
    "SubRegionCode": "PALY",
    "VenueAddress": "Periyar Nagar, T2/10, Perumbavoor Aluva Road, Near ICICI Bank, Kochi, Kerala 683101, India",
    "VenueCode": "MMTA",
    "VenueName": "Matha Madhurya RGB Laser 3D Dolby Atmos: Aluva"
  },
  "MMZG": {
    "AvailableFormats": "",
    "City": "Ghaziabad",
    "Latitude": "28.6466",
    "Longitude": "77.3201",
    "RegionCode": "NCR",
    "State": "NCR",
    "SubRegionCode": "GHAZ",
    "VenueAddress": "MovieMax, Pacific Mall, Site 4 Sahibabad Industrial Area, Ghaziabad, NCR 201010, India",
    "VenueCode": "MMZG",
    "VenueName": "MovieMax: Pacific Mall Ghaziabad"
  },
  "MNPP": {
    "AvailableFormats": "2D",
    "City": "Hospet",
    "Latitude": "15.2721",
    "Longitude": "76.3926",
    "RegionCode": "HOSP",
    "State": "Karnataka",
    "SubRegionCode": "HOSP",
    "VenueAddress": "Takka Street, Bukka Road, Opposite New Rexine House, Hospet, Karnataka 583201, India",
    "VenueCode": "MNPP",
    "VenueName": "Meeralam Nawaz Picture Palace: Hospet"
  },
  "MPTN": {
    "AvailableFormats": "2D",
    "City": "Nandyal",
    "Latitude": "15.4857",
    "Longitude": "78.4871",
    "RegionCode": "NADY",
    "State": "Andhra Pradesh",
    "SubRegionCode": "NADY",
    "VenueAddress": "Atmakur Road, Telugu Peta, Near NTR Shopping Complex, Nandyal, Andhra Pradesh 518501, India",
    "VenueCode": "MPTN",
    "VenueName": "Mini Prathap A/C DTS: Nandyal"
  },
  "MRGK": {
    "AvailableFormats": "2D",
    "City": "Karwar",
    "Latitude": "14.8083",
    "Longitude": "74.1314",
    "RegionCode": "KWAR",
    "State": "Karnataka",
    "SubRegionCode": "KWAR",
    "VenueAddress": "Kaikini Road, Konekar Wada, Next to Bolas The Factory Outlet, Karwar, Karnataka 581301, India",
    "VenueCode": "MRGK",
    "VenueName": "Miraj Cinemas: Geetanjali, Karwar"
  },
  "MRSS": {
    "AvailableFormats": "2D",
    "City": "Changaramkulam",
    "Latitude": "10.7363",
    "Longitude": "76.029",
    "RegionCode": "EDPL",
    "State": "Kerala",
    "SubRegionCode": "EDPL",
    "VenueAddress": "Kunnamkulam Road, Changaramkulam, Opposite essar pterol pump, Changaramkulam, Kerala 679591, India",
    "VenueCode": "MRSS",
    "VenueName": "Mars Cinemas 4K Dolby Atmos: Changaramkulam"
  },
  "MSDR": {
    "AvailableFormats": "",
    "City": "Madanapalle",
    "Latitude": "13.55864",
    "Longitude": "78.50057",
    "RegionCode": "MDNP",
    "State": "Andhra Pradesh",
    "SubRegionCode": "MDNP",
    "VenueAddress": "Krishna Nagar, Marpuri Steet Road, Madanapalle, Andhra Pradesh 517325, India",
    "VenueCode": "MSDR",
    "VenueName": "Mini Siddartha 2K A/c Digital Surround:Madanapalle"
  },
  "MTAR": {
    "AvailableFormats": "2D",
    "City": "Rajgangpur",
    "Latitude": "22.1913",
    "Longitude": "84.5893",
    "RegionCode": "RJGR",
    "State": "Odisha",
    "SubRegionCode": "RJGR",
    "VenueAddress": "Subhas Chowk, R.G.P Main Road, Near DHP Shah Hindustan Petrol Pump, Rajgangpur, Odisha 770017, India",
    "VenueCode": "MTAR",
    "VenueName": "Milan Talkies: Rajgangpur"
  },
  "MTCV": {
    "AvailableFormats": "",
    "City": "Gurugram (Gurgaon)",
    "Latitude": "28.5364",
    "Longitude": "77.0185",
    "RegionCode": "NCR",
    "State": "NCR",
    "SubRegionCode": "GURG",
    "VenueAddress": "2nd Floor, VSR Avenue Sector 114, Gurugram (Gurgaon), NCR 122017, India",
    "VenueCode": "MTCV",
    "VenueName": "Movietime Cinema: VSR 114 Avenue Sec 114 Gurgaon"
  },
  "MTKT": {
    "AvailableFormats": "",
    "City": "Tirupur",
    "Latitude": "11.273499",
    "Longitude": "77.41322",
    "RegionCode": "TIRP",
    "State": "Tamil Nadu",
    "SubRegionCode": "TIRP",
    "VenueAddress": "Kunnathur, Tirupur, Tamil Nadu, Near SV Hospital, Tirupur, Tamil Nadu 638103, India",
    "VenueCode": "MTKT",
    "VenueName": "Mohan Theatre: Kunnathur"
  },
  "MTPP": {
    "AvailableFormats": "3D|2D",
    "City": "Delhi",
    "Latitude": "28.7058",
    "Longitude": "77.1428",
    "RegionCode": "NCR",
    "State": "NCR",
    "SubRegionCode": "DELHI",
    "VenueAddress": "1st Floor, North Pacific Mall, KP Block Pitampura, Near Hotel City Park, Delhi, NCR 110088, India",
    "VenueCode": "MTPP",
    "VenueName": "Movietime Cinemas: Pitampura"
  },
  "MUAA": {
    "AvailableFormats": "",
    "City": "Hyderabad",
    "Latitude": "17.385727",
    "Longitude": "78.47715",
    "RegionCode": "AUSH",
    "State": "Telangana",
    "SubRegionCode": "AUSH",
    "VenueAddress": "Ramakrishna 35mm, JN Road, Abids, Hyderabad, Telangana 500001, India",
    "VenueCode": "MUAA",
    "VenueName": "Mukta A2 Cinemas, Ramakrishna: Abids"
  },
  "MVEX": {
    "AvailableFormats": "",
    "City": "Balasore",
    "Latitude": "21.560041",
    "Longitude": "86.98362",
    "RegionCode": "BLSR",
    "State": "Odisha",
    "SubRegionCode": "BLSR",
    "VenueAddress": "Maa Ambica Enterprises, O.T. Road, Near HP Petrol Pump, Balasore, Odisha 756003, India",
    "VenueCode": "MVEX",
    "VenueName": "MovieEX Cinema: Balasore"
  },
  "MXCB": {
    "AvailableFormats": "",
    "City": "Bikaner",
    "Latitude": "27.99357",
    "Longitude": "73.32065",
    "RegionCode": "BIK",
    "State": "Rajasthan",
    "SubRegionCode": "BIK",
    "VenueAddress": "Road No 5, Agarsen Nagar, Rani Bazar, Kishmideshar, Near Industrial Area, Bikaner, Rajasthan 334001, India",
    "VenueCode": "MXCB",
    "VenueName": "MovieMax: Cinemagic, Bikaner"
  },
  "MYCP": {
    "AvailableFormats": "2D",
    "City": "Gorakhpur",
    "Latitude": "26.747",
    "Longitude": "83.3562",
    "RegionCode": "GRKP",
    "State": "Uttar Pradesh",
    "SubRegionCode": "GRKP",
    "VenueAddress": "Bade Kajipur, Geeta Press Road, Near Kothe Wali Masjid, Gorakhpur, Uttar Pradesh 273005, India",
    "VenueCode": "MYCP",
    "VenueName": "Maya Cineplex: Gorakhpur"
  },
  "MYTK": {
    "AvailableFormats": "2D",
    "City": "Morena",
    "Latitude": "26.4965",
    "Longitude": "77.9884",
    "RegionCode": "MRMP",
    "State": "Madhya Pradesh",
    "SubRegionCode": "MRMP",
    "VenueAddress": "H B Colony, Nainagarh Road, Nearby B.N Garden, Morena, Madhya Pradesh 476001, India",
    "VenueCode": "MYTK",
    "VenueName": "Mayur Talkies: Morena"
  },
  "NAMD": {
    "AvailableFormats": "2D",
    "City": "Ahmedabad",
    "Latitude": "23.0326",
    "Longitude": "72.5083",
    "RegionCode": "AHD",
    "State": "Gujarat",
    "SubRegionCode": "AHD",
    "VenueAddress": "Ground and First Floor, Block O, Mondeal Retail Park, S G Road, Ahmedabad, Gujarat 380059, India",
    "VenueCode": "NAMD",
    "VenueName": "1,Newfangled Miniplex (Twin Seat): Mondeal Park"
  },
  "NCHJ": {
    "AvailableFormats": "2D",
    "City": "Hajipur",
    "Latitude": "25.6942",
    "Longitude": "85.215",
    "RegionCode": "HAJI",
    "State": "Bihar",
    "SubRegionCode": "HAJI",
    "VenueAddress": "Ram Balak Chowk, Naveen Cinema Road, JP Colony, Yadav Nagar, Near Commmunity Hall, Hajipur, Bihar 844101, India",
    "VenueCode": "NCHJ",
    "VenueName": "Navin Cinema: Hajipur"
  },
  "NCPM": {
    "AvailableFormats": "2D",
    "City": "Parbhani",
    "Latitude": "19.2664",
    "Longitude": "76.7624",
    "RegionCode": "PARB",
    "State": "Maharashtra",
    "SubRegionCode": "PARB",
    "VenueAddress": "National Highway 222, Masoom Colony, Jintoor Road, Parbhani, Maharashtra 431401, India",
    "VenueCode": "NCPM",
    "VenueName": "Naresh Cineplex: Parbhani"
  },
  "NEDD": {
    "AvailableFormats": "2D",
    "City": "Dehradun",
    "Latitude": "30.3265",
    "Longitude": "78.0434",
    "RegionCode": "DEH",
    "State": "Uttarakhand",
    "SubRegionCode": "DEH",
    "VenueAddress": "Rajpur Road, Gandhi Park, Chukkuwala, Near Police Station, Dehradun, Uttarakhand 248001, India",
    "VenueCode": "NEDD",
    "VenueName": "FUN Cinemas New Empire: Dehradun"
  },
  "NJCJ": {
    "AvailableFormats": "2D|3D",
    "City": "Jhansi",
    "Latitude": "25.4482",
    "Longitude": "78.567",
    "RegionCode": "JNSI",
    "State": "Uttar Pradesh",
    "SubRegionCode": "JNSI",
    "VenueAddress": "Civil Lines, Shivpuri - Jhansi Road, Jhansi, Uttar Pradesh 284001, India",
    "VenueCode": "NJCJ",
    "VenueName": "Nataraj Cinema: Jhansi"
  },
  "NMAD": {
    "AvailableFormats": "2D",
    "City": "Ahmedabad",
    "Latitude": "23.1023",
    "Longitude": "72.5945",
    "RegionCode": "AHD",
    "State": "Gujarat",
    "SubRegionCode": "AHD",
    "VenueAddress": "312, 3 Floor, North Plaza, Motera, Near 4D Square Mall, Ahmedabad, Gujarat 380005, India",
    "VenueCode": "NMAD",
    "VenueName": "2,Newfangled Miniplex (Twin Seat): Motera"
  },
  "NNNX": {
    "AvailableFormats": "2D",
    "City": "Thane",
    "Latitude": "19.3042",
    "Longitude": "73.0581",
    "RegionCode": "MUMBAI",
    "State": "Maharashtra",
    "SubRegionCode": "THNE",
    "VenueAddress": "267, Bazaar Peth Road, Nazarana Compound, Gokul Nagar, Bhiwandi, Thane, Maharashtra 421302, India",
    "VenueCode": "NNNX",
    "VenueName": "Nazrana Cinema: Bhiwandi"
  },
  "NRAA": {
    "AvailableFormats": "2D",
    "City": "Akola",
    "Latitude": "20.7087",
    "Longitude": "76.9946",
    "RegionCode": "AKOL",
    "State": "Maharashtra",
    "SubRegionCode": "AKOL",
    "VenueAddress": "Tilak Road, Near Ram Mandir, Malipura, Akola, Maharashtra 444001, India",
    "VenueCode": "NRAA",
    "VenueName": "New Regal Cinema: Akola"
  },
  "NSRV": {
    "AvailableFormats": "2D",
    "City": "Vizag (Visakhapatnam)",
    "Latitude": "17.8238",
    "Longitude": "83.2076",
    "RegionCode": "SABB",
    "State": "Andhra Pradesh",
    "SubRegionCode": "SABB",
    "VenueAddress": "Aditya Nagar, Pendurthi, Near Tirumala Hospital, Vizag, Andhra Pradesh 531173, India",
    "VenueCode": "NSRV",
    "VenueName": "Natraj A/c DTS: Pendurthi"
  },
  "NTHS": {
    "AvailableFormats": "2D",
    "City": "Sirsi",
    "Latitude": "14.6172",
    "Longitude": "74.8333",
    "RegionCode": "SRSI",
    "State": "Karnataka",
    "SubRegionCode": "SRSI",
    "VenueAddress": "SH 93, CP Bazar, Sirsi, Karnataka 581401, India",
    "VenueCode": "NTHS",
    "VenueName": "Nataraj Talkies: Sirsi, Karnataka"
  },