{
  "AACS": {
    "AvailableFormats": "",
    "City": "Salem",
    "FirstTracked": "2026-07-14",
    "Latitude": "11.6699",
    "Longitude": "78.0181",
    "RegionCode": "SALM",
    "State": "Tamil Nadu",
    "SubRegionCode": "SALM",
    "VenueAddress": "Ranganathan Nagar, Alagusamudram, Salem, Tamil Nadu 636013, India",
    "VenueCode": "AACS",
    "VenueName": "Amman Arangham Cinemas A/C Dolby: Alagusamuthiram"
  },
  "AAPW": {
    "AvailableFormats": "2D",
    "City": "Warangal",
    "Latitude": "18.0077",
    "Longitude": "79.567",
    "RegionCode": "WAR",
    "State": "Telangana",
    "SubRegionCode": "WAR",
    "VenueAddress": "Ashoka A plex, Beside Warangal Hyderabad Highway, Near Govt Juniour College, Warangal, Telangana 506001, India",
    "VenueCode": "AAPW",
    "VenueName": "Asian Ashoka Air-Conditioned: Hanumakonda"
  },
  "ABCR": {
    "AvailableFormats": "",
    "City": "Vijayawada",
    "FirstTracked": "2026-07-14",
    "Latitude": "16.4859",
    "Longitude": "80.6828",
    "RegionCode": "VIJA",
    "State": "Andhra Pradesh",
    "SubRegionCode": "VIJA",
    "VenueAddress": "Elevate Mall, Pune-Machilipatnam Highway, Kanuru, Vijayawada, Andhra Pradesh 520007, India",
    "VenueCode": "ABCR",
    "VenueName": "ABR Cinemas Neo Screen X:  Kanuru, Vijayawada"
  },
  "ABTK": {
    "AvailableFormats": "",
    "City": "Kottayam",
    "Latitude": "9.58599",
    "Longitude": "76.5244",
    "RegionCode": "ETTU",
    "State": "Kerala",
    "SubRegionCode": "ETTU",
    "VenueAddress": "M.C Road, Opp Kalyan Jewellery, Near Asha Theatre, Kottayam, Kerala 686001, India",
    "VenueCode": "ABTK",
    "VenueName": "Abhilash Theatre 4K RGB Laser 3D: Kottayam"
  },
  "ACCD": {
    "AvailableFormats": "2D",
    "City": "Deoria",
    "Latitude": "26.2107",
    "Longitude": "83.9653",
    "RegionCode": "DEEO",
    "State": "Uttar Pradesh",
    "SubRegionCode": "DEEO",
    "VenueAddress": "Mod, Beside Union Bank Of India, Lakhu, Lar, Deoria, Uttar Pradesh 274502, India",
    "VenueCode": "ACCD",
    "VenueName": "Aura Cineplex: Lar, Deoria"
  },
  "ACHV": {
    "AvailableFormats": "2D",
    "City": "Vijayawada",
    "Latitude": "16.5133",
    "Longitude": "80.6259",
    "RegionCode": "VIJA",
    "State": "Andhra Pradesh",
    "SubRegionCode": "VIJA",
    "VenueAddress": "Governor Peta, Eluru Road, Opposite Swarna Mutiplex, Vijayawada, Andhra Pradesh 520002, India",
    "VenueCode": "ACHV",
    "VenueName": "Apsara Cinema House: Vijayawada"
  },
  "ACKR": {
    "AvailableFormats": "2D",
    "City": "Karukachal",
    "Latitude": "9.50297",
    "Longitude": "76.64363",
    "RegionCode": "KAKC",
    "State": "Kerala",
    "SubRegionCode": "KAKC",
    "VenueAddress": "Karukachal Manimala Road, Neriyani Poika, Karukachal, Kerala 686540, India",
    "VenueCode": "ACKR",
    "VenueName": "Anchani Cinemas 4k RGB LASER ATMOS: Karukachal"
  },
  "ACNL": {
    "AvailableFormats": "2D",
    "City": "Nilanga",
    "Latitude": "18.1276",
    "Longitude": "76.7493",
    "RegionCode": "NLNG",
    "State": "Maharashtra",
    "SubRegionCode": "NLNG",
    "VenueAddress": "Nilanga Main Road, Opposite Nilanga Bus Stop, Nilanga, Maharashtra 413521, India",
    "VenueCode": "ACNL",
    "VenueName": "Ajanta Cineplex: Nilanga, Latur"
  },
  "ACSK": {
    "AvailableFormats": "2D",
    "City": "Shindkheda",
    "Latitude": "21.2726",
    "Longitude": "74.7454",
    "RegionCode": "SHDK",
    "State": "Maharashtra",
    "SubRegionCode": "SHDK",
    "VenueAddress": "Station Road, Near Bus Stand, Shindkheda, Maharashtra 425406, India",
    "VenueCode": "ACSK",
    "VenueName": "Ashok Chitramandir: Shindkheda"
  },
  "ACXB": {
    "AvailableFormats": "2D",
    "City": "Bhandara",
    "Latitude": "21.1761",
    "Longitude": "79.6388",
    "RegionCode": "BHAA",
    "State": "Maharashtra",
    "SubRegionCode": "BHAA",
    "VenueAddress": "Aswale Park, Samruddhi Nagar, Bhandara, Maharashtra 441906, India",
    "VenueCode": "ACXB",
    "VenueName": "AR Cineplex: Bhandara"
  },
  "ADGC": {
    "AvailableFormats": "2D",
    "City": "Narayanpur (CH)",
    "Latitude": "19.7218",
    "Longitude": "81.2415",
    "RegionCode": "NRYA",
    "State": "Chhattisgarh",
    "SubRegionCode": "NRYA",
    "VenueAddress": "Collectorate Road, Near Sports Ground, Narayanpur (CH), Chhattisgarh 494661, India",
    "VenueCode": "ADGC",
    "VenueName": "Adeshwar Global Cinemas: Narayanpur"
  },
  "AFST": {
    "AvailableFormats": "2D",
    "City": "Siddhpur",
    "Latitude": "23.9425",
    "Longitude": "72.3653",
    "RegionCode": "SIDD",
    "State": "Gujarat",
    "SubRegionCode": "SIDD",
    "VenueAddress": "Gokul Highway Food Mall, Highway Road, Near Sujanpur Patia, Siddhpur, Gujarat 384151, India",
    "VenueCode": "AFST",
    "VenueName": "Ajayshree Films (Gokul Theater): Siddhpur"
  },
  "AICP": {
    "AvailableFormats": "2D",
    "City": "Pallickathodu",
    "Latitude": "9.60499",
    "Longitude": "76.681",
    "RegionCode": "PKTU",
    "State": "Kerala",
    "SubRegionCode": "PKTU",
    "VenueAddress": "Kodungoor Road, Mutholy Pallickathodu, Near Federal Bank Pallikathodu, Pallickathodu, Kerala 686503, India",
    "VenueCode": "AICP",
    "VenueName": "Anchani Cinemas 4K Dolby Atmos: Pallickathodu"
  },
  "AKRF": {
    "AvailableFormats": "2D",
    "City": "Faridabad",
    "Latitude": "28.4553",
    "Longitude": "77.316",
    "RegionCode": "NCR",
    "State": "NCR",
    "SubRegionCode": "FARI",
    "VenueAddress": "SLF Mall St, Indraprastha Colony, Sector 32, Faridabad, NCR 121003, India",
    "VenueCode": "AKRF",
    "VenueName": "AKR Cinemas: SLF Mall, Faridabad"
  },
  "ALCS": {
    "AvailableFormats": "2D",
    "City": "Shirpur",
    "Latitude": "21.3442",
    "Longitude": "74.8805",
    "RegionCode": "SRUR",
    "State": "Maharashtra",
    "SubRegionCode": "SRUR",
    "VenueAddress": "Main Road, Krantinagar, Shirpur, Maharashtra 425405, India",
    "VenueCode": "ALCS",
    "VenueName": "Alankar Chitramandir: Shirpur"
  },
  "AMBH": {
    "AvailableFormats": "2D|3D",
    "City": "Hyderabad",
    "Latitude": "17.4578",
    "Longitude": "78.3642",
    "RegionCode": "HYD",
    "State": "Telangana",
    "SubRegionCode": "HYD",
    "VenueAddress": "Sarath City Capital Mall, Forest Dept Colony, Kondapur, Gachibowli - Miyapur Road, White Field Road, Opposite Mahindra Showroom, Hyderabad, Telangana 500084, India",
    "VenueCode": "AMBH",
    "VenueName": "AMB Cinemas: Gachibowli"
  },
  "AMDK": {
    "AvailableFormats": "2D",
    "City": "Devarakonda",
    "Latitude": "16.6908",
    "Longitude": "78.9227",
    "RegionCode": "DEVK",
    "State": "Telangana",
    "SubRegionCode": "DEVK",
    "VenueAddress": "Devarakonda Road, Mallepally Road, Near State Bank of India ATM, Devarakonda, Telangana 508248, India",
    "VenueCode": "AMDK",
    "VenueName": "Asian Manoj: Devarakonda"
  },
  "AMNG": {
    "AvailableFormats": "3D|2D",
    "City": "Nagpur",
    "Latitude": "21.086",
    "Longitude": "79.0911",
    "RegionCode": "NAGP",
    "State": "Maharashtra",
    "SubRegionCode": "NAGP",
    "VenueAddress": "2nd Floor, Jayanti Nagri 5 Mall, Besa Road, Above Haldirams, Nagpur, Maharashtra 440027, India",
    "VenueCode": "AMNG",
    "VenueName": "AM Cinema: Manish Nagar, Nagpur"
  },
  "AMZB": {
    "AvailableFormats": "2D",
    "City": "Zaheerabad",
    "Latitude": "17.6803",
    "Longitude": "77.6154",
    "RegionCode": "ZAGE",
    "State": "Telangana",
    "SubRegionCode": "ZAGE",
    "VenueAddress": "Main Road, Opposite to Bus Stand, Zaheerabad, Telangana 502220, India",
    "VenueCode": "AMZB",
    "VenueName": "Asian Sri Mohan: Zaheerabad"
  },
  "ANCV": {
    "AvailableFormats": "",
    "City": "Varanasi",
    "FirstTracked": "2026-07-14",
    "Latitude": "25.328384",
    "Longitude": "82.995",
    "RegionCode": "VAR",
    "State": "Uttar Pradesh",
    "SubRegionCode": "VAR",
    "VenueAddress": "S 13/18, Anand Mandir Andhrapull, Teliyabag, Raja Bazar Road, Varanasi, Uttar Pradesh 221002, India",
    "VenueCode": "ANCV",
    "VenueName": "Anand Mandir Cinema: Varanasi"
  },
  "ANRR": {
    "AvailableFormats": "2D",
    "City": "Kanpur",
    "Latitude": "26.4643",
    "Longitude": "80.3573",
    "RegionCode": "KANP",
    "State": "Uttar Pradesh",
    "SubRegionCode": "KANP",
    "VenueAddress": "Birhana Road, Naughara, General Ganj, Kanpur, Uttar Pradesh 208001, India",
    "VenueCode": "ANRR",
    "VenueName": "Navrang Cineplex: Kanpur"
  },
  "AOCH": {
    "AvailableFormats": "2D",
    "City": "Nabadwip",
    "Latitude": "23.4051",
    "Longitude": "88.3661",
    "RegionCode": "NABB",
    "State": "West Bengal",
    "SubRegionCode": "NABB",
    "VenueAddress": "78, Banerjee Para Road, Near Allahabad Bank, Nabadwip, West Bengal 741302, India",
    "VenueCode": "AOCH",
    "VenueName": "Alochaya Cinema: Nabadwip"
  },
  "APJC": {
    "AvailableFormats": "2D",
    "City": "Madurai",
    "Latitude": "9.90666",
    "Longitude": "78.0975",
    "RegionCode": "MADU",
    "State": "Tamil Nadu",
    "SubRegionCode": "MADU",
    "VenueAddress": "No. 6 Kambar street, Pasumpon Nagar, Madurai, Tamil Nadu 625003, India",
    "VenueCode": "APJC",
    "VenueName": "APR Cinemas Jeyam AC Christie 4K Dolby: Madurai"
  },
  "APSC": {
    "AvailableFormats": "3D|2D",
    "City": "Changanassery",
    "Latitude": "9.44915",
    "Longitude": "76.5436",
    "RegionCode": "CNSY",
    "State": "Kerala",
    "SubRegionCode": "CNSY",
    "VenueAddress": "Aramanapady, Palace Road, Near South Indian Bank, Changanassery, Kerala 686101, India",
    "VenueCode": "APSC",
    "VenueName": "Apsara Theatre Dolby 7.1: Changanassery"
  },
  "ARBL": {
    "AvailableFormats": "2D",
    "City": "Buldana",
    "Latitude": "20.5467",
    "Longitude": "76.1763",
    "RegionCode": "BULD",
    "State": "Maharashtra",
    "SubRegionCode": "BULD",
    "VenueAddress": "ARD Green Valley, Malkapur Road, Opposite Hero Honda Showroom, Buldana, Maharashtra 443001, India",
    "VenueCode": "ARBL",
    "VenueName": "ARD Cinemall: Buldana"
  },
  "ARMH": {
    "AvailableFormats": "2D",
    "City": "Hyderabad",
    "Latitude": "17.4767",
    "Longitude": "78.5632",
    "RegionCode": "HYD",
    "State": "Telangana",
    "SubRegionCode": "HYD",
    "VenueAddress": "Anupuram Colony, Dr A S Rao Nagar Road, ECIL Main Road, Near Parivaar Banquet Halls, Hyderabad, Telangana 500062, India",
    "VenueCode": "ARMH",
    "VenueName": "Asian Radhika Multiplex: ECIL"
  },
  "ARYH": {
    "AvailableFormats": "2D",
    "City": "Hyderabad",
    "Latitude": "17.3967",
    "Longitude": "78.5608",
    "RegionCode": "HYD",
    "State": "Telangana",
    "SubRegionCode": "HYD",
    "VenueAddress": "Raj Laxmi Theater, 2-1-40, Uppal Ring Road, Raj Nagar, Uppal, Near Indane Gas Service, Hyderabad, Telangana 500039, India",
    "VenueCode": "ARYH",
    "VenueName": "Asian Rajya Lakshmi: Uppal"
  },
  "ASHC": {
    "AvailableFormats": "2D",
    "City": "Pune",
    "Latitude": "18.6148",
    "Longitude": "73.8039",
    "RegionCode": "PUNE",
    "State": "Maharashtra",
    "SubRegionCode": "PUNE",
    "VenueAddress": "Shastri Nagar, Pimpri Colony, Pune, Maharashtra 411017, India",
    "VenueCode": "ASHC",
    "VenueName": "Ashok Theatre: Pimpri"
  },
  "ASMR": {
    "AvailableFormats": "2D",
    "City": "Miryalaguda",
    "Latitude": "16.8703",
    "Longitude": "79.5631",
    "RegionCode": "MRGD",
    "State": "Telangana",
    "SubRegionCode": "MRGD",
    "VenueAddress": "Islampura Road, Beside Madhusudhan Reddy Hospital, Miryalaguda, Telangana 508207, India",
    "VenueCode": "ASMR",
    "VenueName": "Asian Srinivasa Theater: Miryalaguda"
  },
  "ASSA": {
    "AvailableFormats": "2D",
    "City": "Mancherial",
    "Latitude": "18.8705",
    "Longitude": "79.4472",
    "RegionCode": "MANC",
    "State": "Telangana",
    "SubRegionCode": "MANC",
    "VenueAddress": "Station Road, Mancherial, Mancherial, Telangana 504302, India",
    "VenueCode": "ASSA",
    "VenueName": "Asian Srinivasa: Mancherial"
  },
  "ASTS": {
    "AvailableFormats": "2D",
    "City": "Davanagere",
    "Latitude": "14.4673",
    "Longitude": "75.9249",
    "RegionCode": "DAVA",
    "State": "Karnataka",
    "SubRegionCode": "DAVA",
    "VenueAddress": "SH 65, Ashoka Road, KB Extension, Near Railway Gate, Davanagere, Karnataka 577001, India",
    "VenueCode": "ASTS",
    "VenueName": "Ashoka Talkies: Davanagere"
  },
  "ATCK": {
    "AvailableFormats": "3D|2D",
    "City": "Kolkata",
    "Latitude": "22.7641",
    "Longitude": "88.3696",
    "RegionCode": "BARR",
    "State": "West Bengal",
    "SubRegionCode": "BARR",
    "VenueAddress": "91-73, Ghosh Para Road, North 24Pgs, Barrackpore, Near Barrackpore Railway Station, Kolkata, West Bengal 700120, India",
    "VenueCode": "ATCK",
    "VenueName": "Atindra Cinema: Barrackpore"
  },
  "ATKY": {
    "AvailableFormats": "",
    "City": "Kottayam",
    "FirstTracked": "2026-07-14",
    "Latitude": "9.589517",
    "Longitude": "76.51791",
    "RegionCode": "KTYM",
    "State": "Kerala",
    "SubRegionCode": "KTYM",
    "VenueAddress": "Palace Road, Thirunakara, Behind Bharath Hospital Puthenangady, Kottayam, Kerala 686001, India",
    "VenueCode": "ATKY",
    "VenueName": "Anaswara Theatre 2K Triple Beam 3D: Kottayam"
  },
  "ATTS": {
    "AvailableFormats": "2D",
    "City": "Hoshiarpur",
    "Latitude": "31.5552",
    "Longitude": "75.8694",
    "RegionCode": "TNDA",
    "State": "Punjab",
    "SubRegionCode": "TNDA",
    "VenueAddress": "Tanda Road, Bharat Petroleum, Hoshiarpur, Hoshiarpur, Punjab 146001, India",
    "VenueCode": "ATTS",
    "VenueName": "AG Star Cinemaz Hoshiarpur (Near Amber Palace)"
  },
  "AVCH": {
    "AvailableFormats": "2D",
    "City": "Khandwa",
    "Latitude": "21.8169",
    "Longitude": "76.3434",
    "RegionCode": "KHDW",
    "State": "Madhya Pradesh",
    "SubRegionCode": "KHDW",
    "VenueAddress": "Burhanpur - Pandhana Road, Plot No.106, Kunbi, East Nimar, Khandwa, Madhya Pradesh 450001, India",
    "VenueCode": "AVCH",
    "VenueName": "Abhishek Veer Cinemas: Khandwa"
  },
  "AWCT": {
    "AvailableFormats": "2D",
    "City": "Thodupuzha",
    "Latitude": "9.90285",
    "Longitude": "76.7153",
    "RegionCode": "THOD",
    "State": "Kerala",
    "SubRegionCode": "THOD",
    "VenueAddress": "Silver Hills, Mount Sinai Road, Near Mount Senai Hospital, Thodupuzha, Kerala 685584, India",
    "VenueCode": "AWCT",
    "VenueName": "Silver Hills Naxa Cinemas 4K Dolby ATMOS"
  },
  "AYOU": {
    "AvailableFormats": "2D",
    "City": "Pithampur",
    "Latitude": "22.6153",
    "Longitude": "75.6509",
    "RegionCode": "PITH",
    "State": "Madhya Pradesh",
    "SubRegionCode": "PITH",
    "VenueAddress": "S 24 Mall, Mhow Neemuch Road, Bardari Gram, Pithampur, Madhya Pradesh 454775, India",
    "VenueCode": "AYOU",
    "VenueName": "AYOU Cinemas: Pithampur"
  },
  "BARA": {
    "AvailableFormats": "2D",
    "City": "Kolkata",
    "Latitude": "22.5794",
    "Longitude": "88.4595",
    "RegionCode": "KOLK",
    "State": "West Bengal",
    "SubRegionCode": "KOLK",
    "VenueAddress": "4TH Floor, Axis Mall, 1C, 11, CF Block(Newtown), Action Area 1C, CF-9 New Town, Rajarhat, Near Novotel Kolkata Hotel And Residences, Kolkata, West Bengal 700156, India",
    "VenueCode": "BARA",
    "VenueName": "Bioscope: Axis Mall, Rajarhat"
  },
  "BBTC": {
    "AvailableFormats": "2D",
    "City": "Channapatna",
    "Latitude": "12.6456",
    "Longitude": "77.1945",
    "RegionCode": "CPTN",
    "State": "Karnataka",
    "SubRegionCode": "CPTN",
    "VenueAddress": "16th Cross, Mangalavara Pete Road, Near Big Bazar, Channapatna, Karnataka 562160, India",
    "VenueCode": "BBTC",
    "VenueName": "Sri Balaji Talkies: Channapatna"
  },
  "BCWG": {
    "AvailableFormats": "2D|3D",
    "City": "Ghaziabad",
    "Latitude": "28.6797",
    "Longitude": "77.3819",
    "RegionCode": "NCR",
    "State": "NCR",
    "SubRegionCode": "GHAZ",
    "VenueAddress": "Bhutani City Centre, Ghaziabad T-Point, Mohan Nagar, Near Air Force Station Hindon, Ghaziabad, NCR 201007, India",
    "VenueCode": "BCWG",
    "VenueName": "B18 Cinemas (Bhutani Cineplex) City Center GZB"
  },
  "BHAC": {
    "AvailableFormats": "2D",
    "City": "Bengaluru",
    "Latitude": "13.0415",
    "Longitude": "77.5175",
    "RegionCode": "HOKT",
    "State": "Karnataka",
    "SubRegionCode": "HOKT",
    "VenueAddress": "Prashanth Nagar, T. Dasarahalli, Dasara Halli Cross, Next To Rockline Mall, Bengaluru, Karnataka 560057, India",
    "VenueCode": "BHAC",
    "VenueName": "Bharathi Theatre (Peenya) A/C 4K 7.1 Dolby Digital"
  },
  "BIJH": {
    "AvailableFormats": "2D",
    "City": "Jhabua",
    "Latitude": "22.7609",
    "Longitude": "74.5879",
    "RegionCode": "JHAB",
    "State": "Madhya Pradesh",
    "SubRegionCode": "JHAB",
    "VenueAddress": "Infront of College Ground, Ranapur Road, Jhabua, Madhya Pradesh 457661, India",
    "VenueCode": "BIJH",
    "VenueName": "B4 Cinema: Jhabua"
  },
  "BJTS": {
    "AvailableFormats": "2D",
    "City": "Chikkaballapur",
    "Latitude": "13.4311",
    "Longitude": "77.7307",
    "RegionCode": "CHIK",
    "State": "Karnataka",
    "SubRegionCode": "CHIK",
    "VenueAddress": "B B Road, Near Chikkaballapur Road, Chikkaballapur, Karnataka 562101, India",
    "VenueCode": "BJTS",
    "VenueName": "Balaji Talkies: Chikkaballapura"
  },
  "BLJI": {
    "AvailableFormats": "2D",
    "City": "Vijayawada",
    "Latitude": "16.4726",
    "Longitude": "80.7163",
    "RegionCode": "KADU",
    "State": "Andhra Pradesh",
    "SubRegionCode": "KADU",
    "VenueAddress": "Bundar Road, Poranki, Near Priya Foods, Vijayawada, Andhra Pradesh 521137, India",
    "VenueCode": "BLJI",
    "VenueName": "Balaji Cine Villa: Vijayawada"
  },
  "BMRV": {
    "AvailableFormats": "2D",
    "City": "Veeraghattam",
    "Latitude": "18.6896",
    "Longitude": "83.6086",
    "RegionCode": "VEER",
    "State": "Andhra Pradesh",
    "SubRegionCode": "VEER",
    "VenueAddress": "Jiyyammavalasa Road, Down street, Veeraghattam, Andhra Pradesh 532460, India",
    "VenueCode": "BMRV",
    "VenueName": "BMR CINEMAX: Veeraghattam"
  },
  "BPKC": {
    "AvailableFormats": "",
    "City": "Bhopal",
    "FirstTracked": "2026-07-14",
    "Latitude": "23.144285",
    "Longitude": "77.497505",
    "RegionCode": "BHOP",
    "State": "Madhya Pradesh",
    "SubRegionCode": "BHOP",
    "VenueAddress": "2nd Floor, British Park Minimall,11th Mile, Hoshanagabad Road, Opposite IPER College, Bhopal, Madhya Pradesh 462026, India",
    "VenueCode": "BPKC",
    "VenueName": "British Park Cineplex: Bhopal"
  },
  "BSMP": {
    "AvailableFormats": "2D",
    "City": "Ambikapur",
    "Latitude": "23.1147",
    "Longitude": "83.198",
    "RegionCode": "AMBI",
    "State": "Chhattisgarh",
    "SubRegionCode": "AMBI",
    "VenueAddress": "Kharsia Road, Beside Hotel Grand Basant, NH 78, Ambikapur, Chhattisgarh 497001, India",
    "VenueCode": "BSMP",
    "VenueName": "Basant Multiplex: Ambikapur"
  },
  "BTDA": {
    "AvailableFormats": "2D",
    "City": "Acharapakkam",
    "Latitude": "12.4071",
    "Longitude": "79.8161",
    "RegionCode": "ACHA",
    "State": "Tamil Nadu",
    "SubRegionCode": "ACHA",
    "VenueAddress": "Periyar Nagar, Acharapakam, Near Abhiram Honda Showroom, Acharapakkam, Tamil Nadu 603301, India",
    "VenueCode": "BTDA",
    "VenueName": "Balaji Theatre A/C Dolby 7.1: Acharapakkam"
  },
  "BWCM": {
    "AvailableFormats": "2D",
    "City": "Georai",
    "Latitude": "19.2639",
    "Longitude": "75.7489",
    "RegionCode": "GEOR",
    "State": "Maharashtra",
    "SubRegionCode": "GEOR",
    "VenueAddress": "S No. 59, Shivaji Complex, Georai Main Road, Shastri Chowk Bus Stand Road, Dist-Beed, Georai, Maharashtra 431127, India",
    "VenueCode": "BWCM",
    "VenueName": "Bhagwati Chitra Mandir: Georai"
  },
  "CAIS": {
    "AvailableFormats": "2D",
    "City": "Kochi",
    "Latitude": "10.1068",
    "Longitude": "76.3631",
    "RegionCode": "PALY",
    "State": "Kerala",
    "SubRegionCode": "PALY",
    "VenueAddress": "Little Flower Ln, Periyar Nagar, Perumbavoor Aluva Road, Near Passport Office, Kochi, Kerala 683101, India",
    "VenueCode": "CAIS",
    "VenueName": "Casino Talkies A/C Real Laser 3D DOLBY 7.1: Aluva"
  },
  "CCAD": {
    "AvailableFormats": "2D",
    "City": "Anand",
    "Latitude": "22.5673",
    "Longitude": "72.9433",
    "RegionCode": "AND",
    "State": "Gujarat",
    "SubRegionCode": "AND",
    "VenueAddress": "Lambhvel Road, Purushottam Nagar, Anand, Gujarat 388001, India",
    "VenueCode": "CCAD",
    "VenueName": "Connplex Cinemas: Anand"
  },
  "CCDU": {
    "AvailableFormats": "",
    "City": "Dehradun",
    "FirstTracked": "2026-07-14",
    "Latitude": "30.32804",
    "Longitude": "78.04471",
    "RegionCode": "DEH",
    "State": "Uttarakhand",
    "SubRegionCode": "DEH",
    "VenueAddress": "19, Rajpur Road, Chukkuwala, Near State Bank Of India, Dehradun, Uttarakhand 248001, India",
    "VenueCode": "CCDU",
    "VenueName": "Chhayadeep Cinema: Dehradun"
  },
  "CCKP": {
    "AvailableFormats": "2D",
    "City": "Kalol (Panchmahal)",
    "Latitude": "22.6112",
    "Longitude": "73.4662",
    "RegionCode": "PANH",
    "State": "Gujarat",
    "SubRegionCode": "PANH",
    "VenueAddress": "Cinema City, GJ SH 87, Near Lal Darwaja, Jantral, Kalol (Panchmahal), Gujarat 389330, India",
    "VenueCode": "CCKP",
    "VenueName": "FUN Cinemas Cinema City Multiplex: Kalol"
  },
  "CCMP": {
    "AvailableFormats": "3D|2D",
    "City": "Navi Mumbai",
    "Latitude": "18.9991",
    "Longitude": "73.123",
    "RegionCode": "MUMBAI",
    "State": "Maharashtra",
    "SubRegionCode": "THAN",
    "VenueAddress": "Plot 1/3 Shubham Commercial Complex, Sector 11 New Panvel, Near Punjab National Bank Near Ganaraj Auto Service And Petrol Pump, Navi Mumbai, Maharashtra 410206, India",
    "VenueCode": "CCMP",
    "VenueName": "Miraj Cineraj Cinemas: Panvel"
  },
  "CCPN": {
    "AvailableFormats": "2D",
    "City": "Pathalgaon",
    "Latitude": "22.5576",
    "Longitude": "83.4644",
    "RegionCode": "PAHT",
    "State": "Chhattisgarh",
    "SubRegionCode": "PAHT",
    "VenueAddress": "C2 Cinemas, 3rd Floor HM Tower, Jashpur Road, Pathalgaon, Chhattisgarh 496118, India",
    "VenueCode": "CCPN",
    "VenueName": "C2 Cinema: Pathalgaon"
  },
  "CCSP": {
    "AvailableFormats": "",
    "City": "Patna",
    "Latitude": "25.6188",
    "Longitude": "85.0483",
    "RegionCode": "PATN",
    "State": "Bihar",
    "SubRegionCode": "PATN",
    "VenueAddress": "Bailey Road, Shri Krishna Puram, Opposite RPS More, Patna, Bihar 801503, India",
    "VenueCode": "CCSP",
    "VenueName": "Cinema Cafe Max Western Mall, Opp RPS More: Patna"
  },
  "CDOK": {
    "AvailableFormats": "2D",
    "City": "Jajpur Road",
    "Latitude": "20.9518",
    "Longitude": "86.1306",
    "RegionCode": "JAJP",
    "State": "Odisha",
    "SubRegionCode": "JAJP",
    "VenueAddress": "Utkal Centre Point Mall, Chorda Bypass Square, Byasanagar Main Road, Jajpur Road, Odisha 755019, India",
    "VenueCode": "CDOK",
    "VenueName": "Connplex Cinemas (Signature): Utkal Centre Point"
  },
  "CEPO": {
    "AvailableFormats": "2D",
    "City": "Pune",
    "Latitude": "18.518",
    "Longitude": "73.8561",
    "RegionCode": "PUNE",
    "State": "Maharashtra",
    "SubRegionCode": "PUNE",
    "VenueAddress": "Near Nana Wada, Chhatrapati Shivaji Maharaj Road, Budhwar Peth, Pune, Maharashtra 411002, India",
    "VenueCode": "CEPO",
    "VenueName": "CinePRO: Vasant Cinema, Pune"
  },
  "CGCB": {
    "AvailableFormats": "",
    "City": "Bathinda",
    "Latitude": "30.1649",
    "Longitude": "74.9233",
    "RegionCode": "BHAT",
    "State": "Punjab",
    "SubRegionCode": "BHAT",
    "VenueAddress": "3rd Floor, Green city square, Near AIIMS hospital, Dabwali Road, Bathinda, Punjab 151001, India",
    "VenueCode": "CGCB",
    "VenueName": "Cinepolis: Green City Square, Bathinda"
  },
  "CGOS": {
    "AvailableFormats": "2D",
    "City": "Ahmedabad",
    "Latitude": "23.0157",
    "Longitude": "72.5294",
    "RegionCode": "AHD",
    "State": "Gujarat",
    "SubRegionCode": "AHD",
    "VenueAddress": "Near Shyamal, Cross Road, 132 Feet Ring Road, Ahmedabad, Gujarat 380015, India",
    "VenueCode": "CGOS",
    "VenueName": "City Gold Satellite: Ahmedabad"
  },
  "CHKM": {
    "AvailableFormats": "2D",
    "City": "Kadalundi",
    "Latitude": "11.1549",
    "Longitude": "75.8473",
    "RegionCode": "KOZH",
    "State": "Kerala",
    "SubRegionCode": "KOZH",
    "VenueAddress": "8/567, Mannur Valavu, Mannur Valavu, Kadalundi, Kadalundi, Kerala 673328, India",
    "VenueCode": "CHKM",
    "VenueName": "Chithra Cineplex 4K RGB Laser dtsX: Mannur Valavu"
  },
  "CIBA": {
    "AvailableFormats": "2D",
    "City": "Korba",
    "Latitude": "22.3513",
    "Longitude": "82.6993",
    "RegionCode": "KRBA",
    "State": "Chhattisgarh",
    "SubRegionCode": "KRBA",
    "VenueAddress": "City Center Mall, B-10, Purani Basti, Power House Road, Korba, Chhattisgarh 495678, India",
    "VenueCode": "CIBA",
    "VenueName": "Cinemood Multiplex (Dolby Atmos Sound): Korba"
  },
  "CIMN": {
    "AvailableFormats": "",
    "City": "Greater Noida",
    "FirstTracked": "2026-07-14",
    "Latitude": "28.457985",
    "Longitude": "77.52814",
    "RegionCode": "NCR",
    "State": "NCR",
    "SubRegionCode": "GRET",
    "VenueAddress": "MSX Mall, Sector Swarn Nagri, Plot No. K-4, 4th Avenue, Sector 18 Block F, Industrial Area, Greater Noida, NCR 201310, India",
    "VenueCode": "CIMN",
    "VenueName": "Cineport Cinemas: MSX Mall, Greater Noida"
  },
  "CKMC": {
    "AvailableFormats": "2D",
    "City": "Palakkad",
    "Latitude": "10.7566",
    "Longitude": "76.5009",
    "RegionCode": "PLKK",
    "State": "Kerala",
    "SubRegionCode": "PLKK",
    "VenueAddress": "Kuzhalmannam mankara Road, Pilappulli, Peringottukurissi, Near Peringottukurissi Service Cooperative Bank, Palakkad, Kerala 678573, India",
    "VenueCode": "CKMC",
    "VenueName": "CKM Victory Cinemas: Peringottukurissi"
  },
  "CLDR": {
    "AvailableFormats": "2D",
    "City": "Ramanathapuram",
    "Latitude": "9.35868",
    "Longitude": "78.8433",
    "RegionCode": "RAPU",
    "State": "Tamil Nadu",
    "SubRegionCode": "RAPU",
    "VenueAddress": "9R5V+F8C, Mandapam Road, Kadampa Nagar, Ramanathapuram, Tamil Nadu 623501, India",
    "VenueCode": "CLDR",
    "VenueName": "The Cine Lounge Dolby 7.1: GSM Mall Ramanathapuram"
  },
  "CLSB": {
    "AvailableFormats": "2D",
    "City": "Siwan",
    "Latitude": "26.2307",
    "Longitude": "84.3694",
    "RegionCode": "SWNB",
    "State": "Bihar",
    "SubRegionCode": "SWNB",
    "VenueAddress": "Chandrika Tower, Gaushala Road, Pakdi Bus Stand, Siwan, Bihar 841226, India",
    "VenueCode": "CLSB",
    "VenueName": "Connplex Cinemas (Luxuriance): Siwan"
  },
  "CMCT": {
    "AvailableFormats": "2D",
    "City": "Thamarassery",
    "Latitude": "11.4148",
    "Longitude": "75.9358",
    "RegionCode": "KOZH",
    "State": "Kerala",
    "SubRegionCode": "KOZH",
    "VenueAddress": "City Mall, Thamarassery, Kerala, Thamarassery, Kerala 673573, India",
    "VenueCode": "CMCT",
    "VenueName": "City Mall Cinemas: Thamarassery"
  },
  "CMMH": {
    "AvailableFormats": "2D",
    "City": "Bhandara",
    "Latitude": "21.0849",
    "Longitude": "79.782",
    "RegionCode": "BHAA",
    "State": "Maharashtra",
    "SubRegionCode": "BHAA",
    "VenueAddress": "Lakhani, Gadegaon, Opposite - Ashok Leyland, Bhandara, Maharashtra 441804, India",
    "VenueCode": "CMMH",
    "VenueName": "Chhotu Maharaj Cine Cafe: Lakhani"
  },
  "CMSA": {
    "AvailableFormats": "2D",
    "City": "Shrigonda",
    "Latitude": "18.6277",
    "Longitude": "74.6887",
    "RegionCode": "SHRI",
    "State": "Maharashtra",
    "SubRegionCode": "SHRI",
    "VenueAddress": "Pargaon, Ahmednagar Road, Shrigonda, Maharashtra 413701, India",
    "VenueCode": "CMSA",
    "VenueName": "Chhotu Maharaj Cine Cafe: Shrigonda"
  },
  "CMVB": {
    "AvailableFormats": "2D",
    "City": "Vikarabad",
    "Latitude": "17.3464",
    "Longitude": "77.9056",
    "RegionCode": "VKBD",
    "State": "Telangana",
    "SubRegionCode": "VKBD",
    "VenueAddress": "Vikarabad - Mominpet Road, Alampally, Near Petrol Pump, Opposite Fathe Garden Function Hall, Vikarabad, Telangana 501101, India",
    "VenueCode": "CMVB",
    "VenueName": "Cinemax: Vikarabad"
  },
  "CNAD": {
    "AvailableFormats": "",
    "City": "Ahmedabad",
    "FirstTracked": "2026-07-14",
    "Latitude": "23.163",
    "Longitude": "72.5399",
    "RegionCode": "AHD",
    "State": "Gujarat",
    "SubRegionCode": "AHD",
    "VenueAddress": "306-308, Center Point, Adani Shantigram Township, Khodiyar, Ahmedabad, Gujarat 382501, India",
    "VenueCode": "CNAD",
    "VenueName": "Connplex Cinemas (Luxuriance): Adani Shantigram"
  },
  "CNFX": {
    "AvailableFormats": "2D",
    "City": "Datia",
    "Latitude": "25.6653",
    "Longitude": "78.4609",
    "RegionCode": "DATI",
    "State": "Madhya Pradesh",
    "SubRegionCode": "DATI",
    "VenueAddress": "National Highway 44 Jhansi road, First floor Ratan mega mall, Near District and sessions court, Datia, Madhya Pradesh 475661, India",
    "VenueCode": "CNFX",
    "VenueName": "Cineflix Cinemas: Datia"
  },
  "CNPS": {
    "AvailableFormats": "3D|2D",
    "City": "Bilaspur",
    "Latitude": "22.071",
    "Longitude": "82.1504",
    "RegionCode": "BILA",
    "State": "Chhattisgarh",
    "SubRegionCode": "BILA",
    "VenueAddress": "4th Floor, Shri Krishna Central Mall, Vinoba Nagar, Bilaspur, Chhattisgarh 495001, India",
    "VenueCode": "CNPS",
    "VenueName": "Connplex Cinemas (Signature) : Bilaspur"
  },
  "CNVG": {
    "AvailableFormats": "2D",
    "City": "Gurugram (Gurgaon)",
    "Latitude": "28.4157",
    "Longitude": "77.1027",
    "RegionCode": "NCR",
    "State": "NCR",
    "SubRegionCode": "GURG",
    "VenueAddress": "Ireo Grand View High Street, Golf Course Extension Road, Sector 58, Gurugram (Gurgaon), NCR 122102, India",
    "VenueCode": "CNVG",
    "VenueName": "Cinepolis: Grand View High Street, Gurugram"
  },
  "CONX": {
    "AvailableFormats": "2D",
    "City": "Bettiah",
    "Latitude": "26.809",
    "Longitude": "84.516",
    "RegionCode": "BETA",
    "State": "Bihar",
    "SubRegionCode": "BETA",
    "VenueAddress": "Kishore Kunj, Sant Kabir Road, Banuchapara, West Champaran, Bettiah, Bihar 845438, India",
    "VenueCode": "CONX",
    "VenueName": "Connplex Cinemas (Signature): Bettiah"
  },
  "CPCK": {
    "AvailableFormats": "2D|IMAX 2D",
    "City": "Kochi",
    "Latitude": "9.97799",
    "Longitude": "76.2833",
    "RegionCode": "KOCH",
    "State": "Kerala",
    "SubRegionCode": "KOCH",
    "VenueAddress": "6th floor, M.G.Rroad, Ernakulam, Near Abad Plaza Hotel, Kochi, Kerala 682035, India",
    "VenueCode": "CPCK",
    "VenueName": "Cinepolis: Centre Square, Kochi"
  },
  "CPGV": {
    "AvailableFormats": "3D|2D",
    "City": "Greater Noida",
    "Latitude": "28.4529",
    "Longitude": "77.526",
    "RegionCode": "NCR",
    "State": "NCR",
    "SubRegionCode": "GRET",
    "VenueAddress": "Plot No SH 3, Site IV, Greater Noida, Near Pari Chowk, Greater Noida, NCR 201308, India",
    "VenueCode": "CPGV",
    "VenueName": "Cinepolis: Grand Venice Mall, Greater Noida"
  },
  "CPKT": {
    "AvailableFormats": "3D|2D",
    "City": "Pune",
    "Latitude": "18.4997",
    "Longitude": "73.821",
    "RegionCode": "PUNE",
    "State": "Maharashtra",
    "SubRegionCode": "PUNE",
    "VenueAddress": "Survey No.20/1,2, Kothrud, Near Tara Residency, Pune, Maharashtra 411038, India",
    "VenueCode": "CPKT",
    "VenueName": "City Pride: Kothrud"
  },
  "CPMX": {
    "AvailableFormats": "",
    "City": "Jasdan",
    "FirstTracked": "2026-07-14",
    "Latitude": "22.024336",
    "Longitude": "71.17932",
    "RegionCode": "JASD",
    "State": "Gujarat",
    "SubRegionCode": "JASD",
    "VenueAddress": "Ring Road, Atkot Road, Aanand Nagar, Jasdan, Gujarat 360050, India",
    "VenueCode": "CPMX",
    "VenueName": "City Pride Multiplex: Jasdan"
  },
  "CPRP": {
    "AvailableFormats": "2D|3D",
    "City": "Pune",
    "Latitude": "18.5933",
    "Longitude": "73.7864",
    "RegionCode": "PUNE",
    "State": "Maharashtra",
    "SubRegionCode": "PUNE",
    "VenueAddress": "Spot-18 Mall, 3rd Floor, Rahatani Rd, Pimpri Chinchwad, Pune, Maharashtra 411017, India",
    "VenueCode": "CPRP",
    "VenueName": "City Pride Royal Cinemas: Rahatani"
  },
  "CPUS": {
    "AvailableFormats": "2D",
    "City": "Surat",
    "Latitude": "21.1361",
    "Longitude": "72.7521",
    "RegionCode": "SURT",
    "State": "Gujarat",
    "SubRegionCode": "SURT",
    "VenueAddress": "Dumas Road, Opposite L and T Colony, Near Magdalla Circle, Surat, Gujarat 395007, India",
    "VenueCode": "CPUS",
    "VenueName": "City Plus Multiplex: Surat"
  },
  "CRJG": {
    "AvailableFormats": "2D",
    "City": "Jayamkondacholapuram",
    "Latitude": "11.2143",
    "Longitude": "79.3613",
    "RegionCode": "JYAM",
    "State": "Tamil Nadu",
    "SubRegionCode": "JYAM",
    "VenueAddress": "National Highway 227, Jayakondam, Near JK Plaza, Jayamkondacholapuram, Tamil Nadu 621802, India",
    "VenueCode": "CRJG",
    "VenueName": "CR Palace Theatre A/C 4K HD Dolby Digital 7.1"
  },
  "CSCV": {
    "AvailableFormats": "2D|3D",
    "City": "Vizag (Visakhapatnam)",
    "Latitude": "17.8083",
    "Longitude": "83.3751",
    "RegionCode": "VIZA",
    "State": "Andhra Pradesh",
    "SubRegionCode": "VIZA",
    "VenueAddress": "100 Feet Road, Madhurawada, Vizag (Visakhapatnam), Andhra Pradesh 530048, India",
    "VenueCode": "CSCV",
    "VenueName": "Cinepolis: Sreekanya Cineglitz, Madhurawada"
  },
  "CSSA": {
    "AvailableFormats": "2D|3D",
    "City": "Ahilyanagar (Ahmednagar)",
    "Latitude": "19.1192",
    "Longitude": "74.7289",
    "RegionCode": "AHMED",
    "State": "Maharashtra",
    "SubRegionCode": "AHMED",
    "VenueAddress": "3rd Floor, Kohinoor Mall, Premdan Chowk, Opposite Big Bazar, Ahilyanagar (Ahmednagar), Maharashtra 414003, India",
    "VenueCode": "CSSA",
    "VenueName": "Connplex Cinemas: Ahilyanagar"
  },
  "CSTR": {
    "AvailableFormats": "2D",
    "City": "Rajkot",
    "Latitude": "22.276",
    "Longitude": "70.7415",
    "RegionCode": "RAJK",
    "State": "Gujarat",
    "SubRegionCode": "RAJK",
    "VenueAddress": "2nd Ring Road, Serenity Garden Road, Near Valupani restaurant, Rajkot, Gujarat 360004, India",
    "VenueCode": "CSTR",
    "VenueName": "Connplex Cinemas: Rajkot"
  },
  "CTLC": {
    "AvailableFormats": "2D",
    "City": "Chapra",
    "Latitude": "25.7875",
    "Longitude": "84.7145",
    "RegionCode": "CHPR",
    "State": "Bihar",
    "SubRegionCode": "CHPR",
    "VenueAddress": "Ware House Colony, Main Road, Near Gudri Chowk, Chapra, Bihar 841301, India",
    "VenueCode": "CTLC",
    "VenueName": "Cinemaoo The Luxury: Chapra"
  },
  "CTNR": {
    "AvailableFormats": "",
    "City": "Hyderabad",
    "Latitude": "17.503",
    "Longitude": "78.4773",
    "RegionCode": "HYD",
    "State": "Telangana",
    "SubRegionCode": "HYD",
    "VenueAddress": "Cinepolis TNR North City, SY No 85 and 89, NH-44, 7, Suchitra Road, NH-44, 7, Suchitra Road, Hyderabad, Telangana 500055, India",
    "VenueCode": "CTNR",
    "VenueName": "Cinepolis: TNR North City, Suchitra, Hyderabad"
  },
  "CUDN": {
    "AvailableFormats": "",
    "City": "Nagpur",
    "FirstTracked": "2026-07-14",
    "Latitude": "20.8422",
    "Longitude": "79.3181",
    "RegionCode": "NAGP",
    "State": "Maharashtra",
    "SubRegionCode": "NAGP",
    "VenueAddress": "Plot No. 1, 2, and 3, Giradkar Layout, Bypass Road, Nagpur, Maharashtra 441203, India",
    "VenueCode": "CUDN",
    "VenueName": "Chhotu Maharaj: Umred, Nagpur"
  },
  "CVMU": {
    "AvailableFormats": "",
    "City": "Hyderabad",
    "FirstTracked": "2026-07-14",
    "Latitude": "17.402",
    "Longitude": "78.5719",
    "RegionCode": "HYD",
    "State": "Telangana",
    "SubRegionCode": "HYD",
    "VenueAddress": "Main Road, IBP Petrol Bunk, Shanthi Nagar, Medchal Malkajgiri, Hyderabad, Telangana 500039, India",
    "VenueCode": "CVMU",
    "VenueName": "Cineverse Multiplex: Uppal"
  },
  "CXJD": {
    "AvailableFormats": "2D",
    "City": "Patna",
    "Latitude": "25.6106",
    "Longitude": "85.1404",
    "RegionCode": "PATN",
    "State": "Bihar",
    "SubRegionCode": "PATN",
    "VenueAddress": "4th Floor, J.D. Mall, S.P. Verma Road, Patna, Bihar 800001, India",
    "VenueCode": "CXJD",
    "VenueName": "Connplex Cinemas: S P Verma Road (JD Mall), Patna"
  },
  "CZVX": {
    "AvailableFormats": "2D",
    "City": "Barshi",
    "Latitude": "18.2404",
    "Longitude": "75.6974",
    "RegionCode": "BRHI",
    "State": "Maharashtra",
    "SubRegionCode": "BRHI",
    "VenueAddress": "Chatrapati Cinema Hall, Chatrapati Bhavan, Latur Road, Barshi, Maharashtra 413401, India",
    "VenueCode": "CZVX",
    "VenueName": "Chatrapati Cinema: Barshi"
  },
  "DCAK": {
    "AvailableFormats": "2D",
    "City": "Kodungallur",
    "Latitude": "10.2315",
    "Longitude": "76.1974",
    "RegionCode": "KODU",
    "State": "Kerala",
    "SubRegionCode": "KODU",
    "VenueAddress": "Kalpaka Road, Star Nagar, Kodungallur, Kerala 680668, India",
    "VenueCode": "DCAK",
    "VenueName": "D CINEMAA: MUGHAL MALL BARCO 4K LASER, KODUNGALLUR"
  },
  "DCJN": {
    "AvailableFormats": "2D",
    "City": "Jhunjhunu",
    "Latitude": "28.128",
    "Longitude": "75.4101",
    "RegionCode": "JHUN",
    "State": "Rajasthan",
    "SubRegionCode": "JHUN",
    "VenueAddress": "2nd Floor, 109, MG Mall, Tall Road, Near Khemi Sati Bus Stand, Jhunjhunu, Rajasthan 333001, India",
    "VenueCode": "DCJN",
    "VenueName": "Dhishoom Cinemas: Jhunjhunu"
  },
  "DCSP": {
    "AvailableFormats": "2D",
    "City": "Perumpuzha",
    "Latitude": "8.942322",
    "Longitude": "76.679475",
    "RegionCode": "PERU",
    "State": "Kerala",
    "SubRegionCode": "PERU",
    "VenueAddress": "Kundara Road, Perumpuzha, Perumpuzha, Kerala 691504, India",
    "VenueCode": "DCSP",
    "VenueName": "Devi Cinemas 4K Dolby Atmos: Perumpuzha Kundara"
  },
  "DECX": {
    "AvailableFormats": "",
    "City": "Jhajha",
    "FirstTracked": "2026-07-14",
    "Latitude": "24.77292",
    "Longitude": "86.38615",
    "RegionCode": "JHAA",
    "State": "Bihar",
    "SubRegionCode": "JHAA",
    "VenueAddress": "Purani Bazar, Jamui, Near Gandhi Chowk, Jhajha, Bihar 811308, India",
    "VenueCode": "DECX",
    "VenueName": "90 Degree Cineplex: Jhajha"
  },
  "DFRM": {
    "AvailableFormats": "",
    "City": "Ramnagar",
    "FirstTracked": "2026-07-14",
    "Latitude": "29.40073",
    "Longitude": "79.12714",
    "RegionCode": "RAMN",
    "State": "Uttarakhand",
    "SubRegionCode": "RAMN",
    "VenueAddress": "Radheysham Arcade, Lakhanpur, Tera Road, Ramnagar, Uttarakhand 244715, India",
    "VenueCode": "DFRM",
    "VenueName": "DFine Cinemas: Ramnagar"
  },
  "DIMY": {
    "AvailableFormats": "2D",
    "City": "Yamunanagar",
    "Latitude": "30.1525",
    "Longitude": "77.3092",
    "RegionCode": "YAMU",
    "State": "Haryana",
    "SubRegionCode": "YAMU",
    "VenueAddress": "NH73A, Basant Nagar, Yamunanagar, Haryana 135004, India",
    "VenueCode": "DIMY",
    "VenueName": "Dimple Cineplex: Yamuna Nagar"
  },
  "DLPB": {
    "AvailableFormats": "2D",
    "City": "Barpeta Road",
    "Latitude": "26.4894",
    "Longitude": "90.9684",
    "RegionCode": "BRPD",
    "State": "Assam",
    "SubRegionCode": "BRPD",
    "VenueAddress": "Ward No. 9, Barpeta Road Post Office, Barpeta Road, Barpeta Road, Assam 781315, India",
    "VenueCode": "DLPB",
    "VenueName": "Dilip Cinema: Barpeta Road"
  },
  "DNCY": {
    "AvailableFormats": "2D",
    "City": "Changanassery",
    "Latitude": "9.44182",
    "Longitude": "76.5444",
    "RegionCode": "CNSY",
    "State": "Kerala",
    "SubRegionCode": "CNSY",
    "VenueAddress": "Dhanya Complex, Main Central Road, Perunna, Near NSS College, Changanassery, Kerala 686101, India",
    "VenueCode": "DNCY",
    "VenueName": "Dhanya Remya: Changanassery"
  },
  "DRCD": {
    "AvailableFormats": "2D",
    "City": "Itanagar",
    "Latitude": "27.0874",
    "Longitude": "93.6113",
    "RegionCode": "ITNG",
    "State": "Arunachal Pradesh",
    "SubRegionCode": "ITNG",
    "VenueAddress": "Ganga Market, Highway No 415, Itanagar, Arunachal Pradesh 791113, India",
    "VenueCode": "DRCD",
    "VenueName": "Drodel Cineworld, Akashdeep: Itanagar"
  },
  "DSTA": {
    "AvailableFormats": "2D",
    "City": "Trivandrum",
    "Latitude": "8.68464",
    "Longitude": "76.8232",
    "RegionCode": "VKAL",
    "State": "Kerala",
    "SubRegionCode": "VKAL",
    "VenueAddress": "Kanyakumari Highway, Panvel Kochi, Near Reliance trends, Trivandrum, Kerala 695103, India",
    "VenueCode": "DSTA",
    "VenueName": "Dreams: Attingal"
  },
  "DTYN": {
    "AvailableFormats": "2D|3D|4DX|IMAX 2D",
    "City": "Noida",
    "Latitude": "28.5673",
    "Longitude": "77.3207",
    "RegionCode": "NCR",
    "State": "NCR",
    "SubRegionCode": "NOIDA",
    "VenueAddress": "DLF Mall of India, 4th floor, C-502, Plot No.3, M-Block, Sector - 18, Noida, NCR 201301, India",
    "VenueCode": "DTYN",
    "VenueName": "PVR: Superplex Mall Of India, Noida"
  },
  "DXEC": {
    "AvailableFormats": "",
    "City": "Ottapalam",
    "FirstTracked": "2026-07-14",
    "Latitude": "10.7413",
    "Longitude": "76.3901",
    "RegionCode": "THSR",
    "State": "Kerala",
    "SubRegionCode": "THSR",
    "VenueAddress": "Chelakkara, Kondazhi Mayannur Road, Ottapalam, Kerala 679105, India",
    "VenueCode": "DXEC",
    "VenueName": "Dreamax E Cinemas: Mayannur"
  },
  "ECPP": {
    "AvailableFormats": "2D|3D",
    "City": "Pune",
    "Latitude": "18.6285",
    "Longitude": "73.7841",
    "RegionCode": "PUNE",
    "State": "Maharashtra",
    "SubRegionCode": "PUNE",
    "VenueAddress": "2nd Floor, Elpro City Square Mall, Pimpri Chinchwad Link Road, Pune, Maharashtra 411033, India",
    "VenueCode": "ECPP",
    "VenueName": "INOX: Elpro City Square, Chinchwad"
  },
  "EKCM": {
    "AvailableFormats": "2D",
    "City": "Kusumgram",
    "Latitude": "23.3893",
    "Longitude": "88.1318",
    "RegionCode": "KKKL",
    "State": "West Bengal",
    "SubRegionCode": "KKKL",
    "VenueAddress": "SH 8, Kusumgram, Belgram Bolgona Kalna Road, Opposite Bandhan Bank, Kusumgram, West Bengal 713422, India",
    "VenueCode": "EKCM",
    "VenueName": "Ekta Manch: Kusumgram"
  },
  "EMPN": {
    "AvailableFormats": "",
    "City": "Pulgaon",
    "FirstTracked": "2026-07-14",
    "Latitude": "20.725908",
    "Longitude": "78.31447",
    "RegionCode": "PUON",
    "State": "Maharashtra",
    "SubRegionCode": "PUON",
    "VenueAddress": "Empress Mall, Gandhi Nagar, Pulgaon Road, Near Pulgaon Railway Station, Pulgaon, Maharashtra 442303, India",
    "VenueCode": "EMPN",
    "VenueName": "Empress Cinema: Pulgaon"
  },
  "ESBD": {
    "AvailableFormats": "2D",
    "City": "Beed",
    "Latitude": "18.9946",
    "Longitude": "75.7533",
    "RegionCode": "BEED",
    "State": "Maharashtra",
    "SubRegionCode": "BEED",
    "VenueAddress": "Shahu Nagar, Pangri Road, Near Bus Stand, Beed, Maharashtra 431122, India",
    "VenueCode": "ESBD",
    "VenueName": "Santoshimata: Beed"
  },
  "ESVP": {
    "AvailableFormats": "2D",
    "City": "Pune",
    "Latitude": "18.511",
    "Longitude": "73.8801",
    "RegionCode": "PUNE",
    "State": "Maharashtra",
    "SubRegionCode": "PUNE",
    "VenueAddress": "2429, Gen Thimayya Road, Camp, opposite Kayani Bakery, Pune, Maharashtra 411001, India",
    "VenueCode": "ESVP",
    "VenueName": "Victory Theatre: Camp, Pune"
  },
  "EVMP": {
    "AvailableFormats": "2D",
    "City": "Kochi",
    "Latitude": "10.1113",
    "Longitude": "76.4742",
    "RegionCode": "KOCH",
    "State": "Kerala",
    "SubRegionCode": "KOCH",
    "VenueAddress": "old kaala vayal, Perumbavoor, Kochi, Kerala 683542, India",
    "VenueCode": "EVMP",
    "VenueName": "EVM Cinema A/C 4K RGB Laser 3D: Perumbavoor"
  },
  "FCHP": {
    "AvailableFormats": "",
    "City": "Kolkata",
    "FirstTracked": "2026-07-14",
    "Latitude": "22.483189",
    "Longitude": "88.39094",
    "RegionCode": "KOLK",
    "State": "West Bengal",
    "SubRegionCode": "KOLK",
    "VenueAddress": "Metropolis Mall Hiland Park, Eastern Metropolitan Bypass Chakgaria, Opp Peerless Hospital, Kolkata, West Bengal 700020, India",
    "VenueCode": "FCHP",
    "VenueName": "INOX: Hiland Park"
  },
  "FCTB": {
    "AvailableFormats": "",
    "City": "Talwandi Bhai",
    "FirstTracked": "2026-07-14",
    "Latitude": "30.859259",
    "Longitude": "74.92114",
    "RegionCode": "TALW",
    "State": "Punjab",
    "SubRegionCode": "TALW",
    "VenueAddress": "Karmitti Road, Dist. Ferozepur, Talwandi Bhai, Punjab 142050, India",
    "VenueCode": "FCTB",
    "VenueName": "Fun Cineplex: Talwandi Bhai"
  },
  "FMFB": {
    "AvailableFormats": "2D",
    "City": "Bengaluru",
    "Latitude": "12.9608",
    "Longitude": "77.7481",
    "RegionCode": "BANG",
    "State": "Karnataka",
    "SubRegionCode": "BANG",
    "VenueAddress": "No.62, 2nd Floor, Nexus, Whitefield Main Road, Whitefield, Near Citi Bank ATM, Bengaluru, Karnataka 560066, India",
    "VenueCode": "FMFB",
    "VenueName": "INOX: Nexus, Whitefield"
  },
  "FMVS": {
    "AvailableFormats": "",
    "City": "Navi Mumbai",
    "FirstTracked": "2026-07-14",
    "Latitude": "19.06411",
    "Longitude": "72.99694",
    "RegionCode": "MUMBAI",
    "State": "Maharashtra",
    "SubRegionCode": "THAN",
    "VenueAddress": "3rd Floor, Raghuleela Mall, Sector 30, Vashi, Opposite Vashi Railway Station, Navi Mumbai, Maharashtra 400703, India",
    "VenueCode": "FMVS",
    "VenueName": "INOX: Raghuleela Mall, Vashi"
  },
  "FNCO": {
    "AvailableFormats": "2D",
    "City": "Coimbatore",
    "Latitude": "11.0247",
    "Longitude": "77.0104",
    "RegionCode": "COIM",
    "State": "Tamil Nadu",
    "SubRegionCode": "COIM",
    "VenueAddress": "Peelamedu, Avinashi Road, Peelamedu, Near PSGR Krishnammal College, Coimbatore, Tamil Nadu 641004, India",
    "VenueCode": "FNCO",
    "VenueName": "Cinepolis: Fun Republic Mall, Coimbatore"
  },
  "FNSD": {
    "AvailableFormats": "2D|3D",
    "City": "Delhi",
    "Latitude": "28.6574",
    "Longitude": "77.3023",
    "RegionCode": "NCR",
    "State": "NCR",
    "SubRegionCode": "DELHI",
    "VenueAddress": "Cross River Mall, Central Business,Shahdara, Near Karkardooma Court, Delhi, NCR 110032, India",
    "VenueCode": "FNSD",
    "VenueName": "Cinepolis: Cross River Mall, Shahdara"
  },
  "FSCK": {
    "AvailableFormats": "2D|IMAX 2D|3D",
    "City": "Kolkata",
    "Latitude": "22.5014",
    "Longitude": "88.3616",
    "RegionCode": "KOLK",
    "State": "West Bengal",
    "SubRegionCode": "KOLK",
    "VenueAddress": "375, South City Mall, Prince Anwar Shah Road, Opposite Central Bank of India, Kolkata, West Bengal 700068, India",
    "VenueCode": "FSCK",
    "VenueName": "INOX: South City, Kolkata"
  },
  "G3SR": {
    "AvailableFormats": "2D|3D",
    "City": "Delhi",
    "Latitude": "28.7351",
    "Longitude": "77.1135",
    "RegionCode": "NCR",
    "State": "NCR",
    "SubRegionCode": "DELHI",
    "VenueAddress": "Level 2, Sector-11, Rohini, Inside Garg Trade, Delhi, NCR 110085, India",
    "VenueCode": "G3SR",
    "VenueName": "G3S Cinema: Rohini (Newly Renovated)"
  },
  "GAPR": {
    "AvailableFormats": "",
    "City": "Ongole",
    "FirstTracked": "2026-07-14",
    "Latitude": "15.51993",
    "Longitude": "80.04735",
    "RegionCode": "ADKI",
    "State": "Andhra Pradesh",
    "SubRegionCode": "ADKI",
    "VenueAddress": "Guntur Road, Gopal Nagar, Ongole, Andhra Pradesh 523001, India",
    "VenueCode": "GAPR",
    "VenueName": "G2V Theaters, Ravi Priya Mall: Ongole"
  },
  "GBTG": {
    "AvailableFormats": "2D",
    "City": "Gudivada",
    "Latitude": "16.4305",
    "Longitude": "80.9914",
    "RegionCode": "GUDI",
    "State": "Andhra Pradesh",
    "SubRegionCode": "GUDI",
    "VenueAddress": "Satyanarayana Puram, Pillalamari Street, Gudivada, Andhra Pradesh 521301, India",
    "VenueCode": "GBTG",
    "VenueName": "G3 Bhaskar Talkies: Gudivada"
  },
  "GCDC": {
    "AvailableFormats": "",
    "City": "Dabra",
    "FirstTracked": "2026-07-14",
    "Latitude": "25.886345",
    "Longitude": "78.33501",
    "RegionCode": "DABR",
    "State": "Madhya Pradesh",
    "SubRegionCode": "DABR",
    "VenueAddress": "Geeta Talkies Road, Near Shree Krishna Dairy, Subhash Ganj, Darshan Colony, Dabra, Madhya Pradesh 475110, India",
    "VenueCode": "GCDC",
    "VenueName": "Geeta Cineplex: Dabra"
  },
  "GCGD": {
    "AvailableFormats": "",
    "City": "Gwalior",
    "FirstTracked": "2026-07-14",
    "Latitude": "26.205128",
    "Longitude": "78.18938",
    "RegionCode": "GWAL",
    "State": "Madhya Pradesh",
    "SubRegionCode": "GWAL",
    "VenueAddress": "Plot no. 1, City Centre, Madhavrao Scindia Marg, Near HDFC Bank and Cafe Coffee Day City Center, Tulsi Vihar Colony, Gwalior, Madhya Pradesh 474011, India",
    "VenueCode": "GCGD",
    "VenueName": "Gold Cinema: Gwalior"
  },
  "GCMG": {
    "AvailableFormats": "2D",
    "City": "Mumbai",
    "Latitude": "19.1917",
    "Longitude": "72.8204",
    "RegionCode": "MUMBAI",
    "State": "Maharashtra",
    "SubRegionCode": "MWEST",
    "VenueAddress": "Savera Heights, Gate No.5, Bank of India Building, Abdul Hamid Marg, Malvani Road, Opposite Malvani Police Station, Mumbai, Maharashtra 400095, India",
    "VenueCode": "GCMG",
    "VenueName": "Gold Cinema: Malad Malvani"
  },
  "GCSD": {
    "AvailableFormats": "2D",
    "City": "Sardulgarh",
    "Latitude": "29.721",
    "Longitude": "75.2455",
    "RegionCode": "SARD",
    "State": "Punjab",
    "SubRegionCode": "SARD",
    "VenueAddress": "Rori Road, Near Bus Stand, Sardulewala, Sardulgarh, Punjab 125201, India",
    "VenueCode": "GCSD",
    "VenueName": "Golden Cinemas: Sardulgarh"
  },
  "GDAN": {
    "AvailableFormats": "2D|3D",
    "City": "Anand",
    "Latitude": "22.5523",
    "Longitude": "72.9399",
    "RegionCode": "PETL",
    "State": "Gujarat",
    "SubRegionCode": "PETL",
    "VenueAddress": "Block A, 3rd Floor, Opp. Dena Parivar, Anand Vidya Nagar Road, Near Giny and Jony, Anand, Gujarat 388001, India",
    "VenueCode": "GDAN",
    "VenueName": "Gold Cinema: Anand"
  },
  "GDCU": {
    "AvailableFormats": "",
    "City": "Una",
    "FirstTracked": "2026-07-14",
    "Latitude": "31.433987",
    "Longitude": "76.32296",
    "RegionCode": "BEEL",
    "State": "Himachal Pradesh",
    "SubRegionCode": "BEEL",
    "VenueAddress": "8 Miles Stone, Behdala, Una, Himachal Pradesh 174306, India",
    "VenueCode": "GDCU",
    "VenueName": "Grand Cinemaz: Una @ The Gulmohar"
  },
  "GDTH": {
    "AvailableFormats": "3D|2D",
    "City": "Thane",
    "Latitude": "19.1905",
    "Longitude": "72.9766",
    "RegionCode": "MUMBAI",
    "State": "Maharashtra",
    "SubRegionCode": "THNE",
    "VenueAddress": "Prabhat Plaza, 3rd Floor, Station Road, Shivaji Road, Near Talao Pali, Thane, Maharashtra 400601, India",
    "VenueCode": "GDTH",
    "VenueName": "Gold  Cinema: Shivaji Road, Thane (W)"
  },
  "GGCS": {
    "AvailableFormats": "2D",
    "City": "Seethathodu",
    "Latitude": "9.325442",
    "Longitude": "76.969631",
    "RegionCode": "SXCF",
    "State": "Kerala",
    "SubRegionCode": "SXCF",
    "VenueAddress": "Gavi Shopping Complex, Chittar, Angamoozhy Road, Seethathodu, Kerala 689667, India",
    "VenueCode": "GGCS",
    "VenueName": "Gavi Galaxi Cinemas: Seethathodu"
  },
  "GHZB": {
    "AvailableFormats": "",
    "City": "Ghaziabad",
    "FirstTracked": "2026-07-14",
    "Latitude": "28.708088",
    "Longitude": "77.291626",
    "RegionCode": "NCR",
    "State": "NCR",
    "SubRegionCode": "GHAZ",
    "VenueAddress": "Loni Road, Harijan Basti, Raj Nagar, Gokalpur, Ghaziabad, NCR 110094, India",
    "VenueCode": "GHZB",
    "VenueName": "Meenakshi Cherish Cinema: Ghaziabad"
  },
  "GKKC": {
    "AvailableFormats": "",
    "City": "Chennai",
    "FirstTracked": "2026-07-14",
    "Latitude": "13.049656",
    "Longitude": "80.19342",
    "RegionCode": "CHEN",
    "State": "Tamil Nadu",
    "SubRegionCode": "CHEN",
    "VenueAddress": "No.71/2, Yadaval Street,Virugambakkam, Chennai, Tamil Nadu 600092, India",
    "VenueCode": "GKKC",
    "VenueName": "Sri Devi Karumari Cinemas RGB LASER DOLBY ATMOS"
  },
  "GMGX": {
    "AvailableFormats": "2D",
    "City": "Ghaziabad",
    "Latitude": "28.6549",
    "Longitude": "77.3452",
    "RegionCode": "MRDG",
    "State": "NCR",
    "SubRegionCode": "MRDG",
    "VenueAddress": "Galaxie Mall, Local Road for JILIT Ltd, Sahibabad, Madan Mohan Malviya Marg, Sahibabad Industrial Area Site 4, Opposite Gulmohar Grand, Ghaziabad, NCR 201010, India",
    "VenueCode": "GMGX",
    "VenueName": "Galaxie Multiplex: Ghaziabad"
  },
  "GOKU": {
    "AvailableFormats": "2D",
    "City": "Hyderabad",
    "Latitude": "17.4536",
    "Longitude": "78.4344",
    "RegionCode": "HYD",
    "State": "Telangana",
    "SubRegionCode": "HYD",
    "VenueAddress": "Main Road, Vikaspuri, Erragadda, Beside Nexa Maruthi Showroom, Hyderabad, Telangana 500018, India",
    "VenueCode": "GOKU",
    "VenueName": "Gokul 70MM 4K DTS: Erragadda"
  },
  "GPKA": {
    "AvailableFormats": "2D",
    "City": "Seoni",
    "Latitude": "22.0777",
    "Longitude": "79.5459",
    "RegionCode": "SEON",
    "State": "Madhya Pradesh",
    "SubRegionCode": "SEON",
    "VenueAddress": "Gopika Cinema and Shopping Mall, Nagpur Road, Seoni, Madhya Pradesh 480661, India",
    "VenueCode": "GPKA",
    "VenueName": "Gopika Cinema: Seoni"
  },
  "GRDC": {
    "AvailableFormats": "",
    "City": "Jalandhar",
    "FirstTracked": "2026-07-14",
    "Latitude": "31.287695",
    "Longitude": "75.66471",
    "RegionCode": "JALA",
    "State": "Punjab",
    "SubRegionCode": "JALA",
    "VenueAddress": "3rd Floor Viva Collage Mall, GT Road, Jalandhar, Punjab 144001, India",
    "VenueCode": "GRDC",
    "VenueName": "GRD Cinemas: Jalandhar, Punjab"
  },
  "GSVA": {
    "AvailableFormats": "2D",
    "City": "Akividu",
    "Latitude": "16.5838",
    "Longitude": "81.3862",
    "RegionCode": "AKVD",
    "State": "Andhra Pradesh",
    "SubRegionCode": "AKVD",
    "VenueAddress": "Near HP Petrol Pump, PP Road, Beside Ambica Rice Merchants, Akividu, Andhra Pradesh 534235, India",
    "VenueCode": "GSVA",
    "VenueName": "G6 Sri Venkata Gangaratnam Theatre: Akividu"
  },
  "GTEE": {
    "AvailableFormats": "2D",
    "City": "Nagpur",
    "Latitude": "21.2155",
    "Longitude": "79.1947",
    "RegionCode": "NAGP",
    "State": "Maharashtra",
    "SubRegionCode": "NAGP",
    "VenueAddress": "Near Swank Agarbatti, Husainabad, Shiv Panchayat Nagar, Nagpur, Maharashtra 441001, India",
    "VenueCode": "GTEE",
    "VenueName": "Goyal Talkies: Kamptee"
  },
  "GTTT": {
    "AvailableFormats": "2D",
    "City": "Ooty",
    "Latitude": "11.406",
    "Longitude": "76.701",
    "RegionCode": "OOTY",
    "State": "Tamil Nadu",
    "SubRegionCode": "OOTY",
    "VenueAddress": "Ganapathy Theatre Road, Upper Bazar, Ooty, Tamil Nadu 643001, India",
    "VenueCode": "GTTT",
    "VenueName": "Ganapathy Theatre: Ooty"
  },
  "GXYN": {
    "AvailableFormats": "2D",
    "City": "Nawapara",
    "Latitude": "20.9732",
    "Longitude": "81.8549",
    "RegionCode": "NAWA",
    "State": "Chhattisgarh",
    "SubRegionCode": "NAWA",
    "VenueAddress": "Nawapara Nagar, Abhanpur-Rajim Road, Near HP Petrol Pump, Nawapara, Chhattisgarh 493881, India",
    "VenueCode": "GXYN",
    "VenueName": "Galaxy Cinema: Nawapara"
  },
  "HCAD": {
    "AvailableFormats": "2D",
    "City": "Vadodara",
    "Latitude": "22.2669",
    "Longitude": "73.2225",
    "RegionCode": "VAD",
    "State": "Gujarat",
    "SubRegionCode": "VAD",
    "VenueAddress": "4th Floor, Siddharth Magnum Plus, Tarsali Danteshwar Ring Road, Beside Bansal Mall, Tarsali, Vadodara, Gujarat 390009, India",
    "VenueCode": "HCAD",
    "VenueName": "Havelock Cineflix: Tarsali, Vadodara"
  },
  "HFSV": {
    "AvailableFormats": "2D",
    "City": "Vasco Da Gama",
    "Latitude": "15.4",
    "Longitude": "73.8143",
    "RegionCode": "GOA",
    "State": "Goa",
    "SubRegionCode": "VAGG",
    "VenueAddress": "Vaddem, New Vaddem, FL  Gomes Road, Near Corporation Bank, Vasco Da Gama, Goa 403802, India",
    "VenueCode": "HFSV",
    "VenueName": "Z Square Cine Shivam: Vasco Da Gama"
  },
  "HMHD": {
    "AvailableFormats": "2D|3D",
    "City": "Hyderabad",
    "Latitude": "17.4445",
    "Longitude": "78.3882",
    "RegionCode": "HYD",
    "State": "Telangana",
    "SubRegionCode": "HYD",
    "VenueAddress": "Hitech City Road, Sri Sai Nagar, Madhapur, Near State Bank Of India, Hyderabad, Telangana 500034, India",
    "VenueCode": "HMHD",
    "VenueName": "BR Hitech 70mm: Madhapur"
  },
  "HVCA": {
    "AvailableFormats": "2D",
    "City": "Ahmedabad",
    "Latitude": "23.0115",
    "Longitude": "72.5976",
    "RegionCode": "AHD",
    "State": "Gujarat",
    "SubRegionCode": "AHD",
    "VenueAddress": "1st Floor, Eka Club by TransStadia, Kankaria Lake, Opposite Gate No.3, Ahmedabad, Gujarat 380022, India",
    "VenueCode": "HVCA",
    "VenueName": "Havelock Cineflix Cinemas: Maninagar, Ahmedabad"
  },
  "IDEN": {
    "AvailableFormats": "2D",
    "City": "Delhi",
    "Latitude": "28.5513",
    "Longitude": "77.2515",
    "RegionCode": "NCR",
    "State": "NCR",
    "SubRegionCode": "DELHI",
    "VenueAddress": "Lower Ground Floor, Epicuria, TDI South Bridge, Nehru Place Metro Station, PD Area, Delhi, NCR 110019, India",
    "VenueCode": "IDEN",
    "VenueName": "INOX: Insignia At Epicuria, Nehru Place"
  },
  "ILCM": {
    "AvailableFormats": "3D|2D",
    "City": "Lucknow",
    "Latitude": "26.8886",
    "Longitude": "81.0554",
    "RegionCode": "LUCK",
    "State": "Uttar Pradesh",
    "SubRegionCode": "LUCK",
    "VenueAddress": "INOX  Leisure LTD, 3rd Floor, Crown Mall, Faizabad Road, Atif Vihar, Opposite BBD University, Lucknow, Uttar Pradesh 226028, India",
    "VenueCode": "ILCM",
    "VenueName": "INOX: Crown Mall, Lucknow"
  },
  "IMJW": {
    "AvailableFormats": "3D|2D|IMAX 2D",
    "City": "Mumbai",
    "Latitude": "19.066",
    "Longitude": "72.8668",
    "RegionCode": "MUMBAI",
    "State": "Maharashtra",
    "SubRegionCode": "MWEST",
    "VenueAddress": "3rd Floor, Jio World Plaza, G Block BKC, Bandra Kurla Complex, Bandra East, Mumbai, Maharashtra 400055, India",
    "VenueCode": "IMJW",
    "VenueName": "Maison INOX: Jio World Plaza, BKC"
  },
  "INAC": {
    "AvailableFormats": "2D|3D",
    "City": "Ajmer",
    "Latitude": "26.5147",
    "Longitude": "74.6339",
    "RegionCode": "AJMER",
    "State": "Rajasthan",
    "SubRegionCode": "AJMER",
    "VenueAddress": "3rd Floor, City Square Mall, A Block Panchsheel Colony, Makarwali Road, Ajmer, Rajasthan 305004, India",
    "VenueCode": "INAC",
    "VenueName": "INOX: City Square Mall, Ajmer"
  },
  "INBL": {
    "AvailableFormats": "2D|3D",
    "City": "Belagavi (Belgaum)",
    "Latitude": "15.8531",
    "Longitude": "74.5092",
    "RegionCode": "BELG",
    "State": "Karnataka",
    "SubRegionCode": "BELG",
    "VenueAddress": "Near BSNL Office, Head Post Office Road, Belgaum Camp, Near BSNL office, Belagavi (Belgaum), Karnataka 590001, India",
    "VenueCode": "INBL",
    "VenueName": "INOX: Camp Road, Belagavi"
  },
  "INCS": {
    "AvailableFormats": "3D|2D",
    "City": "Cuttack",
    "Latitude": "20.4613",
    "Longitude": "85.8691",
    "RegionCode": "CUTT",
    "State": "Odisha",
    "SubRegionCode": "CUTT",
    "VenueAddress": "SGBL Square,Town Hall Road, Unit No. 15, Choudhury Bazar, Cuttack, Odisha 753009, India",
    "VenueCode": "INCS",
    "VenueName": "INOX: Cuttack SGBL Square Mall"
  },
  "INGW": {
    "AvailableFormats": "2D|3D",
    "City": "Gwalior",
    "Latitude": "26.2162",
    "Longitude": "78.185",
    "RegionCode": "GWAL",
    "State": "Madhya Pradesh",
    "SubRegionCode": "GWAL",
    "VenueAddress": "2nd Floor, DB Mall, Race course Road, Old MPSRTC Work Station, Opposite Gwalior Railway Station, Gwalior, Madhya Pradesh 474002, India",
    "VenueCode": "INGW",
    "VenueName": "INOX: DB Mall, Gwalior"
  },
  "INKS": {
    "AvailableFormats": "2D|3D",
    "City": "Kolkata",
    "Latitude": "22.5712",
    "Longitude": "88.4011",
    "RegionCode": "KOLK",
    "State": "West Bengal",
    "SubRegionCode": "KOLK",
    "VenueAddress": "INOX Leisure Ltd, 89C, Moulana Abul Kalam Azad Sarani, Kolkata, West Bengal 700054, India",
    "VenueCode": "INKS",
    "VenueName": "INOX: Swabhumi, Maulana Azad Sarani"
  },
  "INOA": {
    "AvailableFormats": "2D|3D",
    "City": "Goa",
    "Latitude": "15.2859",
    "Longitude": "73.9572",
    "RegionCode": "BTBM",
    "State": "Goa",
    "SubRegionCode": "BTBM",
    "VenueAddress": "A Wing, 2nd Floor, Osia Commercial Arcade, SGPDA Market Complex, Margao, Goa, Goa 403601, India",
    "VenueCode": "INOA",
    "VenueName": "INOX: Osia A Wing Margao, Goa"
  },
  "INPS": {
    "AvailableFormats": "2D|3D",
    "City": "Jaipur",
    "Latitude": "26.9031",
    "Longitude": "75.8364",
    "RegionCode": "JAIP",
    "State": "Rajasthan",
    "SubRegionCode": "JAIP",
    "VenueAddress": "Raja Park, Govind Marg, Pink Square Mall, Jaipur, Rajasthan 302004, India",
    "VenueCode": "INPS",
    "VenueName": "INOX: Pink Square Mall, Adarsh Nagar"
  },
  "INRR": {
    "AvailableFormats": "2D",
    "City": "Rajkot",
    "Latitude": "22.3026",
    "Longitude": "70.7965",
    "RegionCode": "RAJK",
    "State": "Gujarat",
    "SubRegionCode": "RAJK",
    "VenueAddress": "Old Dharam Cinema Building, Kasturba Road, Naval Nagar, Near Saurashtra Cricket Association, Rajkot, Gujarat 360001, India",
    "VenueCode": "INRR",
    "VenueName": "INOX: Rajkot R World"
  },
  "INTA": {
    "AvailableFormats": "2D",
    "City": "Manapparai",
    "Latitude": "10.6097",
    "Longitude": "78.4233",
    "RegionCode": "MAPI",
    "State": "Tamil Nadu",
    "SubRegionCode": "MAPI",
    "VenueAddress": "Boys Town, Kulithalai - Manapparai Road, Nea Aavin Shop, Manapparai, Tamil Nadu 621306, India",
    "VenueCode": "INTA",
    "VenueName": "INDIRA CINEMAS A/C DOLBY 7.1: MANAPPARAI"
  },
  "INVJ": {
    "AvailableFormats": "2D",
    "City": "Vijayawada",
    "Latitude": "16.5172",
    "Longitude": "80.631",
    "RegionCode": "KADU",
    "State": "Andhra Pradesh",
    "SubRegionCode": "KADU",
    "VenueAddress": "Urvashi Theatre Complex, 26-2-66/A, Andhra Ratna Road, Gandhi Nagar, Vijayawada, Andhra Pradesh 520003, India",
    "VenueCode": "INVJ",
    "VenueName": "INOX: Urvasi Complex, Gandhi Nagar"
  },
  "INZD": {
    "AvailableFormats": "2D",
    "City": "Zirakpur",
    "Latitude": "30.6199",
    "Longitude": "76.8231",
    "RegionCode": "CHD",
    "State": "Punjab",
    "SubRegionCode": "ZRIK",
    "VenueAddress": "INOX Leisure Ltd, 2nd Floor, Dhillon Square Mall, Chhatbir Road, Chandigarh - Ambala Highway, Zirakpur, Zirakpur, Punjab 140603, India",
    "VenueCode": "INZD",
    "VenueName": "INOX: Dhillon Plaza (Zirakpur)"
  },
  "IPBG": {
    "AvailableFormats": "2D|3D",
    "City": "Navi Mumbai",
    "Latitude": "19.0853",
    "Longitude": "73.0076",
    "RegionCode": "MUMBAI",
    "State": "Maharashtra",
    "SubRegionCode": "THAN",
    "VenueAddress": "INOX Leisure Ltd, Plot No.17, Palm Beach Galleria Mall, Sector 19D, Palm Beach Road, Vashi, Navi Mumbai, Maharashtra 400703, India",
    "VenueCode": "IPBG",
    "VenueName": "INOX: Palm Beach Galleria Mall, Navi Mumbai"
  },
  "IRGT": {
    "AvailableFormats": "2D|3D",
    "City": "Thane",
    "Latitude": "19.2304",
    "Longitude": "72.9774",
    "RegionCode": "MUMBAI",
    "State": "Maharashtra",
    "SubRegionCode": "THNE",
    "VenueAddress": "3rd Floor, R Mall,Ghodbunder Road, Opposite Lokim Company, Dokali Pada, Dhokali, Thane West, Thane, Maharashtra 400607, India",
    "VenueCode": "IRGT",
    "VenueName": "INOX: Insignia at R Mall, Thane"
  },
  "ISTJ": {
    "AvailableFormats": "2D|3D",
    "City": "Jaipur",
    "Latitude": "26.8768",
    "Longitude": "75.7608",
    "RegionCode": "JAIP",
    "State": "Rajasthan",
    "SubRegionCode": "JAIP",
    "VenueAddress": "Sunny Trade Center, 3rd Floor, New Aatish Market, Jaipur, Rajasthan 302020, India",
    "VenueCode": "ISTJ",
    "VenueName": "INOX: Sunny Trade Center, Jaipur"
  },
  "JACP": {
    "AvailableFormats": "2D",
    "City": "Jajpur Road",
    "Latitude": "20.9459",
    "Longitude": "86.1311",
    "RegionCode": "JAJP",
    "State": "Odisha",
    "SubRegionCode": "JAJP",
    "VenueAddress": "New Bus Stand, Bypass Road, Umapada, Jajpur Road, Odisha 755019, India",
    "VenueCode": "JACP",
    "VenueName": "Jagannath Cine Palace: Jajpur Road"
  },
  "JBTV": {
    "AvailableFormats": "2D",
    "City": "Vadakkencherry",
    "Latitude": "10.5977",
    "Longitude": "76.4814",
    "RegionCode": "VDCY",
    "State": "Kerala",
    "SubRegionCode": "VDCY",
    "VenueAddress": "Vadakkanchery - Padur Road, Karayankadu, Vadakkencherry, Kerala 678683, India",
    "VenueCode": "JBTV",
    "VenueName": "Jayabharath Theatre: Vadakkencherry"
  },
  "JCPC": {
    "AvailableFormats": "2D",
    "City": "Badaun",
    "Latitude": "28.0354",
    "Longitude": "79.1234",
    "RegionCode": "BADN",
    "State": "Uttar Pradesh",
    "SubRegionCode": "BADN",
    "VenueAddress": "Sotha Mohallah, Opposite Bada Gost Bazaar, Badaun, Uttar Pradesh 243601, India",
    "VenueCode": "JCPC",
    "VenueName": "J C Picture Palace: Budaun"
  },
  "JGDM": {
    "AvailableFormats": "",
    "City": "Vizag",
    "Latitude": "17.7122",
    "Longitude": "83.3022",
    "RegionCode": "VIZA",
    "State": "Andhra Pradesh",
    "SubRegionCode": "VIZA",
    "VenueAddress": "Chitralaya Road, Jagadamba Junction, Near South Indian Bank ATM, Vizag, Andhra Pradesh 530020, India",
    "VenueCode": "JGDM",
    "VenueName": "Jagadamba Complex A/C 4K Dolby Atmos : Vizag"
  },
  "JJPP": {
    "AvailableFormats": "2D",
    "City": "Hyderabad",
    "Latitude": "17.4951",
    "Longitude": "78.3341",
    "RegionCode": "HYD",
    "State": "Telangana",
    "SubRegionCode": "HYD",
    "VenueAddress": "Shop No. W-4, Tapadia Maruti Infinity Mall, Door No. 2-132, Chanda Nagar, Hyderabad, Telangana 500050, India",
    "VenueCode": "JJPP",
    "VenueName": "JP Cinemas: Chandanagar"
  },
  "JMEX": {
    "AvailableFormats": "2D",
    "City": "Malkangiri",
    "Latitude": "18.364",
    "Longitude": "81.9024",
    "RegionCode": "MALG",
    "State": "Odisha",
    "SubRegionCode": "MALG",
    "VenueAddress": "National Highway 326, Near Kaniska Automobiles, Malkangiri, Odisha 764045, India",
    "VenueCode": "JMEX",
    "VenueName": "J Max Cinemas: Malkangiri"
  },
  "JPCJ": {
    "AvailableFormats": "2D",
    "City": "Jalalabad",
    "Latitude": "30.6035",
    "Longitude": "74.2602",
    "RegionCode": "JLAB",
    "State": "Punjab",
    "SubRegionCode": "JLAB",
    "VenueAddress": "J P Cinema, Muktsar Road, Jalalabad, Punjab 152024, India",
    "VenueCode": "JPCJ",
    "VenueName": "JP Cinema: Jalalabad"
  },
  "JTAP": {
    "AvailableFormats": "",
    "City": "Thirubhuvanai",
    "FirstTracked": "2026-07-14",
    "Latitude": "11.918086",
    "Longitude": "79.64769",
    "RegionCode": "THRU",
    "State": "Tamil Nadu",
    "SubRegionCode": "THRU",
    "VenueAddress": "197 Main Road, Puducherry - Vilupuram Road, Thirubhuvanai, Tamil Nadu 605102, India",
    "VenueCode": "JTAP",
    "VenueName": "Central Talkies: Thirubuvanai"
  },
  "JTJL": {
    "AvailableFormats": "2D",
    "City": "Edlapadu",
    "Latitude": "16.1719",
    "Longitude": "80.2287",
    "RegionCode": "EDLP",
    "State": "Andhra Pradesh",
    "SubRegionCode": "EDLP",
    "VenueAddress": "NH 16, Chennai - Srikakualm Highway, Near Virinchi Gardens, Edlapadu, Andhra Pradesh 522233, India",
    "VenueCode": "JTJL",
    "VenueName": "Jayalakshmi Movie Land: Edlapadu"
  },
  "JTMV": {
    "AvailableFormats": "2D",
    "City": "Chennai",
    "Latitude": "13.3357",
    "Longitude": "80.1947",
    "RegionCode": "CHEN",
    "State": "Tamil Nadu",
    "SubRegionCode": "CHEN",
    "VenueAddress": "57,Newcar Street, Thiruvallur Dist,NGO Nagar Extension,Chennai, Tamil Nadu 601204, India",
    "VenueCode": "JTMV",
    "VenueName": "VVM Cinemas 3D 2K AC Dts, Ponneri: Chennai"
  },
  "JTRA": {
    "AvailableFormats": "2D",
    "City": "Anakapalle",
    "Latitude": "17.6927",
    "Longitude": "83.0018",
    "RegionCode": "ANKP",
    "State": "Andhra Pradesh",
    "SubRegionCode": "ANKP",
    "VenueAddress": "Narasinga Rao Peta, Near Tata Docomo Store, Anakapalle, Andhra Pradesh 531001, India",
    "VenueCode": "JTRA",
    "VenueName": "Ramachandra Theatre: Anakapalle"
  },
  "JTSX": {
    "AvailableFormats": "",
    "City": "Vizag",
    "FirstTracked": "2026-07-14",
    "Latitude": "17.749195",
    "Longitude": "83.21968",
    "RegionCode": "SABB",
    "State": "Andhra Pradesh",
    "SubRegionCode": "SABB",
    "VenueAddress": "14-244, Gopalpatnam Main Road, Vizag, Andhra Pradesh 530027, India",
    "VenueCode": "JTSX",
    "VenueName": "Sukanya Complex: Vizag"
  },
  "JVRC": {
    "AvailableFormats": "2D",
    "City": "Jaggampeta",
    "Latitude": "17.1769",
    "Longitude": "82.0616",
    "RegionCode": "JAGG",
    "State": "Andhra Pradesh",
    "SubRegionCode": "JAGG",
    "VenueAddress": "Gollalagunta Road, Near by Ravulamma Talli Temple, Jaggampeta, Andhra Pradesh 533435, India",
    "VenueCode": "JVRC",
    "VenueName": "JVR Cinemas: Jaggampeta"
  },
  "JYYN": {
    "AvailableFormats": "2D",
    "City": "Nagpur",
    "Latitude": "21.1415",
    "Longitude": "79.0833",
    "RegionCode": "NAGP",
    "State": "Maharashtra",
    "SubRegionCode": "NAGP",
    "VenueAddress": "Abhyankar Marg, Sitabuldi, Near Maharashtra Bank, Nagpur, Maharashtra 440012, India",
    "VenueCode": "JYYN",
    "VenueName": "Janki Theatre (2K Laser,5.1 Dolby): Sitabuldi"
  },
  "KANT": {
    "AvailableFormats": "2D|3D",
    "City": "Betul",
    "Latitude": "21.8984",
    "Longitude": "77.9051",
    "RegionCode": "BETU",
    "State": "Madhya Pradesh",
    "SubRegionCode": "BETU",
    "VenueAddress": "Near Railway Station, Betulganj, Near Kantishiva Chowk, Betul, Madhya Pradesh 460001, India",
    "VenueCode": "KANT",
    "VenueName": "Kantishiva Multiplex: Betul"
  },
  "KBPM": {
    "AvailableFormats": "2D",
    "City": "Pamuru",
    "Latitude": "15.0961",
    "Longitude": "79.4099",
    "RegionCode": "PMMR",
    "State": "Andhra Pradesh",
    "SubRegionCode": "PMMR",
    "VenueAddress": "Chitralaya Street, Near SBI, Pamuru, Andhra Pradesh 523108, India",
    "VenueCode": "KBPM",
    "VenueName": "KB Srinivasa A/C 2K Dolby 7.1: Pamuru"
  },
  "KCKG": {
    "AvailableFormats": "2D|3D",
    "City": "Kopargaon",
    "Latitude": "19.8833",
    "Longitude": "74.4762",
    "RegionCode": "KOPG",
    "State": "Maharashtra",
    "SubRegionCode": "KOPG",
    "VenueAddress": "2061,1st Floor, K City Centre, Gurudwara Road, Dist.Ahmednagar, Kopargaon, Maharashtra 423601, India",
    "VenueCode": "KCKG",
    "VenueName": "K Cineplex: Kopargaon"
  },
  "KCSA": {
    "AvailableFormats": "",
    "City": "Namakkal",
    "FirstTracked": "2026-07-14",
    "Latitude": "11.22639",
    "Longitude": "78.16373",
    "RegionCode": "NMKL",
    "State": "Tamil Nadu",
    "SubRegionCode": "NMKL",
    "VenueAddress": "49, R.P Pudur, Salem - Namakkal Road, Namakkal, Tamil Nadu 637001, India",
    "VenueCode": "KCSA",
    "VenueName": "KS Cineplex Screen 1 by DNC Theatres: Namakkal"
  },
  "KDCT": {
    "AvailableFormats": "2D",
    "City": "Madurai",
    "Latitude": "9.88219",
    "Longitude": "78.0614",
    "RegionCode": "MADU",
    "State": "Tamil Nadu",
    "SubRegionCode": "MADU",
    "VenueAddress": "Sannathi Street,12/1, Pandiyan Nagar, Madurai, Tamil Nadu 625005, India",
    "VenueCode": "KDCT",
    "VenueName": "Kannan Devi Cinemas, Tirunagar: Madurai"
  },
  "KHMJ": {
    "AvailableFormats": "2D",
    "City": "Jalna",
    "Latitude": "19.8322",
    "Longitude": "75.9121",
    "RegionCode": "JALN",
    "State": "Maharashtra",
    "SubRegionCode": "JALN",
    "VenueAddress": "Krishna Mall, Krishna Vihar, Mantha Ambad Bypass Ring Road, Jalna, Maharashtra 431203, India",
    "VenueCode": "KHMJ",
    "VenueName": "Krishna Multiplex: Jalna"
  },
  "KKMA": {
    "AvailableFormats": "2D",
    "City": "Silvassa",
    "Latitude": "20.2716",
    "Longitude": "72.9916",
    "RegionCode": "SILV",
    "State": "Gujarat",
    "SubRegionCode": "SILV",
    "VenueAddress": "Prithviraj Chauhan Marg, Gujarat State Highway 185p, ,Opposite Yatri Niwas Hotel, Silvassa, Gujarat 396230, India",
    "VenueCode": "KKMA",
    "VenueName": "The Cine Station: Silvassa"
  },
  "KLMS": {
    "AvailableFormats": "2D",
    "City": "Kim",
    "Latitude": "21.4049",
    "Longitude": "72.9148",
    "RegionCode": "SURT",
    "State": "Gujarat",
    "SubRegionCode": "SURT",
    "VenueAddress": "3rd Floor, Laxmi Arcade, Kim Olpad Road, Mulad Village, Near Laxmi Bungalow, Kim, Gujarat 394110, India",
    "VenueCode": "KLMS",
    "VenueName": "KD Laxmi Multiplex (Dolby 7.1): Kim, Surat"
  },
  "KMPG": {
    "AvailableFormats": "2D",
    "City": "Ganapavaram",
    "Latitude": "16.7032",
    "Longitude": "81.4632",
    "RegionCode": "GANP",
    "State": "Andhra Pradesh",
    "SubRegionCode": "GANP",
    "VenueAddress": "Ganapavaram - Pippara Road, Near Ganapavaram Panchayat Office, Ganapavaram, Andhra Pradesh 534198, India",
    "VenueCode": "KMPG",
    "VenueName": "Kumari Picture Palace A/C Dts: Ganapavaram"
  },
  "KOVI": {
    "AvailableFormats": "2D",
    "City": "Coimbatore",
    "Latitude": "10.9989",
    "Longitude": "76.9686",
    "RegionCode": "COIM",
    "State": "Tamil Nadu",
    "SubRegionCode": "COIM",
    "VenueAddress": "7/21, State Bank Road, Gopala Puram, Near Annamali hotel, Coimbatore, Tamil Nadu 641018, India",
    "VenueCode": "KOVI",
    "VenueName": "Kovai Shanti Complex 4K 3D: Coimbatore"
  },
  "KRGD": {
    "AvailableFormats": "2D",
    "City": "Giddalur",
    "Latitude": "15.3809",
    "Longitude": "78.9312",
    "RegionCode": "GDAL",
    "State": "Andhra Pradesh",
    "SubRegionCode": "GDAL",
    "VenueAddress": "Racherla Gate Center, Racherla Road, Giddalur, Andhra Pradesh 523357, India",
    "VenueCode": "KRGD",
    "VenueName": "Krishna Theater: Giddalur"
  },
  "KRTO": {
    "AvailableFormats": "",
    "City": "Ongole",
    "FirstTracked": "2026-07-14",
    "Latitude": "15.509667",
    "Longitude": "80.0479",
    "RegionCode": "ADKI",
    "State": "Andhra Pradesh",
    "SubRegionCode": "ADKI",
    "VenueAddress": "Islampet, Gopal Nagar, Near Fire Station, Ongole, Andhra Pradesh 523001, India",
    "VenueCode": "KRTO",
    "VenueName": "Krishna Theatre: Ongole"
  },
  "KSKL": {
    "AvailableFormats": "2D",
    "City": "Karnal",
    "Latitude": "29.6935",
    "Longitude": "77.0028",
    "RegionCode": "KARN",
    "State": "Haryana",
    "SubRegionCode": "KARN",
    "VenueAddress": "Sector 12, Main Road, Karnal, Haryana 132001, India",
    "VenueCode": "KSKL",
    "VenueName": "Harsh A Movie: Karnal"
  },
  "KSTR": {
    "AvailableFormats": "2D",
    "City": "Alappuzha",
    "Latitude": "9.49605",
    "Longitude": "76.3412",
    "RegionCode": "CRTL",
    "State": "Kerala",
    "SubRegionCode": "CRTL",
    "VenueAddress": "CCNB Road, Erezha, Mullakkal, Near St George Lodgings, Alappuzha, Kerala 688011, India",
    "VenueCode": "KSTR",
    "VenueName": "Kairali Sree Theater: Alappuzha"
  },
  "KTKO": {
    "AvailableFormats": "2D",
    "City": "B.Kothakota",
    "Latitude": "13.6586",
    "Longitude": "78.2672",
    "RegionCode": "BKOT",
    "State": "Andhra Pradesh",
    "SubRegionCode": "BKOT",
    "VenueAddress": "Bypass Road, Handadi, B.Kothakota, Andhra Pradesh 517370, India",
    "VenueCode": "KTKO",
    "VenueName": "Sri Venkateswara Theater Dolby Digital"
  },
  "KVCS": {
    "AvailableFormats": "2D",
    "City": "Chennai",
    "Latitude": "13.0345",
    "Longitude": "80.2306",
    "RegionCode": "CHEN",
    "State": "Tamil Nadu",
    "SubRegionCode": "CHEN",
    "VenueAddress": "No 3 Usman Road, T. Nagar, Chennai, Near Mehta Hospitals Pvt Ltd, Chennai, Tamil Nadu 600017, India",
    "VenueCode": "KVCS",
    "VenueName": "KC(KrishnaveniCinemas) RG3 LASER DOLBYATMOS TNAGAR"
  },
  "LAIM": {
    "AvailableFormats": "2D",
    "City": "Vijayawada",
    "Latitude": "16.5066",
    "Longitude": "80.6285",
    "RegionCode": "VIJA",
    "State": "Andhra Pradesh",
    "SubRegionCode": "VIJA",
    "VenueAddress": "4th Floor, Laila Mall, M.G. Road, Vijayawada, Andhra Pradesh 520002, India",
    "VenueCode": "LAIM",
    "VenueName": "INOX: Laila Mall, M.G. Road"
  },
  "LBCN": {
    "AvailableFormats": "",
    "City": "Nanded",
    "FirstTracked": "2026-07-14",
    "Latitude": "19.146639",
    "Longitude": "77.322266",
    "RegionCode": "NAND",
    "State": "Maharashtra",
    "SubRegionCode": "NAND",
    "VenueAddress": "Gadipura, Khadakpura, Nanded, Maharashtra 431604, India",
    "VenueCode": "LBCN",
    "VenueName": "Liberty Cinema: Nanded"
  },
  "LCPC": {
    "AvailableFormats": "2D",
    "City": "Pune",
    "Latitude": "19.1187",
    "Longitude": "73.9729",
    "RegionCode": "PUNE",
    "State": "Maharashtra",
    "SubRegionCode": "PUNE",
    "VenueAddress": "Telephone Exchange Road, Narayan Gaon, Near Shinde Market, Pune, Maharashtra 410504, India",
    "VenueCode": "LCPC",
    "VenueName": "Laxmi Cineplex: Narayangaon"
  },
  "LGTV": {
    "AvailableFormats": "2D",
    "City": "Vizianagaram",
    "Latitude": "18.1103",
    "Longitude": "83.3976",
    "RegionCode": "VIZI",
    "State": "Andhra Pradesh",
    "SubRegionCode": "VIZI",
    "VenueAddress": "Fort City Central Mall, Railway Station Road, Gadi Khana, Pedavemali, Beside Leela Mahal theatre, Vizianagaram, Andhra Pradesh 535001, India",
    "VenueCode": "LGTV",
    "VenueName": "LGT Cinemas: Vizianagaram"
  },
  "LKMT": {
    "AvailableFormats": "2D",
    "City": "Hyderabad",
    "Latitude": "17.4948",
    "Longitude": "78.5112",
    "RegionCode": "HYD",
    "State": "Telangana",
    "SubRegionCode": "HYD",
    "VenueAddress": "Shop No: 14 - 69, Lothukunta Road, Lothkunta, Alwal, Secunderabad, Near Alwal City Bus Stop, Next to Sona Wines, Hyderabad, Telangana 500015, India",
    "VenueCode": "LKMT",
    "VenueName": "Lakshmi Kala Mandir: Alwal"
  },
  "LLCT": {
    "AvailableFormats": "2D",
    "City": "Tanda",
    "Latitude": "31.6758",
    "Longitude": "75.6348",
    "RegionCode": "TNDA",
    "State": "Punjab",
    "SubRegionCode": "TNDA",
    "VenueAddress": "Gurdaspur Road, Near Civil Hospital, Tanda, Punjab 144204, India",
    "VenueCode": "LLCT",
    "VenueName": "Lakhi Cinemas: Tanda"
  },
  "LPTH": {
    "AvailableFormats": "2D",
    "City": "Hospet",
    "Latitude": "15.2733",
    "Longitude": "76.3918",
    "RegionCode": "HOSP",
    "State": "Karnataka",
    "SubRegionCode": "HOSP",
    "VenueAddress": "No. 202, Jn Road, Saraswati Picture Palace, Near Malligi Hotel, Hospet, Karnataka 583201, India",
    "VenueCode": "LPTH",
    "VenueName": "Lakshmi Picture Palace: Hospet"
  },
  "LTTP": {
    "AvailableFormats": "2D",
    "City": "Madurai",
    "Latitude": "9.87549",
    "Longitude": "78.0653",
    "RegionCode": "MADU",
    "State": "Tamil Nadu",
    "SubRegionCode": "MADU",
    "VenueAddress": "Thirupparankundram Road, Avaniyapuram, Near Kasi Viswanathar Temple, Madurai, Tamil Nadu 625005, India",
    "VenueCode": "LTTP",
    "VenueName": "Sri Lakshmi Theatre: Thirupparankundram"
  },
  "LYAS": {
    "AvailableFormats": "2D",
    "City": "Solapur",
    "Latitude": "17.6533",
    "Longitude": "75.9318",
    "RegionCode": "SOLA",
    "State": "Maharashtra",
    "SubRegionCode": "SOLA",
    "VenueAddress": "S.No.218/2 C, Adarsh Nagar, Akashwai Kendra Road, Opposite MIDC, Solapur, Maharashtra 413006, India",
    "VenueCode": "LYAS",
    "VenueName": "Laxminarayan Cinema: Solapur"
  },
  "MACB": {
    "AvailableFormats": "2D|3D",
    "City": "Banswara",
    "Latitude": "23.5537",
    "Longitude": "74.4264",
    "RegionCode": "BANS",
    "State": "Rajasthan",
    "SubRegionCode": "BANS",
    "VenueAddress": "3rd Floor, Nakshatra Mall, Udaipur Dungarpur Link Road, Banswara, Rajasthan 327001, India",
    "VenueCode": "MACB",
    "VenueName": "Mukta A2 Cinemas: Nakshatra Mall, Banswara"
  },
  "MAFC": {
    "AvailableFormats": "2D",
    "City": "Sangli",
    "Latitude": "16.8603",
    "Longitude": "74.5698",
    "RegionCode": "SANG",
    "State": "Maharashtra",
    "SubRegionCode": "SANG",
    "VenueAddress": "3rd Floor, SFC Mega Mall, Station Road, Sangli, Maharashtra 416416, India",
    "VenueCode": "MAFC",
    "VenueName": "Mukta A2 Cinemas: SFC Mega Mall, Sangli"
  },
  "MAJU": {
    "AvailableFormats": "2D",
    "City": "Bhusawal",
    "Latitude": "21.0482",
    "Longitude": "75.7777",
    "RegionCode": "BHUS",
    "State": "Maharashtra",
    "SubRegionCode": "BHUS",
    "VenueAddress": "Juna Satara, Mahatma Fule Nagar, Mamaji Talkies Road, Bhusawal, Maharashtra 425201, India",
    "VenueCode": "MAJU",
    "VenueName": "Shree Mamaji Talkies: Bhusawal"
  },
  "MASA": {
    "AvailableFormats": "2D",
    "City": "Ahmedabad",
    "Latitude": "23.0317",
    "Longitude": "72.5705",
    "RegionCode": "AHD",
    "State": "Gujarat",
    "SubRegionCode": "AHD",
    "VenueAddress": "Opposite City Gold Cinema, Ashram Road, Near Kotak Mahindra Bank, Ahmedabad, Gujarat 380009, India",
    "VenueCode": "MASA",
    "VenueName": "Mukta A2 Shiv Cinema: Ahmedabad"
  },
  "MAYJ": {
    "AvailableFormats": "2D|3D",
    "City": "Chennai",
    "Latitude": "12.848",
    "Longitude": "80.2401",
    "RegionCode": "CHEN",
    "State": "Tamil Nadu",
    "SubRegionCode": "CHEN",
    "VenueAddress": "No. 34/1, East Coast Road, Kanathur, Near Toll Plaza, Chennai, Tamil Nadu 603112, India",
    "VenueCode": "MAYJ",
    "VenueName": "MAYAJAAL Multiplex: ECR, Chennai"
  },
  "MBSJ": {
    "AvailableFormats": "2D",
    "City": "Vizag (Visakhapatnam)",
    "Latitude": "17.7266",
    "Longitude": "83.2994",
    "RegionCode": "VIZA",
    "State": "Andhra Pradesh",
    "SubRegionCode": "VIZA",
    "VenueAddress": "Bupathi Surya Central Mall, 5th Floor, 43-29-53 Dondaparthy, Vizag (Visakhapatnam), Andhra Pradesh 530016, India",
    "VenueCode": "MBSJ",
    "VenueName": "Miraj Cinemas: Bupathi Surya Central, Dondaparthy"
  },
  "MCBH": {
    "AvailableFormats": "2D",
    "City": "Hyderabad",
    "Latitude": "17.3559",
    "Longitude": "78.4537",
    "RegionCode": "HYD",
    "State": "Telangana",
    "SubRegionCode": "HYD",
    "VenueAddress": "Bahadurpura, Near Zoo Park Road, Hyderabad, Telangana 500064, India",
    "VenueCode": "MCBH",
    "VenueName": "Metro Cinema: Bahadurpura"
  },
  "MCDE": {
    "AvailableFormats": "",
    "City": "Delhi",
    "Latitude": "28.6384",
    "Longitude": "77.107",
    "RegionCode": "NCR",
    "State": "NCR",
    "SubRegionCode": "DELHI",
    "VenueAddress": "Plot No. S-26, Ajay Enclave, Meenakshi Garden, Subhash Nagar, New Delhi, Delhi, NCR 110018, India",
    "VenueCode": "MCDE",
    "VenueName": "Miraj Cinemas: Ivory Tower, Subhash Nagar"
  },
  "MCGP": {
    "AvailableFormats": "2D|3D",
    "City": "Kanpur",
    "Latitude": "26.4907",
    "Longitude": "80.2847",
    "RegionCode": "KANP",
    "State": "Uttar Pradesh",
    "SubRegionCode": "KANP",
    "VenueAddress": "Gurdev Palace Complex, 181-184, Lakhanpur, G. T. Road, Kanpur, Uttar Pradesh 208024, India",
    "VenueCode": "MCGP",
    "VenueName": "Miraj Cinemas: Gurdev Pammi, Kanpur"
  },
  "MCIW": {
    "AvailableFormats": "2D|IMAX 2D|3D",
    "City": "Mumbai",
    "Latitude": "19.0316",
    "Longitude": "72.8809",
    "RegionCode": "MUMBAI",
    "State": "Maharashtra",
    "SubRegionCode": "MCENT",
    "VenueAddress": "Ajmera I-Land Road, Bhakti Park, Wadala East, Mumbai, Maharashtra 400037, India",
    "VenueCode": "MCIW",
    "VenueName": "Miraj Cinemas: IMAX, Wadala"
  },
  "MCMA": {
    "AvailableFormats": "",
    "City": "Ahmedabad",
    "Latitude": "23.0147",
    "Longitude": "72.5965",
    "RegionCode": "AHD",
    "State": "Gujarat",
    "SubRegionCode": "AHD",
    "VenueAddress": "10, Acer Mall, Kankaria Road, Raipur, Opposite Big Bazaar, Ahmedabad, Gujarat 380001, India",
    "VenueCode": "MCMA",
    "VenueName": "Miraj Cinemas: City Pulse, Ahmedabad"
  },
  "MCNR": {
    "AvailableFormats": "",
    "City": "Raipur",
    "Latitude": "21.1704",
    "Longitude": "81.7708",
    "RegionCode": "RAIPUR",
    "State": "Chhattisgarh",
    "SubRegionCode": "RAIPUR",
    "VenueAddress": "GS Entertainment, 4th Floor, Block E9-B, Retail Complex, Central Business District, Sector - 21, Nava Raipur Atal Nagar, Raipur, Chhattisgarh 492101, India",
    "VenueCode": "MCNR",
    "VenueName": "Miraj Cinemas: CBD, Nava Raipur"
  },
  "MCSD": {
    "AvailableFormats": "2D",
    "City": "Tumakuru (Tumkur)",
    "Latitude": "13.3435",
    "Longitude": "77.0943",
    "RegionCode": "TUMK",
    "State": "Karnataka",
    "SubRegionCode": "TUMK",
    "VenueAddress": "B.H.Main Road, Mandipet, Near Gubbi Gate, Near T H S Super Speciality Hospital, Tumakuru (Tumkur), Karnataka 572101, India",
    "VenueCode": "MCSD",
    "VenueName": "Maruthi Digital 4K Cinemas: B.H.Road Tumakuru"
  },
  "MCTD": {
    "AvailableFormats": "2D",
    "City": "Trivandrum",
    "Latitude": "8.61849",
    "Longitude": "76.8985",
    "RegionCode": "ATTI",
    "State": "Kerala",
    "SubRegionCode": "ATTI",
    "VenueAddress": "Pothencode Junction, Pothencode, Thiruvananthapuram, Near State Bank Of India, Trivandrum, Kerala 695584, India",
    "VenueCode": "MCTD",
    "VenueName": "MT Cineplex 4K DOLBY ATMOS: Pothencode"
  },
  "MDCA": {
    "AvailableFormats": "",
    "City": "Anjar",
    "FirstTracked": "2026-07-14",
    "Latitude": "23.101",
    "Longitude": "70.0353",
    "RegionCode": "ANJR",
    "State": "Gujarat",
    "SubRegionCode": "ANJR",
    "VenueAddress": "Chitrakut Circle, Vaishali Enclave, Anjar, Gujarat 370110, India",
    "VenueCode": "MDCA",
    "VenueName": "Modern Cineplex: Anjar"
  },
  "MDVA": {
    "AvailableFormats": "2D|3D",
    "City": "Mumbai",
    "Latitude": "19.3605",
    "Longitude": "72.8123",
    "RegionCode": "MUMBAI",
    "State": "Maharashtra",
    "SubRegionCode": "MWEST",
    "VenueAddress": "3rd Floor Dattani Square Mall, Stella Road, Vasai Road West, Near Papdy Talao And D Mart, Mumbai, Maharashtra 401202, India",
    "VenueCode": "MDVA",
    "VenueName": "Miraj Dattani Cinemas: Vasai"
  },
  "MEMR": {
    "AvailableFormats": "2D",
    "City": "Muzaffarnagar",
    "Latitude": "29.4865",
    "Longitude": "77.6966",
    "RegionCode": "MUZ",
    "State": "Uttar Pradesh",
    "SubRegionCode": "MUZ",
    "VenueAddress": "498, Opp Saharanpur Bus Stand, GT Road, Rampuri, Roorkee Road, Near Bajaj Agency, Muzaffarnagar, Uttar Pradesh 251001, India",
    "VenueCode": "MEMR",
    "VenueName": "Maya Multiplex: Muzaffarnagar"
  },
  "MGMD": {
    "AvailableFormats": "",
    "City": "Dhuri",
    "FirstTracked": "2026-07-14",
    "Latitude": "30.364855",
    "Longitude": "75.859245",
    "RegionCode": "DHRI",
    "State": "Punjab",
    "SubRegionCode": "DHRI",
    "VenueAddress": "Sangrur Road, Ward No 15B, Near Civil Hospital, Dhuri, Punjab 148024, India",
    "VenueCode": "MGMD",
    "VenueName": "Miraj Cinemas: Dhuri"
  },
  "MIDA": {
    "AvailableFormats": "7D",
    "City": "Greater Noida",
    "Latitude": "28.4529",
    "Longitude": "77.526",
    "RegionCode": "NCR",
    "State": "NCR",
    "SubRegionCode": "GRET",
    "VenueAddress": "Grand Venice Mall, 2nd Floor, SH 3, Site IV, Greater Noida, NCR 201308, India",
    "VenueCode": "MIDA",
    "VenueName": "7D Masti: The Grand Venice Mall, Greater Noida"
  },
  "MITD": {
    "AvailableFormats": "2D|3D",
    "City": "Nathdwara",
    "Latitude": "24.9166",
    "Longitude": "73.8238",
    "RegionCode": "NATW",
    "State": "Rajasthan",
    "SubRegionCode": "NATW",
    "VenueAddress": "5th Floor, Miraj Meridian Mall, Nathuwas Road, NH 8, Near Vallabh Ashram, Nathdwara, Rajasthan 313301, India",
    "VenueCode": "MITD",
    "VenueName": "Miraj Cinemas: Nathdwara"
  },
  "MKBG": {
    "AvailableFormats": "2D",
    "City": "Bengaluru",
    "Latitude": "13.0036",
    "Longitude": "77.6362",
    "RegionCode": "HOKT",
    "State": "Karnataka",
    "SubRegionCode": "HOKT",
    "VenueAddress": "No.30, Banaswadi Main Road, Marutiseva Nagar, Bengaluru, Karnataka 560033, India",
    "VenueCode": "MKBG",
    "VenueName": "Mukunda 4K Dolby Atmos: M.S.Nagar"
  },
  "MKSM": {
    "AvailableFormats": "2D|3D",
    "City": "Rajahmundry",
    "Latitude": "16.9508",
    "Longitude": "81.7829",
    "RegionCode": "RJMU",
    "State": "Andhra Pradesh",
    "SubRegionCode": "RJMU",
    "VenueAddress": "SH 41, VGTPS Colony, Near Dowlaiswaram Bus Stand, Rajahmundry, Andhra Pradesh 533125, India",
    "VenueCode": "MKSM",
    "VenueName": "Muralikrishna Cinema A/C 4K 3D: Dowlaiswaram"
  },
  "MMAA": {
    "AvailableFormats": "2D",
    "City": "Mumbai",
    "Latitude": "19.1165",
    "Longitude": "72.8565",
    "RegionCode": "MUMBAI",
    "State": "Maharashtra",
    "SubRegionCode": "MWEST",
    "VenueAddress": "MovieMax, Andheri-Kurla Road, Andheri(E), Behind Gurunanak Petrol Pump, Mumbai, Maharashtra 400059, India",
    "VenueCode": "MMAA",
    "VenueName": "MovieMax: Andheri (E)"
  },
  "MMEF": {
    "AvailableFormats": "2D",
    "City": "Jamnagar",
    "Latitude": "22.462",
    "Longitude": "70.0369",
    "RegionCode": "JAM",
    "State": "Gujarat",
    "SubRegionCode": "JAM",
    "VenueAddress": "15, Street No.4, Shivam Park, Ajanta Society, Near - Hotel Vishal International, Jamnagar, Gujarat 361006, India",
    "VenueCode": "MMEF",
    "VenueName": "Mehul Cinemax: Jamnagar"
  },
  "MMMD": {
    "AvailableFormats": "2D",
    "City": "Etawah",
    "Latitude": "26.7847",
    "Longitude": "79.0212",
    "RegionCode": "ETWH",
    "State": "Uttar Pradesh",
    "SubRegionCode": "ETWH",
    "VenueAddress": "Baba The Mall, Shastri Chauraha, Chogurjee Nagar, Near Hydel Colony, Etawah, Uttar Pradesh 206001, India",
    "VenueCode": "MMMD",
    "VenueName": "Mad Moviez: Etawah"
  },
  "MMSG": {
    "AvailableFormats": "3D|2D",
    "City": "Lucknow",
    "Latitude": "26.8194",
    "Longitude": "80.9072",
    "RegionCode": "LUCK",
    "State": "Uttar Pradesh",
    "SubRegionCode": "LUCK",
    "VenueAddress": "Shalimar Gateway Mall, Bus Stand, Alambagh, Near Alambagh, Railway Colony, Lucknow, Uttar Pradesh 226005, India",
    "VenueCode": "MMSG",
    "VenueName": "MovieMax: Shalimar Gateway"
  },
  "MMXA": {
    "AvailableFormats": "3D|2D",
    "City": "Pune",
    "Latitude": "18.5189",
    "Longitude": "73.9357",
    "RegionCode": "PUNE",
    "State": "Maharashtra",
    "SubRegionCode": "PUNE",
    "VenueAddress": "MovieMax, Amanora Town Centre, Amanora Park Town, Hadapsar, Pune, Maharashtra 411028, India",
    "VenueCode": "MMXA",
    "VenueName": "MovieMax Edition (Luxe): Amanora Town Center, Pune"
  },
  "MNJL": {
    "AvailableFormats": "",
    "City": "Ludhiana",
    "FirstTracked": "2026-07-14",
    "Latitude": "30.8963",
    "Longitude": "75.8665",
    "RegionCode": "LUDH",
    "State": "Punjab",
    "SubRegionCode": "LUDH",
    "VenueAddress": "Dholewal Chowk, G.T. Road, Ludhiana, Punjab 141001, India",
    "VenueCode": "MNJL",
    "VenueName": "Manju Theatre: Ludhiana"
  },
  "MPCH": {
    "AvailableFormats": "2D",
    "City": "Ahmedabad",
    "Latitude": "23.0638",
    "Longitude": "72.6775",
    "RegionCode": "AHD",
    "State": "Gujarat",
    "SubRegionCode": "AHD",
    "VenueAddress": "5th and 6th Floor, Fortune Sky, Fortune Circle, Nikol, Near - Goverdhan Galaxy Bungalows, Ahmedabad, Gujarat 382350, India",
    "VenueCode": "MPCH",
    "VenueName": "Mango Plus Cinemas: Nikol"
  },
  "MRCH": {
    "AvailableFormats": "2D",
    "City": "Haridwar",
    "Latitude": "29.9188",
    "Longitude": "78.0578",
    "RegionCode": "HRDR",
    "State": "Uttarakhand",
    "SubRegionCode": "HRDR",
    "VenueAddress": "3rd Floor, Raghunath City Mall, Bahadrabad, Haridwar, Uttarakhand 249402, India",
    "VenueCode": "MRCH",
    "VenueName": "Movietime Cinemas: Raghunath City Mall, Haridwar"
  },
  "MRRC": {
    "AvailableFormats": "",
    "City": "Raichur",
    "FirstTracked": "2026-07-14",
    "Latitude": "16.211191",
    "Longitude": "77.35692",
    "RegionCode": "RAUR",
    "State": "Karnataka",
    "SubRegionCode": "RAUR",
    "VenueAddress": "Miraj Cinemas, MPL No. 12-104 and 12-10-5, Situated at Siya Talab, Gunj Road, Raichur, Karnataka 584102, India",
    "VenueCode": "MRRC",
    "VenueName": "Miraj Cinemas: Raichur"
  },
  "MSCJ": {
    "AvailableFormats": "2D",
    "City": "Jajpur Town (Odisha)",
    "Latitude": "20.853",
    "Longitude": "86.3293",
    "RegionCode": "JTTT",
    "State": "Odisha",
    "SubRegionCode": "JTTT",
    "VenueAddress": "Gandhi chhak, Sanskruti Bhawan, Jajpur Town (Odisha), Odisha 755001, India",
    "VenueCode": "MSCJ",
    "VenueName": "Mission Shakti Cinemas: Jajpur Town"
  },
  "MSNL": {
    "AvailableFormats": "2D",
    "City": "Lucknow",
    "Latitude": "26.8819",
    "Longitude": "80.9466",
    "RegionCode": "LUCK",
    "State": "Uttar Pradesh",
    "SubRegionCode": "LUCK",
    "VenueAddress": "Kapoorthalla Commercial Complex, 4, Aliganj, Behind Sahara Towers, Lucknow, Uttar Pradesh 226020, India",
    "VenueCode": "MSNL",
    "VenueName": "Novelty Dolby Atmos 4K: Aliganj"
  },
  "MTCA": {
    "AvailableFormats": "2D|3D",
    "City": "Amritsar",
    "Latitude": "31.6444",
    "Longitude": "74.8771",
    "RegionCode": "AMRI",
    "State": "Punjab",
    "SubRegionCode": "AMRI",
    "VenueAddress": "4th Floor, Omaxe Novelty Mall, 7, Lawrence Road, Joshi Colony, Amritsar, Punjab 143001, India",
    "VenueCode": "MTCA",
    "VenueName": "Movietime Cinemas: Omaxe Novelty Mall, Amritsar"
  },
  "MTHY": {
    "AvailableFormats": "2D",
    "City": "Hyderabad",
    "Latitude": "17.452",
    "Longitude": "78.3628",
    "RegionCode": "HYD",
    "State": "Telangana",
    "SubRegionCode": "HYD",
    "VenueAddress": "3rd Floor, SLN Terminus, Gachibowli - Miyapur Road, Jayabheri Enclave, Hyderabad, Telangana 500032, India",
    "VenueCode": "MTHY",
    "VenueName": "Platinum Movietime Cinema: Gachibowli SLN Terminus"
  },
  "MTMT": {
    "AvailableFormats": "",
    "City": "Madurai",
    "FirstTracked": "2026-07-14",
    "Latitude": "10.0232",
    "Longitude": "77.9631",
    "RegionCode": "MADU",
    "State": "Tamil Nadu",
    "SubRegionCode": "MADU",
    "VenueAddress": "Sangankottai Road, Sholavandan, Near Railway Junction, Madurai, Tamil Nadu 625214, India",
    "VenueCode": "MTMT",
    "VenueName": "MVM MARUDHU MODERN THEATER A/C 2K 3D"
  },
  "MTVT": {
    "AvailableFormats": "2D",
    "City": "Theni",
    "Latitude": "10.0014",
    "Longitude": "77.6283",
    "RegionCode": "THEN",
    "State": "Tamil Nadu",
    "SubRegionCode": "THEN",
    "VenueAddress": "Theni Highway, Kondamanaickanpatty, Theni, Tamil Nadu 624225, India",
    "VenueCode": "MTVT",
    "VenueName": "MSP Theatre(VBL Theatre) A/C 7.1: Andipatti"
  },
  "MUTA": {
    "AvailableFormats": "2D",
    "City": "Azamgarh",
    "Latitude": "26.0749",
    "Longitude": "83.1866",
    "RegionCode": "AZMG",
    "State": "Uttar Pradesh",
    "SubRegionCode": "AZMG",
    "VenueAddress": "City Life Mall, Paharpur, Azamgarh Dohrighat Gorakhpur Road, Near Bhairo Baba Mandir Maharajgang, Azamgarh, Uttar Pradesh 276001, India",
    "VenueCode": "MUTA",
    "VenueName": "Murli DD Cinemas: Azmagarh"
  },
  "MXBN": {
    "AvailableFormats": "2D|3D",
    "City": "Bhavnagar",
    "Latitude": "21.7509",
    "Longitude": "72.1364",
    "RegionCode": "BHNG",
    "State": "Gujarat",
    "SubRegionCode": "BHNG",
    "VenueAddress": "Himalaya Mall, Waghawadi Rd, Nr ISKCON Mega City, Opp Victoria Park, Bhavnagar, Gujarat 364002, India",
    "VenueCode": "MXBN",
    "VenueName": "Maxus Cinemas: Bhavnagar"
  },
  "MYAN": {
    "AvailableFormats": "2D|3D",
    "City": "Ahilyanagar (Ahmednagar)",
    "Latitude": "19.1313",
    "Longitude": "74.7301",
    "RegionCode": "AHMED",
    "State": "Maharashtra",
    "SubRegionCode": "AHMED",
    "VenueAddress": "Pipeline Road, Savedi, Ahilyanagar (Ahmednagar), Maharashtra 414003, India",
    "VenueCode": "MYAN",
    "VenueName": "MY Cinema: Ahilya Nagar"
  },
  "MYHJ": {
    "AvailableFormats": "2D",
    "City": "Karunagapally",
    "Latitude": "9.04943",
    "Longitude": "76.5355",
    "RegionCode": "KARG",
    "State": "Kerala",
    "SubRegionCode": "KARG",
    "VenueAddress": "Level 3, H and J Complex Mall, Lalaji Junction, Kollam, Near Municipal Office, Karunagapally, Kerala 690518, India",
    "VenueCode": "MYHJ",
    "VenueName": "MY Cinemas, H&J Complex: Karunagapally"
  },
  "NAGJ": {
    "AvailableFormats": "2D",
    "City": "jaggampeta",
    "Latitude": "17.1755",
    "Longitude": "82.062",
    "RegionCode": "JAGG",
    "State": "Andhra Pradesh",
    "SubRegionCode": "JAGG",
    "VenueAddress": "East Godavari, Near SBI Atm, jaggampeta, Andhra Pradesh 533435, India",
    "VenueCode": "NAGJ",
    "VenueName": "Nageshwara A/c Dts: Jaggampeta"
  },
  "NCCK": {
    "AvailableFormats": "2D",
    "City": "Naharlagun",
    "Latitude": "27.1088",
    "Longitude": "93.696",
    "RegionCode": "NAHA",
    "State": "Arunachal Pradesh",
    "SubRegionCode": "NAHA",
    "VenueAddress": "NH 52A, Cona, Opposite Moody Monk, Naharlagun, Arunachal Pradesh 791110, India",
    "VenueCode": "NCCK",
    "VenueName": "A National Cinema: Market Area, Naharlagun"
  },
  "NCMB": {
    "AvailableFormats": "2D",
    "City": "Buchireddypalem",
    "Latitude": "14.5346",
    "Longitude": "79.8791",
    "RegionCode": "BCHR",
    "State": "Andhra Pradesh",
    "SubRegionCode": "BCHR",
    "VenueAddress": "Nellore Road, Nagamambapuram, Buchireddypalem, Andhra Pradesh 524305, India",
    "VenueCode": "NCMB",
    "VenueName": "Naaz Cinemas: Buchireddypalem"
  },
  "NECA": {
    "AvailableFormats": "2D",
    "City": "Kolkata",
    "Latitude": "22.5605",
    "Longitude": "88.3515",
    "RegionCode": "KOLK",
    "State": "West Bengal",
    "SubRegionCode": "KOLK",
    "VenueAddress": "1 and 2, Humayun Place, New Market Area, Dharmatala, Taltala, Kolkata, West Bengal 700087, India",
    "VenueCode": "NECA",
    "VenueName": "New Empire Cinema: Kolkata"
  },
  "NGHK": {
    "AvailableFormats": "",
    "City": "Kesinga",
    "FirstTracked": "2026-07-14",
    "Latitude": "20.19338",
    "Longitude": "83.22572",
    "RegionCode": "KEGA",
    "State": "Odisha",
    "SubRegionCode": "KEGA",
    "VenueAddress": "National Highway 201, Near Balangir Chowk, Kesinga, Odisha 766012, India",
    "VenueCode": "NGHK",
    "VenueName": "New Galaxy Theater: Kesinga"
  },
  "NLJR": {
    "AvailableFormats": "2D",
    "City": "Nallajerla",
    "Latitude": "16.9555",
    "Longitude": "81.4172",
    "RegionCode": "TADP",
    "State": "Andhra Pradesh",
    "SubRegionCode": "TADP",
    "VenueAddress": "Rajahmundry - Bhadrachalam Highway, Opp to Buchalupond, Nallajerla, Andhra Pradesh 534111, India",
    "VenueCode": "NLJR",
    "VenueName": "Sri Lakshmi Multiplex (Nova Cinemaz): Nallajerla"
  },
  "NMXS": {
    "AvailableFormats": "2D",
    "City": "Silvassa",
    "Latitude": "20.2751",
    "Longitude": "73.0098",
    "RegionCode": "SILV",
    "State": "Gujarat",
    "SubRegionCode": "SILV",
    "VenueAddress": "Plot No. 2, Sr. No. 876/1/1/3, Bavisa Falia, Near Shree Sai Mobile Shop, Silvassa, Gujarat 396230, India",
    "VenueCode": "NMXS",
    "VenueName": "New Max Cinema: Silvassa"
  },