{
  "AACV": {
    "AvailableFormats": "2D",
    "City": "Kovvur",
    "Latitude": "17.0136",
    "Longitude": "81.7281",
    "RegionCode": "KOVU",
    "State": "Andhra Pradesh",
    "SubRegionCode": "KOVU",
    "VenueAddress": "Rama Society Road, Near State Bank of India, Kovvur, Andhra Pradesh 534350, India",
    "VenueCode": "AACV",
    "VenueName": "Ananya Cinemas: Kovvur"
  },
  "AATR": {
    "AvailableFormats": "2D",
    "City": "Erode",
    "Latitude": "11.3326",
    "Longitude": "77.7284",
    "RegionCode": "EROD",
    "State": "Tamil Nadu",
    "SubRegionCode": "EROD",
    "VenueAddress": "Balasubrayalu Street, Surampattivalasu, Near Erode Fire Service, Erode, Tamil Nadu 638001, India",
    "VenueCode": "AATR",
    "VenueName": "Aanoor Theatre A/C Dolby Atmos: Erode"
  },
  "ABDD": {
    "AvailableFormats": "2D|3D",
    "City": "Durgapur",
    "Latitude": "23.5563",
    "Longitude": "87.2745",
    "RegionCode": "DURGA",
    "State": "West Bengal",
    "SubRegionCode": "DURGA",
    "VenueAddress": "Fortune Plaza, 5th Floor, Ananda Gopal Mukherjee Sarani Road, Above Reliance Digital, Near Bhiringi Kali Mandir, Benachity, Durgapur, West Bengal 713213, India",
    "VenueCode": "ABDD",
    "VenueName": "Arti Cinemas, above Pantaloons: Benachity"
  },
  "ACAM": {
    "AvailableFormats": "2D",
    "City": "Ambala",
    "Latitude": "30.3786",
    "Longitude": "76.7636",
    "RegionCode": "AMB",
    "State": "Haryana",
    "SubRegionCode": "AMB",
    "VenueAddress": "City Plaza, 947, Citi Mall, NH 152, Patti Mehar, Ambala, Haryana 134003, India",
    "VenueCode": "ACAM",
    "VenueName": "Ayaan Cinemas: Ambala"
  },
  "ACEV": {
    "AvailableFormats": "2D",
    "City": "Hyderabad",
    "Latitude": "17.338",
    "Longitude": "78.5678",
    "RegionCode": "HYD",
    "State": "Telangana",
    "SubRegionCode": "HYD",
    "VenueAddress": "Door. No.5-5-185 and 5-5-186,Sy.No.53 and 56, 4th Floor, TATTVA MALL, Vanasthalipuram, Saheb Nagar Khurd, Hyderabad, Telangana 500070, India",
    "VenueCode": "ACEV",
    "VenueName": "ART CINEMAS: Vanasthalipuram"
  },
  "ACKB": {
    "AvailableFormats": "2D",
    "City": "Bengaluru",
    "Latitude": "12.977726",
    "Longitude": "77.575961",
    "RegionCode": "BANG",
    "State": "Karnataka",
    "SubRegionCode": "BANG",
    "VenueAddress": "No-300/1, S.C.Road, Gandhinagar, Next To Movieland Theatre, Bengaluru, Karnataka 560009, India",
    "VenueCode": "ACKB",
    "VenueName": "AMB Cinemas Kapali: Bengaluru"
  },
  "ACNB": {
    "AvailableFormats": "2D|3D",
    "City": "Barasat",
    "Latitude": "22.7199",
    "Longitude": "88.4875",
    "RegionCode": "BSRT",
    "State": "West Bengal",
    "SubRegionCode": "BSRT",
    "VenueAddress": "Bus Stand, 125/1, Jessore Road, Champadali, Barasat, West Bengal 700124, India",
    "VenueCode": "ACNB",
    "VenueName": "SSR Cinemas, Suncity Mall: Barasat"
  },
  "ACRT": {
    "AvailableFormats": "2D",
    "City": "Haliya",
    "Latitude": "16.7799",
    "Longitude": "79.3224",
    "RegionCode": "HALI",
    "State": "Telangana",
    "SubRegionCode": "HALI",
    "VenueAddress": "NH 565, Near ICICI Bank ATM, Haliya, Telangana 508377, India",
    "VenueCode": "ACRT",
    "VenueName": "Acchi Reddy Theater A/c Dolby DTS: Haliya"
  },
  "ACXB": {
    "AvailableFormats": "2D",
    "City": "Bhandara",
    "Latitude": "21.1761",
    "Longitude": "79.6388",
    "RegionCode": "BHAA",
    "State": "Maharashtra",
    "SubRegionCode": "BHAA",
    "VenueAddress": "Aswale Park, Samruddhi Nagar, Bhandara, Maharashtra 441906, India",
    "VenueCode": "ACXB",
    "VenueName": "AR Cineplex: Bhandara"
  },
  "ADGR": {
    "AvailableFormats": "2D|3D",
    "City": "Gorakhpur",
    "Latitude": "26.7564",
    "Longitude": "83.3668",
    "RegionCode": "GRKP",
    "State": "Uttar Pradesh",
    "SubRegionCode": "GRKP",
    "VenueAddress": "2nd and 3rd Floor, Ad Mall, Cinema Road, Gorakhpur, Uttar Pradesh 273001, India",
    "VenueCode": "ADGR",
    "VenueName": "AD Cinemas: Gorakhpur"
  },
  "AHKT": {
    "AvailableFormats": "2D",
    "City": "Kottiyam",
    "Latitude": "8.86546",
    "Longitude": "76.6695",
    "RegionCode": "KTTY",
    "State": "Kerala",
    "SubRegionCode": "KTTY",
    "VenueAddress": "Dreams Mall, National Highway 66, Kottiyam, Kerala 691571, India",
    "VenueCode": "AHKT",
    "VenueName": "Aashirvad Cineplexx: Kottiyam"
  },
  "AKFC": {
    "AvailableFormats": "2D",
    "City": "Alakode",
    "Latitude": "12.1785",
    "Longitude": "75.4649",
    "RegionCode": "ALAK",
    "State": "Kerala",
    "SubRegionCode": "ALAK",
    "VenueAddress": "Kottayadu Kavala, Malabar Hill Highway, Near St.Marys Forane Church, Alakode, Kerala 670571, India",
    "VenueCode": "AKFC",
    "VenueName": "Alakode Film City 4K Dolby Atmos"
  },
  "ALAT": {
    "AvailableFormats": "2D",
    "City": "Ponnamaravathi",
    "Latitude": "10.2757",
    "Longitude": "78.5367",
    "RegionCode": "PONM",
    "State": "Tamil Nadu",
    "SubRegionCode": "PONM",
    "VenueAddress": "Amman Kovil Street, Ponnamaravathy, Near Ponnamaravathi Police Station, Ponnamaravathi, Tamil Nadu 622407, India",
    "VenueCode": "ALAT",
    "VenueName": "Alankar Theatre 2K 7.1: Ponnamaravathi"
  },
  "AMBT": {
    "AvailableFormats": "3D|2D",
    "City": "Nagpur",
    "Latitude": "21.1163",
    "Longitude": "79.0128",
    "RegionCode": "NAGP",
    "State": "Maharashtra",
    "SubRegionCode": "NAGP",
    "VenueAddress": "Bansi Nagar, S R P Camp, Digdoh, Nagpur, Maharashtra 440016, India",
    "VenueCode": "AMBT",
    "VenueName": "AM Cinema: Bansi Nagar, Nagpur"
  },
  "AMHR": {
    "AvailableFormats": "2D",
    "City": "Virudhunagar",
    "Latitude": "9.59045",
    "Longitude": "77.9527",
    "RegionCode": "VIRU",
    "State": "Tamil Nadu",
    "SubRegionCode": "VIRU",
    "VenueAddress": "RR Nagar, Sivagami Puram, Virudhunagar, Tamil Nadu 626001, India",
    "VenueCode": "AMHR",
    "VenueName": "Amirtharaj Theatre A/C 2K Dolby 7.1: Virudhunagar"
  },
  "AMRT": {
    "AvailableFormats": "2D",
    "City": "Bengaluru",
    "Latitude": "13.0124",
    "Longitude": "77.6263",
    "RegionCode": "BANG",
    "State": "Karnataka",
    "SubRegionCode": "BANG",
    "VenueAddress": "No 1075, Near Lingarajpuram Fly Over, Hennur Main Road, St Thomas Town, Bengaluru, Karnataka 560084, India",
    "VenueCode": "AMRT",
    "VenueName": "Amruth Digital 2K A/C Cinema: Lingarajapuram"
  },
  "ANCB": {
    "AvailableFormats": "2D",
    "City": "Barmer",
    "Latitude": "25.7618",
    "Longitude": "71.4177",
    "RegionCode": "BARM",
    "State": "Rajasthan",
    "SubRegionCode": "BARM",
    "VenueAddress": "NH25, Baldev Nagar, Uttarlai Road, Barmer, Rajasthan 344001, India",
    "VenueCode": "ANCB",
    "VenueName": "Aanchal Cinema: Barmer"
  },
  "ANPT": {
    "AvailableFormats": "2D",
    "City": "Pithapuram",
    "Latitude": "17.1142",
    "Longitude": "82.2588",
    "RegionCode": "PITA",
    "State": "Andhra Pradesh",
    "SubRegionCode": "PITA",
    "VenueAddress": "Uppada - Pithapuram Road, Madhava Nagar, Pithapuram, Andhra Pradesh 533450, India",
    "VenueCode": "ANPT",
    "VenueName": "Sri Annapoorna Theatre 2K A/C DTS: Pithapuram"
  },
  "AOCH": {
    "AvailableFormats": "2D",
    "City": "Nabadwip",
    "Latitude": "23.4051",
    "Longitude": "88.3661",
    "RegionCode": "NABB",
    "State": "West Bengal",
    "SubRegionCode": "NABB",
    "VenueAddress": "78, Banerjee Para Road, Near Allahabad Bank, Nabadwip, West Bengal 741302, India",
    "VenueCode": "AOCH",
    "VenueName": "Alochaya Cinema: Nabadwip"
  },
  "APJC": {
    "AvailableFormats": "2D",
    "City": "Madurai",
    "Latitude": "9.90666",
    "Longitude": "78.0975",
    "RegionCode": "MADU",
    "State": "Tamil Nadu",
    "SubRegionCode": "MADU",
    "VenueAddress": "No. 6 Kambar street, Pasumpon Nagar, Madurai, Tamil Nadu 625003, India",
    "VenueCode": "APJC",
    "VenueName": "APR Cinemas Jeyam AC Christie 4K Dolby: Madurai"
  },
  "APSU": {
    "AvailableFormats": "2D",
    "City": "Hubli",
    "Latitude": "15.3481",
    "Longitude": "75.144",
    "RegionCode": "HUBL",
    "State": "Karnataka",
    "SubRegionCode": "HUBL",
    "VenueAddress": "Coen Road, New Hubli, Opposite Corporation Bank, Hubli, Karnataka 580020, India",
    "VenueCode": "APSU",
    "VenueName": "Apsara & Sudha Cinemas: Hubli"
  },
  "ARCR": {
    "AvailableFormats": "2D",
    "City": "Peravoor",
    "Latitude": "11.9016",
    "Longitude": "75.7307",
    "RegionCode": "PPVR",
    "State": "Kerala",
    "SubRegionCode": "PPVR",
    "VenueAddress": "Iritty Nedumpoil Road, Near Crystal Mall, Peravoor, Kerala 670673, India",
    "VenueCode": "ARCR",
    "VenueName": "Aura Cinemas: Peravoor"
  },
  "ARTH": {
    "AvailableFormats": "2D",
    "City": "Hyderabad",
    "Latitude": "17.4249",
    "Longitude": "78.5335",
    "RegionCode": "HYD",
    "State": "Telangana",
    "SubRegionCode": "HYD",
    "VenueAddress": "Professors Quarters, Inner Ring Road, Opposite Big Bazaar, Hyderabad, Telangana 500017, India",
    "VenueCode": "ARTH",
    "VenueName": "Aradhana Theatre: Hyderabad"
  },
  "ASCT": {
    "AvailableFormats": "2D",
    "City": "Thodupuzha",
    "Latitude": "9.89105",
    "Longitude": "76.7075",
    "RegionCode": "THOD",
    "State": "Kerala",
    "SubRegionCode": "THOD",
    "VenueAddress": "Near Pvt. Bus Stand, Pala Road, Thodupuzha, Kerala 685584, India",
    "VenueCode": "ASCT",
    "VenueName": "Aashirvad Cineplexx: Thodupuzha"
  },
  "ASLC": {
    "AvailableFormats": "2D",
    "City": "Trivandrum",
    "Latitude": "8.48853",
    "Longitude": "76.9461",
    "RegionCode": "VKAL",
    "State": "Kerala",
    "SubRegionCode": "VKAL",
    "VenueAddress": "Sahodara Samajam Road, near OverBridge, Thampanoor, Thiruvananthapuram, Trivandrum, Kerala 695035, India",
    "VenueCode": "ASLC",
    "VenueName": "Ariesplex SL Cinemas Cinionic Dolby Atmos"
  },
  "ASRG": {
    "AvailableFormats": "2D",
    "City": "Patna",
    "Latitude": "25.6186",
    "Longitude": "85.0469",
    "RegionCode": "PATN",
    "State": "Bihar",
    "SubRegionCode": "PATN",
    "VenueAddress": "6th Floor, Ambition Business Park, Bailey Road, Saguna More, Patna, Bihar 801503, India",
    "VenueCode": "ASRG",
    "VenueName": "ASR Cinemas, RPS More: Patna"
  },
  "ASTK": {
    "AvailableFormats": "2D",
    "City": "Kottayam",
    "Latitude": "9.58609",
    "Longitude": "76.5245",
    "RegionCode": "ETTU",
    "State": "Kerala",
    "SubRegionCode": "ETTU",
    "VenueAddress": "T.B Road, Near Ksrtc Bus Stand, Near Abhilash Theater, Kottayam, Kerala 686001, India",
    "VenueCode": "ASTK",
    "VenueName": "Asha Theatre: Kottayam"
  },
  "ATCK": {
    "AvailableFormats": "3D|2D",
    "City": "Kolkata",
    "Latitude": "22.7641",
    "Longitude": "88.3696",
    "RegionCode": "BARR",
    "State": "West Bengal",
    "SubRegionCode": "BARR",
    "VenueAddress": "91-73, Ghosh Para Road, North 24Pgs, Barrackpore, Near Barrackpore Railway Station, Kolkata, West Bengal 700120, India",
    "VenueCode": "ATCK",
    "VenueName": "Atindra Cinema: Barrackpore"
  },
  "ATPK": {
    "AvailableFormats": "2D",
    "City": "Palakkad",
    "Latitude": "10.7772",
    "Longitude": "76.6532",
    "RegionCode": "PLKK",
    "State": "Kerala",
    "SubRegionCode": "PLKK",
    "VenueAddress": "Priyadarshini Road, Sultanpet, Near Apex Residence, Palakkad, Kerala 678001, India",
    "VenueCode": "ATPK",
    "VenueName": "Aroma Theatre: Palakkad"
  },
  "AUPM": {
    "AvailableFormats": "2D|3D",
    "City": "Nizamabad",
    "Latitude": "18.6642",
    "Longitude": "78.0941",
    "RegionCode": "NIZA",
    "State": "Telangana",
    "SubRegionCode": "NIZA",
    "VenueAddress": "Kotagally, Pedda Bazaar Road, Shivaji Nagar, Near Government High School, Nizamabad, Telangana 503001, India",
    "VenueCode": "AUPM",
    "VenueName": "Asian Usha Prasad Multiplex: Nizamabad"
  },
  "AVSG": {
    "AvailableFormats": "2D",
    "City": "Ghazipur",
    "Latitude": "25.5728",
    "Longitude": "83.5633",
    "RegionCode": "GHAR",
    "State": "Uttar Pradesh",
    "SubRegionCode": "GHAR",
    "VenueAddress": "Above V-Mart Vidhya Complex, Bandhwa Pull, Near - Sichai Vibhag Choraha, Ghazipur, Uttar Pradesh 233001, India",
    "VenueCode": "AVSG",
    "VenueName": "AV Star Cinema: Ghazipur"
  },
  "AYCZ": {
    "AvailableFormats": "2D",
    "City": "Zarap",
    "Latitude": "15.9309",
    "Longitude": "73.756",
    "RegionCode": "ZARA",
    "State": "Maharashtra",
    "SubRegionCode": "ZAEA",
    "VenueAddress": "Zarap Zero Point, Kudal Sindhudurg, Near Nemale Bridge, Zarap, Maharashtra 416510, India",
    "VenueCode": "AYCZ",
    "VenueName": "Aaradhya Cinema: Sawantwadi, Zarap"
  },
  "BASK": {
    "AvailableFormats": "2D",
    "City": "Sivasagar",
    "Latitude": "26.953",
    "Longitude": "94.5718",
    "RegionCode": "SVSG",
    "State": "Assam",
    "SubRegionCode": "SVSG",
    "VenueAddress": "AT Road, Bhatiapar, Near Bhatiapar Petrol Pump, Sivasagar, Assam 785697, India",
    "VenueCode": "BASK",
    "VenueName": "Bhaskarjyoti Cinema: Sivasagar"
  },
  "BBYK": {
    "AvailableFormats": "2D",
    "City": "Kuthuparamba",
    "Latitude": "11.8299",
    "Longitude": "75.5639",
    "RegionCode": "KUTH",
    "State": "Kerala",
    "SubRegionCode": "KUTH",
    "VenueAddress": "Chovva Bypass Road, Kuthuparamba, Kuthuparamba, Kerala 670643, India",
    "VenueCode": "BBYK",
    "VenueName": "Baby Cinemas: Kuthuparamba"
  },
  "BDMA": {
    "AvailableFormats": "2D",
    "City": "Vijayawada",
    "Latitude": "16.5891",
    "Longitude": "80.5189",
    "RegionCode": "KADU",
    "State": "Andhra Pradesh",
    "SubRegionCode": "KADU",
    "VenueAddress": "NH 65, Ibrahimpatnam, Vijayawada, Andhra Pradesh 521456, India",
    "VenueCode": "BDMA",
    "VenueName": "Balaji Iconia A/c 2K Dolby Surround: Ibrahimpatnam"
  },
  "BHEL": {
    "AvailableFormats": "2D",
    "City": "Trichy",
    "Latitude": "10.7695",
    "Longitude": "78.7974",
    "RegionCode": "TRIC",
    "State": "Tamil Nadu",
    "SubRegionCode": "TRIC",
    "VenueAddress": "Kamarajapuram BHEL Township, BHEL Tiruchirappali Complex area,Thiruverumbur,Trichy, Near BHEL Training Center, Trichy, Tamil Nadu 620022, India",
    "VenueCode": "BHEL",
    "VenueName": "BHELEC Cinema A/C Dolby 7.1: Trichy"
  },
  "BJLC": {
    "AvailableFormats": "2D",
    "City": "Kolkata",
    "Latitude": "22.5269",
    "Longitude": "88.3459",
    "RegionCode": "KOLK",
    "State": "West Bengal",
    "SubRegionCode": "KOLK",
    "VenueAddress": "No.39, Shyama Prasad Mukherjee Road, Jatin Das Park, Patuapara, Bhawanipur, Kolkata, West Bengal 700025, India",
    "VenueCode": "BJLC",
    "VenueName": "Bijoli Cinema: Kolkata"
  },
  "BLLD": {
    "AvailableFormats": "2D",
    "City": "Nalbari",
    "Latitude": "26.4544",
    "Longitude": "91.4091",
    "RegionCode": "NALB",
    "State": "Assam",
    "SubRegionCode": "NALB",
    "VenueAddress": "Bella Luna Cinemas, Q Green Hotel 5th Floor, Haripur Highway, Nalbari, Assam 781340, India",
    "VenueCode": "BLLD",
    "VenueName": "Bella Luna Cinemas: Nalbari"
  },
  "BNBA": {
    "AvailableFormats": "2D",
    "City": "Dehradun",
    "Latitude": "30.3329",
    "Longitude": "78.054",
    "RegionCode": "DEH",
    "State": "Uttarakhand",
    "SubRegionCode": "DEH",
    "VenueAddress": "1 Old Survey Road, Crossroads Mall, Dehradun, Uttarakhand 248001, India",
    "VenueCode": "BNBA",
    "VenueName": "Movie Lounge: Crossroads Mall, Dehradun"
  },
  "BSCN": {
    "AvailableFormats": "2D",
    "City": "Nabha",
    "Latitude": "30.3918",
    "Longitude": "76.1195",
    "RegionCode": "NABH",
    "State": "Punjab",
    "SubRegionCode": "NABH",
    "VenueAddress": "Gulldi Gate, Nabha, Nabha-Malerkotla Road, Nabha, Punjab 147201, India",
    "VenueCode": "BSCN",
    "VenueName": "Balraj Cinemas: Nabha"
  },
  "BTDA": {
    "AvailableFormats": "2D",
    "City": "Acharapakkam",
    "Latitude": "12.4071",
    "Longitude": "79.8161",
    "RegionCode": "ACHA",
    "State": "Tamil Nadu",
    "SubRegionCode": "ACHA",
    "VenueAddress": "Periyar Nagar, Acharapakam, Near Abhiram Honda Showroom, Acharapakkam, Tamil Nadu 603301, India",
    "VenueCode": "BTDA",
    "VenueName": "Balaji Theatre A/C Dolby 7.1: Acharapakkam"
  },
  "BWCM": {
    "AvailableFormats": "2D",
    "City": "Georai",
    "Latitude": "19.2639",
    "Longitude": "75.7489",
    "RegionCode": "GEOR",
    "State": "Maharashtra",
    "SubRegionCode": "GEOR",
    "VenueAddress": "S No. 59, Shivaji Complex, Georai Main Road, Shastri Chowk Bus Stand Road, Dist-Beed, Georai, Maharashtra 431127, India",
    "VenueCode": "BWCM",
    "VenueName": "Bhagwati Chitra Mandir: Georai"
  },
  "CBMC": {
    "AvailableFormats": "3D|2D",
    "City": "Chennai",
    "Latitude": "12.9496",
    "Longitude": "80.2403",
    "RegionCode": "CHEN",
    "State": "Tamil Nadu",
    "SubRegionCode": "CHEN",
    "VenueAddress": "BSR Mall, Thoraipakkam, Seevaram, Oggiyamduraipakkam, Chennai, Tamil Nadu 600097, India",
    "VenueCode": "CBMC",
    "VenueName": "Cinepolis: BSR Mall, OMR, Thoraipakkam"
  },
  "CCAZ": {
    "AvailableFormats": "",
    "City": "Kakinada",
    "Latitude": "16.9573",
    "Longitude": "82.2365",
    "RegionCode": "KAKI",
    "State": "Andhra Pradesh",
    "SubRegionCode": "KAKI",
    "VenueAddress": "Cinema Hall Road, Surya Rao Peta, Opposite Municipal office, Kakinada, Andhra Pradesh 533001, India",
    "VenueCode": "CCAZ",
    "VenueName": "Chanakya Complex Screen 1: Kakinada"
  },
  "CCJD": {
    "AvailableFormats": "2D",
    "City": "Jind",
    "Latitude": "29.3152",
    "Longitude": "76.3186",
    "RegionCode": "JIND",
    "State": "Haryana",
    "SubRegionCode": "JIND",
    "VenueAddress": "CSR Cinemas, CSR Mall, Near Rani Talab, Jind, Haryana 126110, India",
    "VenueCode": "CCJD",
    "VenueName": "CSR Cinemas: Jind"
  },
  "CCMH": {
    "AvailableFormats": "2D",
    "City": "Bettiah",
    "Latitude": "26.7985",
    "Longitude": "84.5065",
    "RegionCode": "BETA",
    "State": "Bihar",
    "SubRegionCode": "BETA",
    "VenueAddress": "Citi Centre Mall, 4th Floor, Town Hall Road, Meena Bazar, Bettiah, Bihar 845438, India",
    "VenueCode": "CCMH",
    "VenueName": "Mukta A2 Cinemas: Citi Centre, Bettiah"
  },
  "CCPN": {
    "AvailableFormats": "2D",
    "City": "Pathalgaon",
    "Latitude": "22.5576",
    "Longitude": "83.4644",
    "RegionCode": "PAHT",
    "State": "Chhattisgarh",
    "SubRegionCode": "PAHT",
    "VenueAddress": "C2 Cinemas, 3rd Floor HM Tower, Jashpur Road, Pathalgaon, Chhattisgarh 496118, India",
    "VenueCode": "CCPN",
    "VenueName": "C2 Cinema: Pathalgaon"
  },
  "CCVZ": {
    "AvailableFormats": "2D",
    "City": "Naharlagun",
    "Latitude": "27.0996",
    "Longitude": "93.6858",
    "RegionCode": "NAHA",
    "State": "Arunachal Pradesh",
    "SubRegionCode": "NAHA",
    "VenueAddress": "Carnival Chakang Cinemas, Barapani, Naharlagun, Arunachal Pradesh 791110, India",
    "VenueCode": "CCVZ",
    "VenueName": "C3: Naharlagun"
  },
  "CDTK": {
    "AvailableFormats": "2D",
    "City": "Komarapalayam",
    "Latitude": "11.4349",
    "Longitude": "77.6952",
    "RegionCode": "KOMA",
    "State": "Tamil Nadu",
    "SubRegionCode": "KOMA",
    "VenueAddress": "State Highway 39, KON Theatre Road, Komarapalayam, Tamil Nadu 638183, India",
    "VenueCode": "CDTK",
    "VenueName": "CSM DNC Theatres: Komarapalayam"
  },
  "CETA": {
    "AvailableFormats": "2D",
    "City": "Kochi",
    "Latitude": "9.94854",
    "Longitude": "76.3478",
    "RegionCode": "PALY",
    "State": "Kerala",
    "SubRegionCode": "PALY",
    "VenueAddress": "Central Talkies, Near Old Bus Stand, Tripunithura, Kochi, Kerala 682301, India",
    "VenueCode": "CETA",
    "VenueName": "Central Talkies RGB Laser 4K  3D Dolby Atmos"
  },
  "CGGM": {
    "AvailableFormats": "2D",
    "City": "Kozhikode",
    "Latitude": "11.2581",
    "Longitude": "75.7931",
    "RegionCode": "KOZH",
    "State": "Kerala",
    "SubRegionCode": "KOZH",
    "VenueAddress": "97, Mavoor Road, Arayidathupalam, Near Federal Tower, Kozhikode, Kerala 673016, India",
    "VenueCode": "CGGM",
    "VenueName": "Cinepolis: Gokulam Galleria Mall"
  },
  "CHGV": {
    "AvailableFormats": "2D",
    "City": "Belagavi (Belgaum)",
    "Latitude": "15.8594",
    "Longitude": "74.5122",
    "RegionCode": "BELG",
    "State": "Karnataka",
    "SubRegionCode": "BELG",
    "VenueAddress": "1724/A, Huns Talkies Road, Burud Galli, Nana Shankar Sheth Marg, Ravivar Peth, Near Karur Vysya Bank, Belagavi (Belgaum), Karnataka 590001, India",
    "VenueCode": "CHGV",
    "VenueName": "Chitra Talkies: Belagavi"
  },
  "CHTP": {
    "AvailableFormats": "2D",
    "City": "Manawar",
    "Latitude": "22.2379",
    "Longitude": "75.0863",
    "RegionCode": "MANW",
    "State": "Madhya Pradesh",
    "SubRegionCode": "MANW",
    "VenueAddress": "Singhana Road, Near Punjab National Bank, Manawar, Madhya Pradesh 454446, India",
    "VenueCode": "CHTP",
    "VenueName": "Chaitanya Plaza: Manawar"
  },
  "CIPC": {
    "AvailableFormats": "2D",
    "City": "Mahudha",
    "Latitude": "22.8185",
    "Longitude": "72.9388",
    "RegionCode": "MAHU",
    "State": "Gujarat",
    "SubRegionCode": "MAHU",
    "VenueAddress": "A-1, Kheda Road, Near Mahudha Town Bus Stand, Mahudha, Gujarat 387335, India",
    "VenueCode": "CIPC",
    "VenueName": "City Pulse Cinema: Mahudha"
  },
  "CKSA": {
    "AvailableFormats": "2D",
    "City": "Ahilyanagar (Ahmednagar)",
    "Latitude": "19.0913",
    "Longitude": "74.7454",
    "RegionCode": "AHMED",
    "State": "Maharashtra",
    "SubRegionCode": "AHMED",
    "VenueAddress": "302, 3rd Floor, Biz Bay One, Nagar-Sambhajinagar Road, Near Nagar College Gate, Above Zudio Store, Ahilyanagar (Ahmednagar), Maharashtra 414001, India",
    "VenueCode": "CKSA",
    "VenueName": "Cinelife K Sera Sera: Ahilyanagar"
  },
  "CLKP": {
    "AvailableFormats": "",
    "City": "Patna",
    "Latitude": "25.6025",
    "Longitude": "85.1453",
    "RegionCode": "PATN",
    "State": "Bihar",
    "SubRegionCode": "PATN",
    "VenueAddress": "Avnc lifestyles Nutan Complex, Kankarbagh, Near KKrish Hyundai, Patna, Bihar 800020, India",
    "VenueCode": "CLKP",
    "VenueName": "Connplex Cinemas Luxuriance: Kankarbagh, Patna"
  },
  "CMAU": {
    "AvailableFormats": "2D",
    "City": "Abu Road",
    "Latitude": "24.4982",
    "Longitude": "72.766",
    "RegionCode": "ABRD",
    "State": "Rajasthan",
    "SubRegionCode": "ABRD",
    "VenueAddress": "New Town Housing, Revdar Road, Manpur Rural, Abu Road, Rajasthan 307026, India",
    "VenueCode": "CMAU",
    "VenueName": "Cineplus Multiplex: Abu Road"
  },
  "CMLO": {
    "AvailableFormats": "2D",
    "City": "Cherpulassery",
    "Latitude": "10.8796",
    "Longitude": "76.3103",
    "RegionCode": "CHER",
    "State": "Kerala",
    "SubRegionCode": "CHER",
    "VenueAddress": "Pattambi - Cherpulassery Road, Behind BSNL Exchange, Cherpulassery, Kerala 679503, India",
    "VenueCode": "CMLO",
    "VenueName": "Magic Frames Devi Cinemas: Cherpulassery"
  },
  "CMRM": {
    "AvailableFormats": "",
    "City": "Rewa",
    "Latitude": "24.6463",
    "Longitude": "81.5341",
    "RegionCode": "RWAA",
    "State": "Madhya Pradesh",
    "SubRegionCode": "RWAA",
    "VenueAddress": "Bypass Road Mangawan, Post Office Mangawan, Near Hero Agency, Rewa, Madhya Pradesh 486111, India",
    "VenueCode": "CMRM",
    "VenueName": "Chhotu Maharaj: Rewa,MP"
  },
  "CMVB": {
    "AvailableFormats": "2D",
    "City": "Vikarabad",
    "Latitude": "17.3464",
    "Longitude": "77.9056",
    "RegionCode": "VKBD",
    "State": "Telangana",
    "SubRegionCode": "VKBD",
    "VenueAddress": "Vikarabad - Mominpet Road, Alampally, Near Petrol Pump, Opposite Fathe Garden Function Hall, Vikarabad, Telangana 501101, India",
    "VenueCode": "CMVB",
    "VenueName": "Cinemax: Vikarabad"
  },
  "CNAD": {
    "AvailableFormats": "",
    "City": "Ahmedabad",
    "Latitude": "23.163",
    "Longitude": "72.5399",
    "RegionCode": "AHD",
    "State": "Gujarat",
    "SubRegionCode": "AHD",
    "VenueAddress": "306-308, Center Point, Adani Shantigram Township, Khodiyar, Ahmedabad, Gujarat 382501, India",
    "VenueCode": "CNAD",
    "VenueName": "Connplex Cinemas (Luxuriance): Adani Shantigram"
  },
  "CNFX": {
    "AvailableFormats": "2D",
    "City": "Datia",
    "Latitude": "25.6653",
    "Longitude": "78.4609",
    "RegionCode": "DATI",
    "State": "Madhya Pradesh",
    "SubRegionCode": "DATI",
    "VenueAddress": "National Highway 44 Jhansi road, First floor Ratan mega mall, Near District and sessions court, Datia, Madhya Pradesh 475661, India",
    "VenueCode": "CNFX",
    "VenueName": "Cineflix Cinemas: Datia"
  },
  "CNPS": {
    "AvailableFormats": "3D|2D",
    "City": "Bilaspur",
    "Latitude": "22.071",
    "Longitude": "82.1504",
    "RegionCode": "BILA",
    "State": "Chhattisgarh",
    "SubRegionCode": "BILA",
    "VenueAddress": "4th Floor, Shri Krishna Central Mall, Vinoba Nagar, Bilaspur, Chhattisgarh 495001, India",
    "VenueCode": "CNPS",
    "VenueName": "Connplex Cinemas (Signature) : Bilaspur"
  },
  "CNWE": {
    "AvailableFormats": "2D|IMAX 2D|3D",
    "City": "Pune",
    "Latitude": "18.5625",
    "Longitude": "73.8072",
    "RegionCode": "PUNE",
    "State": "Maharashtra",
    "SubRegionCode": "PUNE",
    "VenueAddress": "5, Gurukul Park Road, Ward No. 8, Wireless Colony, Aundh, Pune, Maharashtra 411007, India",
    "VenueCode": "CNWE",
    "VenueName": "Cinepolis: Nexus WESTEND Mall Aundh, Pune"
  },
  "COPC": {
    "AvailableFormats": "2D",
    "City": "Raisinghnagar",
    "Latitude": "29.5374",
    "Longitude": "73.4503",
    "RegionCode": "RSNG",
    "State": "Rajasthan",
    "SubRegionCode": "RSNG",
    "VenueAddress": "22 PS Road, Near - Raisingnagar railway station, Raisinghnagar, Rajasthan 335051, India",
    "VenueCode": "COPC",
    "VenueName": "Cosmo Palace Cinema: Raisinghnagar"
  },
  "CPCM": {
    "AvailableFormats": "2D|3D",
    "City": "Mangalore",
    "Latitude": "12.8717",
    "Longitude": "74.8425",
    "RegionCode": "MLR",
    "State": "Karnataka",
    "SubRegionCode": "MLR",
    "VenueAddress": "K S Rao Road, Hampankatta, Mangalore, Karnataka 122002, India",
    "VenueCode": "CPCM",
    "VenueName": "Cinepolis: City Centre Mall, Mangaluru"
  },
  "CPIV": {
    "AvailableFormats": "2D|3D",
    "City": "Vadodara",
    "Latitude": "22.3227",
    "Longitude": "73.1662",
    "RegionCode": "VAD",
    "State": "Gujarat",
    "SubRegionCode": "VAD",
    "VenueAddress": "2nd Floor, Inorbit Mall,Nr. Gunjan Tower, Gorwa Road, Gorwa, Opp. Alembic School, Vadodara, Gujarat 390023, India",
    "VenueCode": "CPIV",
    "VenueName": "Cinepolis: Inorbit Vadodara Mall"
  },
  "CPLX": {
    "AvailableFormats": "2D",
    "City": "Jeypore",
    "Latitude": "18.8588",
    "Longitude": "82.5902",
    "RegionCode": "JEYP",
    "State": "Odisha",
    "SubRegionCode": "JEYP",
    "VenueAddress": "Industrial Estate, Jeypore Vizianagaram Road, Jeypore, Odisha 764001, India",
    "VenueCode": "CPLX",
    "VenueName": "Celebration Cineplex: Jeypore"
  },
  "CPOE": {
    "AvailableFormats": "2D",
    "City": "Bengaluru",
    "Latitude": "13.0018",
    "Longitude": "77.6329",
    "RegionCode": "BANG",
    "State": "Karnataka",
    "SubRegionCode": "BANG",
    "VenueAddress": "3rd floor, Orion Avenue Mall, Banasawadi Main Road, Maruti Seva Nagar, Bengaluru, Karnataka 560033, India",
    "VenueCode": "CPOE",
    "VenueName": "Cinepolis: Orion Avenue Mall, Banaswadi"
  },
  "CPSM": {
    "AvailableFormats": "2D",
    "City": "Ahmedabad",
    "Latitude": "23.1045",
    "Longitude": "72.5494",
    "RegionCode": "AHD",
    "State": "Gujarat",
    "SubRegionCode": "AHD",
    "VenueAddress": "Savvy Sawaraj Sports Club, 5th Floor, Vandematram Road, Near Godrej Garden City Road, Ahmedabad, Gujarat 382481, India",
    "VenueCode": "CPSM",
    "VenueName": "Savvy Swaraaj Miniplex: Gota, Ahmedabad"
  },
  "CRGM": {
    "AvailableFormats": "3D|2D",
    "City": "Gurugram (Gurgaon)",
    "Latitude": "28.3833",
    "Longitude": "77.0522",
    "RegionCode": "NCR",
    "State": "NCR",
    "SubRegionCode": "GURG",
    "VenueAddress": "Reach Airia Mall, 3rd Floor Sohna Road, Sector 68, Gurugram (Gurgaon), NCR 122103, India",
    "VenueCode": "CRGM",
    "VenueName": "Cinepolis: Airia Mall, Sohna Road, Gurgaon"
  },
  "CSCT": {
    "AvailableFormats": "2D",
    "City": "Tirupati",
    "Latitude": "13.6385",
    "Longitude": "79.4235",
    "RegionCode": "TIRU",
    "State": "Andhra Pradesh",
    "SubRegionCode": "TIRU",
    "VenueAddress": "RS Gardens, Leela Mahal Road, Tirupati, Andhra Pradesh 517501, India",
    "VenueCode": "CSCT",
    "VenueName": "CS Cinemas (Devendra Theater) A/C 4K Dolby Atmos"
  },
  "CSSA": {
    "AvailableFormats": "2D|3D",
    "City": "Ahilyanagar (Ahmednagar)",
    "Latitude": "19.1192",
    "Longitude": "74.7289",
    "RegionCode": "AHMED",
    "State": "Maharashtra",
    "SubRegionCode": "AHMED",
    "VenueAddress": "3rd Floor, Kohinoor Mall, Premdan Chowk, Opposite Big Bazar, Ahilyanagar (Ahmednagar), Maharashtra 414003, India",
    "VenueCode": "CSSA",
    "VenueName": "Connplex Cinemas: Ahilyanagar"
  },
  "CSTR": {
    "AvailableFormats": "2D",
    "City": "Rajkot",
    "Latitude": "22.276",
    "Longitude": "70.7415",
    "RegionCode": "RAJK",
    "State": "Gujarat",
    "SubRegionCode": "RAJK",
    "VenueAddress": "2nd Ring Road, Serenity Garden Road, Near Valupani restaurant, Rajkot, Gujarat 360004, India",
    "VenueCode": "CSTR",
    "VenueName": "Connplex Cinemas: Rajkot"
  },
  "CTMK": {
    "AvailableFormats": "2D",
    "City": "Korba",
    "Latitude": "22.3424",
    "Longitude": "82.6987",
    "RegionCode": "KRBA",
    "State": "Chhattisgarh",
    "SubRegionCode": "KRBA",
    "VenueAddress": "Purani Basti, Rani Road, Near Hotel Satkar Deluxe, Korba, Chhattisgarh 495677, India",
    "VenueCode": "CTMK",
    "VenueName": "Chitra Cinema: Korba"
  },
  "CTRR": {
    "AvailableFormats": "3D|2D",
    "City": "Mumbai",
    "Latitude": "19.0134",
    "Longitude": "72.8439",
    "RegionCode": "MUMBAI",
    "State": "Maharashtra",
    "SubRegionCode": "MCENT",
    "VenueAddress": "198, Dr. Baba Saheb Ambedkar Road, Dadar East, Mumbai, Maharashtra 400014, India",
    "VenueCode": "CTRR",
    "VenueName": "Chitra Cinema: Dadar (Newly Renovated)"
  },
  "CVDK": {
    "AvailableFormats": "2D|3D",
    "City": "Rajkot",
    "Latitude": "22.264",
    "Longitude": "70.7996",
    "RegionCode": "RAJK",
    "State": "Gujarat",
    "SubRegionCode": "RAJK",
    "VenueAddress": "Vandana Heritage 4th  and 5th Floor, Opposite Atika Railway Crossing, Gondal Road, Rajkot, Gujarat 360004, India",
    "VenueCode": "CVDK",
    "VenueName": "Cinepolis Vandana: Rajkot"
  },
  "CWTK": {
    "AvailableFormats": "2D",
    "City": "Kozhinjampara",
    "Latitude": "10.7368",
    "Longitude": "76.8327",
    "RegionCode": "PLKK",
    "State": "Kerala",
    "SubRegionCode": "PLKK",
    "VenueAddress": "Chittur Road, Near Bus Stand, Kozhinjampara, Kerala 678555, India",
    "VenueCode": "CWTK",
    "VenueName": "Cowmalya Theatre: Kozhinjampara"
  },
  "CYCM": {
    "AvailableFormats": "2D",
    "City": "Ambajogai",
    "Latitude": "18.7127",
    "Longitude": "76.5414",
    "RegionCode": "AMBG",
    "State": "Maharashtra",
    "SubRegionCode": "AMBG",
    "VenueAddress": "Flat no. New Survey No. 16/7, House no 278/279, Karkhana Road, Dist Beed, Jogaiwadi, Ambajogai, Maharashtra 431517, India",
    "VenueCode": "CYCM",
    "VenueName": "Citara Satyam Cinema: Ambajogai"
  },
  "DCAA": {
    "AvailableFormats": "",
    "City": "Barabanki",
    "Latitude": "26.9243",
    "Longitude": "81.1742",
    "RegionCode": "BARK",
    "State": "Uttar Pradesh",
    "SubRegionCode": "BARK",
    "VenueAddress": "Awadh avenue Mall, Awas Vikas Colony, Near RTO office, Barabanki, Uttar Pradesh 225001, India",
    "VenueCode": "DCAA",
    "VenueName": "DD Cinemas Awadh Avenue Mall: Barabanki"
  },
  "DCIN": {
    "AvailableFormats": "2D",
    "City": "Nagaon",
    "Latitude": "26.3528",
    "Longitude": "92.6713",
    "RegionCode": "NAAM",
    "State": "Assam",
    "SubRegionCode": "NAAM",
    "VenueAddress": "Divyajyoti Cinema Hall, Dhing Gate Flyover, Near Haibargaon Railway Station,Nagaon, Assam 782002, India",
    "VenueCode": "DCIN",
    "VenueName": "Divyajyoti Cinema: Nagaon"
  },
  "DCSP": {
    "AvailableFormats": "2D",
    "City": "Perumpuzha",
    "Latitude": "8.942322",
    "Longitude": "76.679475",
    "RegionCode": "PERU",
    "State": "Kerala",
    "SubRegionCode": "PERU",
    "VenueAddress": "Kundara Road, Perumpuzha, Perumpuzha, Kerala 691504, India",
    "VenueCode": "DCSP",
    "VenueName": "Devi Cinemas 4K Dolby Atmos: Perumpuzha Kundara"
  },
  "DEES": {
    "AvailableFormats": "2D",
    "City": "Markapur",
    "Latitude": "15.7435",
    "Longitude": "79.2716",
    "RegionCode": "MARK",
    "State": "Andhra Pradesh",
    "SubRegionCode": "MARK",
    "VenueAddress": "Bharathi Vidya Nikethan Road, Near Viswa Shanthi School Hostel, Markapur, Andhra Pradesh 523316, India",
    "VenueCode": "DEES",
    "VenueName": "Jagadeeswari Theatre A/C 4K Dolby Atmos: Markapur"
  },
  "DGGC": {
    "AvailableFormats": "2D",
    "City": "Goalpara",
    "Latitude": "26.1698",
    "Longitude": "90.6235",
    "RegionCode": "GOAL",
    "State": "Assam",
    "SubRegionCode": "GOAL",
    "VenueAddress": "Above Trends, Pancharatna Road, Near Canara Bank, Goalpara, Assam 783101, India",
    "VenueCode": "DGGC",
    "VenueName": "Diamond Cinema: Goalpara"
  },
  "DLCD": {
    "AvailableFormats": "2D",
    "City": "Itanagar",
    "Latitude": "27.1018",
    "Longitude": "93.6297",
    "RegionCode": "ITNG",
    "State": "Arunachal Pradesh",
    "SubRegionCode": "ITNG",
    "VenueAddress": "AAB Arcade Building, NH 415, Zero Point, Itanagar, Arunachal Pradesh 791111, India",
    "VenueCode": "DLCD",
    "VenueName": "Drodel Cineworld, Zero point: Itanagar"
  },
  "DMKT": {
    "AvailableFormats": "2D",
    "City": "Nagapattinam",
    "Latitude": "10.7691",
    "Longitude": "79.8414",
    "RegionCode": "NGPT",
    "State": "Tamil Nadu",
    "SubRegionCode": "NGPT",
    "VenueAddress": "Public Office Road, ASN Colony, Elancheran Nagar, Nagapattinam, Tamil Nadu 611001, India",
    "VenueCode": "DMKT",
    "VenueName": "Devi Cinemas (Karthik Cinemas) A/C Dolby Atmos"
  },
  "DOMY": {
    "AvailableFormats": "3D|2D",
    "City": "Ayodhya",
    "Latitude": "26.784",
    "Longitude": "82.1443",
    "RegionCode": "FAZA",
    "State": "Uttar Pradesh",
    "SubRegionCode": "FAZA",
    "VenueAddress": "3rd Floor, Mall of Avadh, Ram Path, Ayodhya, Uttar Pradesh 224001, India",
    "VenueCode": "DOMY",
    "VenueName": "Dhishoom Cinemas: Ayodhya"
  },
  "DSTA": {
    "AvailableFormats": "2D",
    "City": "Trivandrum",
    "Latitude": "8.68464",
    "Longitude": "76.8232",
    "RegionCode": "VKAL",
    "State": "Kerala",
    "SubRegionCode": "VKAL",
    "VenueAddress": "Kanyakumari Highway, Panvel Kochi, Near Reliance trends, Trivandrum, Kerala 695103, India",
    "VenueCode": "DSTA",
    "VenueName": "Dreams: Attingal"
  },
  "DTYN": {
    "AvailableFormats": "2D|3D|4DX|IMAX 2D",
    "City": "Noida",
    "Latitude": "28.5673",
    "Longitude": "77.3207",
    "RegionCode": "NCR",
    "State": "NCR",
    "SubRegionCode": "NOIDA",
    "VenueAddress": "DLF Mall of India, 4th floor, C-502, Plot No.3, M-Block, Sector - 18, Noida, NCR 201301, India",
    "VenueCode": "DTYN",
    "VenueName": "PVR: Superplex Mall Of India, Noida"
  },
  "DVRR": {
    "AvailableFormats": "2D",
    "City": "Hyderabad",
    "Latitude": "17.4062",
    "Longitude": "78.4949",
    "RegionCode": "HYD",
    "State": "Telangana",
    "SubRegionCode": "HYD",
    "VenueAddress": "RTC Cross Road, Chikkadpally, Himayatnagar, Near Labour Department, Hyderabad, Telangana 500020, India",
    "VenueCode": "DVRR",
    "VenueName": "Devi 70MM 4K Laser & Dolby Atmos: RTC X Roads"
  },
  "ECMR": {
    "AvailableFormats": "2D",
    "City": "Muzaffarpur",
    "Latitude": "26.1201",
    "Longitude": "85.3888",
    "RegionCode": "MUZA",
    "State": "Bihar",
    "SubRegionCode": "MUZA",
    "VenueAddress": "DRB Palace Mall, 4th Floor, BB Collegiate Lane, Motijheel, Muzaffarpur, Bihar 842001, India",
    "VenueCode": "ECMR",
    "VenueName": "Eylex Cinema: Muzaffarpur"
  },
  "EKCM": {
    "AvailableFormats": "2D",
    "City": "Kusumgram",
    "Latitude": "23.3893",
    "Longitude": "88.1318",
    "RegionCode": "KKKL",
    "State": "West Bengal",
    "SubRegionCode": "KKKL",
    "VenueAddress": "SH 8, Kusumgram, Belgram Bolgona Kalna Road, Opposite Bandhan Bank, Kusumgram, West Bengal 713422, India",
    "VenueCode": "EKCM",
    "VenueName": "Ekta Manch: Kusumgram"
  },
  "EOSE": {
    "AvailableFormats": "2D|3D",
    "City": "Shahdol",
    "Latitude": "23.2961",
    "Longitude": "81.3732",
    "RegionCode": "SHAH",
    "State": "Madhya Pradesh",
    "SubRegionCode": "SHAH",
    "VenueAddress": "K Square Mall, MP SH 9A, Bhatnagar, Budhar Main Road, Shahdol, Madhya Pradesh 484001, India",
    "VenueCode": "EOSE",
    "VenueName": "K-Square Cinemas: Shahdol"
  },
  "ESSH": {
    "AvailableFormats": "2D",
    "City": "Hisar",
    "Latitude": "29.1543",
    "Longitude": "75.7222",
    "RegionCode": "HISR",
    "State": "Haryana",
    "SubRegionCode": "HISR",
    "VenueAddress": "Railway Road, Mehta Nagar, Rampura Mohalla, Hisar, Haryana 125001, India",
    "VenueCode": "ESSH",
    "VenueName": "Elite Cinema: Hisar"
  },
  "EVMM": {
    "AvailableFormats": "2D",
    "City": "Adimali",
    "Latitude": "10.014",
    "Longitude": "76.9541",
    "RegionCode": "ADIM",
    "State": "Kerala",
    "SubRegionCode": "ADIM",
    "VenueAddress": "National Highway 85, Adimaly, Near Thaluk Hospital, Adimali, Kerala 685561, India",
    "VenueCode": "EVMM",
    "VenueName": "EVM Matha Cinema: Adimali"
  },
  "FCLK": {
    "AvailableFormats": "2D",
    "City": "Lakhimpur Kheri",
    "Latitude": "27.9286",
    "Longitude": "80.7807",
    "RegionCode": "LKPK",
    "State": "Uttar Pradesh",
    "SubRegionCode": "LKPK",
    "VenueAddress": "Maharaj Nagar, LRP Road, Fun Mall, Lakhimpur Kheri, Uttar Pradesh 262701, India",
    "VenueCode": "FCLK",
    "VenueName": "Fun Cinemas: Lakhimpur Kheri"
  },
  "FMCN": {
    "AvailableFormats": "2D",
    "City": "Chennai",
    "Latitude": "13.0476",
    "Longitude": "80.1904",
    "RegionCode": "CHEN",
    "State": "Tamil Nadu",
    "SubRegionCode": "CHEN",
    "VenueAddress": "Chandra Metro Mall, Arcot Road, Aranganathan Nagar, Valasaravakkam, Near Mega Mart, Chennai, Tamil Nadu 600092, India",
    "VenueCode": "FMCN",
    "VenueName": "INOX National: Arcot Road"
  },
  "FMOT": {
    "AvailableFormats": "2D",
    "City": "Thrissur",
    "Latitude": "10.4869",
    "Longitude": "76.2386",
    "RegionCode": "MANR",
    "State": "Kerala",
    "SubRegionCode": "MANR",
    "VenueAddress": "Bus Stop, Company Padi, High Road, Christopher, Ollur, Thrissur, Near Ollur Town Cooperative Society Ltd, Thrissur, Kerala 680306, India",
    "VenueCode": "FMOT",
    "VenueName": "Fun Movies: Thrissur"
  },
  "FNCH": {
    "AvailableFormats": "2D|3D",
    "City": "Chandigarh",
    "Latitude": "30.713",
    "Longitude": "76.8447",
    "RegionCode": "CHD",
    "State": "Chandigarh",
    "SubRegionCode": "CHD",
    "VenueAddress": "Dhillon Complex, Mani Majra, Chandigarh, Chandigarh 160101, India",
    "VenueCode": "FNCH",
    "VenueName": "Fun Cinemas: Republic Mall, Chandigarh"
  },
  "FNLN": {
    "AvailableFormats": "3D|2D",
    "City": "Delhi",
    "Latitude": "28.6373",
    "Longitude": "77.2858",
    "RegionCode": "NCR",
    "State": "NCR",
    "SubRegionCode": "DELHI",
    "VenueAddress": "East Centre, Plot No-10, Main Vikas Marg, District Centre, Laxminagar, Delhi, NCR 110092, India",
    "VenueCode": "FNLN",
    "VenueName": "Cinepolis: V3S Mall, Laxmi Nagar"
  },
  "FRPU": {
    "AvailableFormats": "2D",
    "City": "Patran",
    "Latitude": "29.9458",
    "Longitude": "76.0642",
    "RegionCode": "PATR",
    "State": "Punjab",
    "SubRegionCode": "PATR",
    "VenueAddress": "Narwana Bye Pass Road, Patiala, Patran, Punjab 147105, India",
    "VenueCode": "FRPU",
    "VenueName": "Om Jee Cinemas: Patran"
  },
  "FVPN": {
    "AvailableFormats": "2D",
    "City": "Vadodara",
    "Latitude": "22.2892",
    "Longitude": "73.2096",
    "RegionCode": "ANKV",
    "State": "Gujarat",
    "SubRegionCode": "ANKV",
    "VenueAddress": "9/10,Pratapnagar Road, Pratapnagar, Bhatia Chawl, Opposite Yogini Vasantdevi Hospital,Moghul Wada, Vadodara, Gujarat 390004, India",
    "VenueCode": "FVPN",
    "VenueName": "Cinemarc Vihar: Pratapnagar"
  },
  "GAJK": {
    "AvailableFormats": "2D",
    "City": "Khamgaon",
    "Latitude": "20.7055",
    "Longitude": "76.5675",
    "RegionCode": "KHMG",
    "State": "Maharashtra",
    "SubRegionCode": "KHMG",
    "VenueAddress": "Gandhi Chowk, Jagdamba Mata Marg, Opposite Congress Office, Khamgaon, Maharashtra 444303, India",
    "VenueCode": "GAJK",
    "VenueName": "Gajanan Talkies: Khamgaon"
  },
  "GBCT": {
    "AvailableFormats": "2D",
    "City": "Nalbari",
    "Latitude": "26.4765",
    "Longitude": "91.2709",
    "RegionCode": "NALB",
    "State": "Assam",
    "SubRegionCode": "NALB",
    "VenueAddress": "Gandhi Bhavan Road, Tihu, Nalbari, Nalbari, Assam 781371, India",
    "VenueCode": "GBCT",
    "VenueName": "Gandhi Bhawan Cinema Hall: Tihu"
  },
  "GCCP": {
    "AvailableFormats": "2D",
    "City": "Dharpur",
    "Latitude": "23.8439",
    "Longitude": "72.1881",
    "RegionCode": "DUUU",
    "State": "Gujarat",
    "SubRegionCode": "DUUU",
    "VenueAddress": "Ahmedabad - Patan Highway Road, Near Civil Hospital, Near GMRS,Patan, Dharpur, Gujarat 384265, India",
    "VenueCode": "GCCP",
    "VenueName": "Grandex Cinemas: Patan"
  },
  "GCIC": {
    "AvailableFormats": "2D",
    "City": "Ichalkaranji",
    "Latitude": "16.6985",
    "Longitude": "74.4577",
    "RegionCode": "ICHL",
    "State": "Maharashtra",
    "SubRegionCode": "ICHL",
    "VenueAddress": "Station Road, Vikash Nagar, Ichalkaranji, Maharashtra 416115, India",
    "VenueCode": "GCIC",
    "VenueName": "Guru Chitramandir: Ichalkaranji"
  },
  "GCMJ": {
    "AvailableFormats": "2D|3D",
    "City": "Jaipur",
    "Latitude": "26.8563",
    "Longitude": "75.8059",
    "RegionCode": "JAIP",
    "State": "Rajasthan",
    "SubRegionCode": "JAIP",
    "VenueAddress": "4th Floor, G.T Central Mall, Plot No.4, Indira Palace, Malviya Nagar, Jaipur, Rajasthan 302017, India",
    "VenueCode": "GCMJ",
    "VenueName": "INOX: GT Central Mall, Jaipur"
  },
  "GCSG": {
    "AvailableFormats": "2D",
    "City": "Similiguda",
    "Latitude": "18.7059",
    "Longitude": "82.8506",
    "RegionCode": "SIMI",
    "State": "Odisha",
    "SubRegionCode": "SIMI",
    "VenueAddress": "Himgiri Nagar, Koraput, Near State Bank of India, Similiguda, Odisha 764036, India",
    "VenueCode": "GCSG",
    "VenueName": "Galaxy Cinema: Semiliguda"
  },
  "GDBR": {
    "AvailableFormats": "2D",
    "City": "Beawar",
    "Latitude": "26.1053",
    "Longitude": "74.3131",
    "RegionCode": "BEAW",
    "State": "Rajasthan",
    "SubRegionCode": "BEAW",
    "VenueAddress": "8/12, Modi City Centre, Station Road, Beawar, Rajasthan 305901, India",
    "VenueCode": "GDBR",
    "VenueName": "Gold Cinema: Beawar"
  },
  "GDKA": {
    "AvailableFormats": "2D",
    "City": "Kota",
    "Latitude": "25.1683",
    "Longitude": "75.8532",
    "RegionCode": "KOTA",
    "State": "Rajasthan",
    "SubRegionCode": "KOTA",
    "VenueAddress": "Aakash Multiplex, Aerodrome Circle, New Grain Mandi,Kota, Rajasthan 324007, India",
    "VenueCode": "GDKA",
    "VenueName": "Gold Cinema: Kota"
  },
  "GEPL": {
    "AvailableFormats": "2D",
    "City": "Kakinada",
    "Latitude": "16.9703",
    "Longitude": "82.2374",
    "RegionCode": "KAKI",
    "State": "Andhra Pradesh",
    "SubRegionCode": "KAKI",
    "VenueAddress": "Bhanugudi Junction, Kondayya Palem, Kakinada, Andhra Pradesh 533003, India",
    "VenueCode": "GEPL",
    "VenueName": "GEPL Padmapriya Sripriya: Kakinada"
  },
  "GGMC": {
    "AvailableFormats": "2D",
    "City": "Hanumangarh",
    "Latitude": "29.6216",
    "Longitude": "74.2862",
    "RegionCode": "HNMG",
    "State": "Rajasthan",
    "SubRegionCode": "HNMG",
    "VenueAddress": "Rajasthan State, Shopat Singh Marg, Model Town, Hanumangarh, Rajasthan 335512, India",
    "VenueCode": "GGMC",
    "VenueName": "Prime Cinemas Shiv Mandir: Hanumangarh"
  },
  "GKGM": {
    "AvailableFormats": "2D",
    "City": "Chennai",
    "Latitude": "12.5131",
    "Longitude": "79.8845",
    "RegionCode": "CHEN",
    "State": "Tamil Nadu",
    "SubRegionCode": "CHEN",
    "VenueAddress": "Chennai - Theni Highway, Maduranthakam, Chennai, Tamil Nadu 603306, India",
    "VenueCode": "GKGM",
    "VenueName": "Gayathiri Cinemas A/C Dolby Atmos: Maduranthakam"
  },
  "GMGX": {
    "AvailableFormats": "2D",
    "City": "Ghaziabad",
    "Latitude": "28.6549",
    "Longitude": "77.3452",
    "RegionCode": "MRDG",
    "State": "NCR",
    "SubRegionCode": "MRDG",
    "VenueAddress": "Galaxie Mall, Local Road for JILIT Ltd, Sahibabad, Madan Mohan Malviya Marg, Sahibabad Industrial Area Site 4, Opposite Gulmohar Grand, Ghaziabad, NCR 201010, India",
    "VenueCode": "GMGX",
    "VenueName": "Galaxie Multiplex: Ghaziabad"
  },
  "GPAM": {
    "AvailableFormats": "2D",
    "City": "Bengaluru",
    "Latitude": "12.9359",
    "Longitude": "77.5176",
    "RegionCode": "HOKT",
    "State": "Karnataka",
    "SubRegionCode": "HOKT",
    "VenueAddress": "Arcade Mall, Rajarajeshwari Nagar, Opposite The Club Mysore Road, Bengaluru, Karnataka 560098, India",
    "VenueCode": "GPAM",
    "VenueName": "Gopalan Cinemas: Arcade Mall, Mysore Road"
  },
  "GPSM": {
    "AvailableFormats": "2D",
    "City": "Bengaluru",
    "Latitude": "12.9933",
    "Longitude": "77.6621",
    "RegionCode": "HOKT",
    "State": "Karnataka",
    "SubRegionCode": "HOKT",
    "VenueAddress": "4th Floor, Gopalan Signature Mall, Old Madras Road, Rajana Colony, C V Raman Nagar, Bengaluru, Karnataka 560093, India",
    "VenueCode": "GPSM",
    "VenueName": "Gopalan Miniplex: Signature Mall, Old Madras Road"
  },
  "GSER": {
    "AvailableFormats": "2D",
    "City": "Sri Ganganagar",
    "Latitude": "29.8695",
    "Longitude": "73.8756",
    "RegionCode": "SRIG",
    "State": "Rajasthan",
    "SubRegionCode": "SRIG",
    "VenueAddress": "Shreenath Enclave, Suratgarh Road, NH62, Sri Ganganagar, Rajasthan 335001, India",
    "VenueCode": "GSER",
    "VenueName": "Gold Cinema:NH-62 Shreenath Enclave,Sri Ganganagar"
  },
  "GTEE": {
    "AvailableFormats": "2D",
    "City": "Nagpur",
    "Latitude": "21.2155",
    "Longitude": "79.1947",
    "RegionCode": "NAGP",
    "State": "Maharashtra",
    "SubRegionCode": "NAGP",
    "VenueAddress": "Near Swank Agarbatti, Husainabad, Shiv Panchayat Nagar, Nagpur, Maharashtra 441001, India",
    "VenueCode": "GTEE",
    "VenueName": "Goyal Talkies: Kamptee"
  },
  "GTUR": {
    "AvailableFormats": "2D",
    "City": "Tezpur",
    "Latitude": "26.6311",
    "Longitude": "92.8103",
    "RegionCode": "TEZP",
    "State": "Assam",
    "SubRegionCode": "TEZP",
    "VenueAddress": "Arhaans Royal Sensation, Barikachuburi, Near LGBRIMH New Gate, Ex Police Line Road, Tezpur, Assam 784001, India",
    "VenueCode": "GTUR",
    "VenueName": "Gold Cinema: Tezpur"
  },
  "GYBU": {
    "AvailableFormats": "2D|3D",
    "City": "Bengaluru",
    "Latitude": "13.0977",
    "Longitude": "77.5839",
    "RegionCode": "HOKT",
    "State": "Karnataka",
    "SubRegionCode": "HOKT",
    "VenueAddress": "INOX Leisure Ltd, 4th Floor, Garuda Yelahanka, 1st A Main Road, Yelahanka New Town, Bengaluru, Karnataka 560064, India",
    "VenueCode": "GYBU",
    "VenueName": "INOX: Garuda Yelahanka, Bengaluru"
  },
  "HCAJ": {
    "AvailableFormats": "2D",
    "City": "Jewar",
    "Latitude": "28.1206",
    "Longitude": "77.5563",
    "RegionCode": "JEWR",
    "State": "Uttar Pradesh",
    "SubRegionCode": "JEWR",
    "VenueAddress": "Amba Mall, Goyal Bhawan, Khurja Road, Noida, Opposite HDFC Bank, Jewar, Uttar Pradesh 203135, India",
    "VenueCode": "HCAJ",
    "VenueName": "Amba Cineplex: Jewar"
  },
  "HILC": {
    "AvailableFormats": "2D",
    "City": "Renukoot",
    "Latitude": "24.2144",
    "Longitude": "83.0364",
    "RegionCode": "RENU",
    "State": "Uttar Pradesh",
    "SubRegionCode": "RENU",
    "VenueAddress": "Hindalco Colony, Opp. Ramleela ground, Birla Market, Renukoot, Uttar Pradesh 231217, India",
    "VenueCode": "HILC",
    "VenueName": "HIL Cinema: Renukoot"
  },
  "HSTK": {
    "AvailableFormats": "2D",
    "City": "Trivandrum",
    "Latitude": "8.58223",
    "Longitude": "76.8612",
    "RegionCode": "VKAL",
    "State": "Kerala",
    "SubRegionCode": "VKAL",
    "VenueAddress": "Vettur Road, Kazhakootam, Trivandrum, Kerala 695301, India",
    "VenueCode": "HSTK",
    "VenueName": "Harisree Theatre 4K 3D Dolby 7.1: Kazhakkoottam"
  },
  "ICCM": {
    "AvailableFormats": "2D|3D",
    "City": "Mysuru (Mysore)",
    "Latitude": "12.3098",
    "Longitude": "76.6585",
    "RegionCode": "MYS",
    "State": "Karnataka",
    "SubRegionCode": "MYS",
    "VenueAddress": "INOX Leisure Ltd, 3rd Floor, Centro, Bangalore-Nilgiri Road, Mysuru (Mysore), Karnataka 570001, India",
    "VenueCode": "ICCM",
    "VenueName": "INOX: Centro, Mysore"
  },
  "IGAM": {
    "AvailableFormats": "2D|3D",
    "City": "Gurugram (Gurgaon)",
    "Latitude": "28.4453",
    "Longitude": "77.0811",
    "RegionCode": "NCR",
    "State": "NCR",
    "SubRegionCode": "GURG",
    "VenueAddress": "4th Floor, Ardee Mall, Ardee City, Sector 52, Gurugram, Haryana, Gurugram (Gurgaon), NCR 122003, India",
    "VenueCode": "IGAM",
    "VenueName": "INOX: Ardee Mall, Gurugram"
  },
  "IMCM": {
    "AvailableFormats": "2D|3D",
    "City": "Mumbai",
    "Latitude": "18.943",
    "Longitude": "72.8289",
    "RegionCode": "MUMBAI",
    "State": "Maharashtra",
    "SubRegionCode": "MCENT",
    "VenueAddress": "M.G.Road, Dhobitalao Junction, Mumbai, Maharashtra 400020, India",
    "VenueCode": "IMCM",
    "VenueName": "Metro INOX Cinemas: Marine Lines"
  },
  "IMXS": {
    "AvailableFormats": "2D",
    "City": "Surajpur",
    "Latitude": "23.3911",
    "Longitude": "82.8491",
    "RegionCode": "BSRM",
    "State": "Chhattisgarh",
    "SubRegionCode": "BSRM",
    "VenueAddress": "Bhaiyathan Road, In front of Sarnapara Chowk, Gram Parri, Surajpur, Chhattisgarh 497229, India",
    "VenueCode": "IMXS",
    "VenueName": "IMAXX Multiplex: Surajpur"
  },
  "INBG": {
    "AvailableFormats": "2D|3D",
    "City": "Bengaluru",
    "Latitude": "12.9705",
    "Longitude": "77.61",
    "RegionCode": "HOKT",
    "State": "Karnataka",
    "SubRegionCode": "HOKT",
    "VenueAddress": "4th Floor, Garuda Mall, Magrath Road, Bengaluru, Karnataka 560025, India",
    "VenueCode": "INBG",
    "VenueName": "INOX: Garuda Mall, Magrath Road"
  },
  "INCM": {
    "AvailableFormats": "2D",
    "City": "Vizag (Visakhapatnam)",
    "Latitude": "17.7341",
    "Longitude": "83.3182",
    "RegionCode": "SABB",
    "State": "Andhra Pradesh",
    "SubRegionCode": "SABB",
    "VenueAddress": "Survey No. 67, 3rd Floor, CMR Central, Maddilapalem, Dwaraka Nagar, Vizag, Andhra Pradesh 530013, India",
    "VenueCode": "INCM",
    "VenueName": "INOX: CMR Central, Maddilapalem"
  },
  "INGM": {
    "AvailableFormats": "2D|3D",
    "City": "Bhiwadi",
    "Latitude": "28.1915",
    "Longitude": "76.8137",
    "RegionCode": "REWA",
    "State": "Rajasthan",
    "SubRegionCode": "REWA",
    "VenueAddress": "3rd Floor, Genesis Mall, Alwar Bhiwadi Highway, Bhiwadi, Rajasthan 301019, India",
    "VenueCode": "INGM",
    "VenueName": "INOX: Bhiwadi Genesis Mall"
  },
  "INKO": {
    "AvailableFormats": "3D|2D",
    "City": "Thane",
    "Latitude": "19.2032",
    "Longitude": "72.9649",
    "RegionCode": "MUMBAI",
    "State": "Maharashtra",
    "SubRegionCode": "THNE",
    "VenueAddress": "3rd Floor, Korum Mall, Mangal Pandey Road Thane West, Off Eastern Express Highway, Thane, Maharashtra 400606, India",
    "VenueCode": "INKO",
    "VenueName": "INOX: Korum Mall, Eastern Express Highway, Thane"
  },
  "INNS": {
    "AvailableFormats": "2D|3D",
    "City": "Bhubaneswar",
    "Latitude": "20.323",
    "Longitude": "85.8817",
    "RegionCode": "BHUB",
    "State": "Odisha",
    "SubRegionCode": "BHUB",
    "VenueAddress": "Plot No.149 Rudrapur NH16, Near Reliance Trends, Bhubaneswar, Odisha 752101, India",
    "VenueCode": "INNS",
    "VenueName": "INOX: Symphony Mall"
  },
  "INPR": {
    "AvailableFormats": "2D|3D|IMAX 2D",
    "City": "Chennai",
    "Latitude": "12.9921",
    "Longitude": "80.2172",
    "RegionCode": "CHEN",
    "State": "Tamil Nadu",
    "SubRegionCode": "CHEN",
    "VenueAddress": "Formerly Jazz Cinemas, 2nd Floor, Phoenix Market City, Velachery Main Road, Velachery, Chennai, Tamil Nadu 600042, India",
    "VenueCode": "INPR",
    "VenueName": "INOX: LUXE Phoenix Market City, Velachery"
  },
  "INRP": {
    "AvailableFormats": "3D|2D",
    "City": "Raipur",
    "Latitude": "21.2364",
    "Longitude": "81.6856",
    "RegionCode": "RAIPUR",
    "State": "Chhattisgarh",
    "SubRegionCode": "RAIPUR",
    "VenueAddress": "3rd Floor, City Mall 36, Great Eastern Road, NH-6, Vishal Nagar, Raipur, Chhattisgarh 492001, India",
    "VenueCode": "INRP",
    "VenueName": "INOX: City Mall 36, G E Road"
  },
  "INSR": {
    "AvailableFormats": "2D|3D",
    "City": "Siliguri",
    "Latitude": "26.725",
    "Longitude": "88.3954",
    "RegionCode": "SILI",
    "State": "West Bengal",
    "SubRegionCode": "SILI",
    "VenueAddress": "2nd floor, City Centre Mall, Matigara, Siliguri, West Bengal 734010, India",
    "VenueCode": "INSR",
    "VenueName": "INOX: City Centre, Siliguri"
  },
  "INVD": {
    "AvailableFormats": "2D|3D",
    "City": "Vadodara",
    "Latitude": "22.3131",
    "Longitude": "73.1579",
    "RegionCode": "VAD",
    "State": "Gujarat",
    "SubRegionCode": "VAD",
    "VenueAddress": "Race Course Road, Gopal Baug, Ellora Park, Vadodara, Gujarat 390007, India",
    "VenueCode": "INVD",
    "VenueName": "INOX: Race Course Circle"
  },
  "INZD": {
    "AvailableFormats": "2D",
    "City": "Zirakpur",
    "Latitude": "30.6199",
    "Longitude": "76.8231",
    "RegionCode": "CHD",
    "State": "Punjab",
    "SubRegionCode": "ZRIK",
    "VenueAddress": "INOX Leisure Ltd, 2nd Floor, Dhillon Square Mall, Chhatbir Road, Chandigarh - Ambala Highway, Zirakpur, Zirakpur, Punjab 140603, India",
    "VenueCode": "INZD",
    "VenueName": "INOX: Dhillon Plaza (Zirakpur)"
  },
  "IPBG": {
    "AvailableFormats": "2D|3D",
    "City": "Navi Mumbai",
    "Latitude": "19.0853",
    "Longitude": "73.0076",
    "RegionCode": "MUMBAI",
    "State": "Maharashtra",
    "SubRegionCode": "THAN",
    "VenueAddress": "INOX Leisure Ltd, Plot No.17, Palm Beach Galleria Mall, Sector 19D, Palm Beach Road, Vashi, Navi Mumbai, Maharashtra 400703, India",
    "VenueCode": "IPBG",
    "VenueName": "INOX: Palm Beach Galleria Mall, Navi Mumbai"
  },
  "IRGT": {
    "AvailableFormats": "2D|3D",
    "City": "Thane",
    "Latitude": "19.2304",
    "Longitude": "72.9774",
    "RegionCode": "MUMBAI",
    "State": "Maharashtra",
    "SubRegionCode": "THNE",
    "VenueAddress": "3rd Floor, R Mall,Ghodbunder Road, Opposite Lokim Company, Dokali Pada, Dhokali, Thane West, Thane, Maharashtra 400607, India",
    "VenueCode": "IRGT",
    "VenueName": "INOX: Insignia at R Mall, Thane"
  },
  "ISTJ": {
    "AvailableFormats": "2D|3D",
    "City": "Jaipur",
    "Latitude": "26.8768",
    "Longitude": "75.7608",
    "RegionCode": "JAIP",
    "State": "Rajasthan",
    "SubRegionCode": "JAIP",
    "VenueAddress": "Sunny Trade Center, 3rd Floor, New Aatish Market, Jaipur, Rajasthan 302020, India",
    "VenueCode": "ISTJ",
    "VenueName": "INOX: Sunny Trade Center, Jaipur"
  },
  "JACS": {
    "AvailableFormats": "2D",
    "City": "Madurai",
    "Latitude": "9.92872",
    "Longitude": "78.1488",
    "RegionCode": "MADU",
    "State": "Tamil Nadu",
    "SubRegionCode": "MADU",
    "VenueAddress": "5, 80 Feet Road, Deputy Collector Colony, k.k.Nagar, Madurai, Tamil Nadu 625020, India",
    "VenueCode": "JACS",
    "VenueName": "Jazz And Arsh Cinemas A/C Sony 4K: Madurai"
  },
  "JCCB": {
    "AvailableFormats": "2D|3D",
    "City": "Cooch Behar",
    "Latitude": "26.3451",
    "Longitude": "89.4559",
    "RegionCode": "COBE",
    "State": "West Bengal",
    "SubRegionCode": "COBE",
    "VenueAddress": "City Mall, Near 133 KVA Electric Substation, East Khagrabari, New Cooch Behar Road, Cooch Behar, West Bengal 736179, India",
    "VenueCode": "JCCB",
    "VenueName": "Jaya Cinemas, City Mall: Cooch Behar"
  },
  "JCRJ": {
    "AvailableFormats": "2D",
    "City": "Jamnagar",
    "Latitude": "22.4451",
    "Longitude": "70.1166",
    "RegionCode": "JAM",
    "State": "Gujarat",
    "SubRegionCode": "JAM",
    "VenueAddress": "JCR Drive-In Cinema, Theba Chokdi, Jamnagar-Dwarka Bypass Road, Jamnagar, Gujarat 361120, India",
    "VenueCode": "JCRJ",
    "VenueName": "JCR Drive-In Cinema: Jamnagar, Gujarat"
  },
  "JHCJ": {
    "AvailableFormats": "2D",
    "City": "Jagdalpur",
    "Latitude": "19.0847",
    "Longitude": "82.0287",
    "RegionCode": "JAGD",
    "State": "Chhattisgarh",
    "SubRegionCode": "JAGD",
    "VenueAddress": "Balaji Ward, Suncity, Near Bank Of Baroda, Jagdalpur, Chhattisgarh 494001, India",
    "VenueCode": "JHCJ",
    "VenueName": "Jhankar Cinema: Jagdalpur"
  },
  "JKKC": {
    "AvailableFormats": "2D",
    "City": "Viralimalai",
    "Latitude": "10.5971",
    "Longitude": "78.544",
    "RegionCode": "PUDH",
    "State": "Tamil Nadu",
    "SubRegionCode": "PUDH",
    "VenueAddress": "Maduraimain Road, Viralimalai , Pudukottai, Viralimalai, Tamil Nadu 621316, India",
    "VenueCode": "JKKC",
    "VenueName": "Jothi Theatre A/C 4K 7.1 (Viralimalai): Trichy"
  },
  "JMNP": {
    "AvailableFormats": "2D",
    "City": "Podalakur",
    "Latitude": "14.3866",
    "Longitude": "79.7334",
    "RegionCode": "PODA",
    "State": "Andhra Pradesh",
    "SubRegionCode": "PODA",
    "VenueAddress": "Kanigiri - Tirupathi Road, Near Vani Nursing Home, Podalakur, Andhra Pradesh 524409, India",
    "VenueCode": "JMNP",
    "VenueName": "Jamuna Complex: Podalakur"
  },
  "JSCH": {
    "AvailableFormats": "",
    "City": "Haldwani",
    "Latitude": "29.2267",
    "Longitude": "79.4217",
    "RegionCode": "HALD",
    "State": "Uttarakhand",
    "SubRegionCode": "HALD",
    "VenueAddress": "JAGS City Mall, Naripur, Lamachaur Khas, Near Amrapali University, Haldwani, Uttarakhand 263139, India",
    "VenueCode": "JSCH",
    "VenueName": "Jags Cinema: Haldwani"
  },
  "JTJL": {
    "AvailableFormats": "2D",
    "City": "Edlapadu",
    "Latitude": "16.1719",
    "Longitude": "80.2287",
    "RegionCode": "EDLP",
    "State": "Andhra Pradesh",
    "SubRegionCode": "EDLP",
    "VenueAddress": "NH 16, Chennai - Srikakualm Highway, Near Virinchi Gardens, Edlapadu, Andhra Pradesh 522233, India",
    "VenueCode": "JTJL",
    "VenueName": "Jayalakshmi Movie Land: Edlapadu"
  },
  "JTNR": {
    "AvailableFormats": "2D",
    "City": "Nagpur",
    "Latitude": "21.1446",
    "Longitude": "79.0903",
    "RegionCode": "NAGP",
    "State": "Maharashtra",
    "SubRegionCode": "NAGP",
    "VenueAddress": "Subhash Road, Cotton Market, Ganeshpeth Colony, Nagpur, Maharashtra 440018, India",
    "VenueCode": "JTNR",
    "VenueName": "Jayshree Cineplex: Nagpur"
  },
  "JTSN": {
    "AvailableFormats": "2D",
    "City": "Medarametla",
    "Latitude": "15.7221",
    "Longitude": "80.0159",
    "RegionCode": "MDRM",
    "State": "Andhra Pradesh",
    "SubRegionCode": "MDRM",
    "VenueAddress": "Main Road, Near Indian Bank, Medarametla, Andhra Pradesh 523212, India",
    "VenueCode": "JTSN",
    "VenueName": "Sri Narayana Chitralaya: Medarametla"
  },
  "JVCM": {
    "AvailableFormats": "",
    "City": "Mathura",
    "Latitude": "27.383",
    "Longitude": "77.6911",
    "RegionCode": "MATH",
    "State": "Uttar Pradesh",
    "SubRegionCode": "MATH",
    "VenueAddress": "Site-B, Plot no. C-1 B, CITY HUB MALL, Opposite Refinery Mathura Industrial Area Site-A, Mathura, Uttar Pradesh 281004, India",
    "VenueCode": "JVCM",
    "VenueName": "JV Cinemas: Mathura Refinery"
  },
  "JYYN": {
    "AvailableFormats": "2D",
    "City": "Nagpur",
    "Latitude": "21.1415",
    "Longitude": "79.0833",
    "RegionCode": "NAGP",
    "State": "Maharashtra",
    "SubRegionCode": "NAGP",
    "VenueAddress": "Abhyankar Marg, Sitabuldi, Near Maharashtra Bank, Nagpur, Maharashtra 440012, India",
    "VenueCode": "JYYN",
    "VenueName": "Janki Theatre (2K Laser,5.1 Dolby): Sitabuldi"
  },
  "KASR": {
    "AvailableFormats": "2D",
    "City": "Sarni",
    "Latitude": "22.1044",
    "Longitude": "78.1665",
    "RegionCode": "SARN",
    "State": "Madhya Pradesh",
    "SubRegionCode": "SARN",
    "VenueAddress": "Near Nagar Palika, Sarni, Near Sami Bus Stand, Sarni, Madhya Pradesh 460447, India",
    "VenueCode": "KASR",
    "VenueName": "Kantishiva Cinemas: Sarni"
  },
  "KCCA": {
    "AvailableFormats": "2D",
    "City": "Goalpara",
    "Latitude": "26.1752",
    "Longitude": "90.6195",
    "RegionCode": "GOAL",
    "State": "Assam",
    "SubRegionCode": "GOAL",
    "VenueAddress": "Pancharatna Road, Near Kim Photostate Center, Goalpara, Assam 783101, India",
    "VenueCode": "KCCA",
    "VenueName": "Kalpana Cinema: Goalpara"
  },
  "KCMR": {
    "AvailableFormats": "2D",
    "City": "Udgir",
    "Latitude": "18.3814",
    "Longitude": "77.1251",
    "RegionCode": "UDGR",
    "State": "Maharashtra",
    "SubRegionCode": "UDGR",
    "VenueAddress": "Shelhal Road, Vikas Nagar, Udgir, Maharashtra 413517, India",
    "VenueCode": "KCMR",
    "VenueName": "Kalpana Chitra Mandir: Udgir"
  },
  "KDIN": {
    "AvailableFormats": "2D",
    "City": "Indore",
    "Latitude": "22.7127",
    "Longitude": "75.8382",
    "RegionCode": "IND",
    "State": "Madhya Pradesh",
    "SubRegionCode": "IND",
    "VenueAddress": "258, Labriya Bheru, Dhar Road, Near Gangawal Bus Stand, Indore, Madhya Pradesh 452002, India",
    "VenueCode": "KDIN",
    "VenueName": "Kastur Deluxe Theatre: Indore"
  },
  "KINO": {
    "AvailableFormats": "2D",
    "City": "Bengaluru",
    "Latitude": "13.0131",
    "Longitude": "77.7614",
    "RegionCode": "BANG",
    "State": "Karnataka",
    "SubRegionCode": "BANG",
    "VenueAddress": "Survey No. 84, Greenfield Hub, Block C, Seegehalli Road, Kadugodi, Bengaluru, Karnataka 560067, India",
    "VenueCode": "KINO",
    "VenueName": "Kino Cinemas: Seegehalli Kadugodi, Bengaluru"
  },
  "KKUI": {
    "AvailableFormats": "2D",
    "City": "Mumbai",
    "Latitude": "19.3785",
    "Longitude": "72.8287",
    "RegionCode": "MUMBAI",
    "State": "Maharashtra",
    "SubRegionCode": "MWEST",
    "VenueAddress": "Navghar Road, Anand Nagar, Opposite - West Panchal Nagar Walkway, Vasai West, Mumbai, Maharashtra 401202, India",
    "VenueCode": "KKUI",
    "VenueName": "KT Vision Cinema: Vasai(Screen 1)"
  },
  "KMMV": {
    "AvailableFormats": "2D|3D",
    "City": "Mumbai",
    "Latitude": "19.3708",
    "Longitude": "72.8137",
    "RegionCode": "MUMBAI",
    "State": "Maharashtra",
    "SubRegionCode": "MWEST",
    "VenueAddress": "Kauls Mall, Agarwal Complex, Bhabola Chulna Road, Kaul Heritage City, Vasai (West), Mumbai, Maharashtra 401202, India",
    "VenueCode": "KMMV",
    "VenueName": "K Movie Star Multiplex: Vasai (W)"
  },
  "KPPB": {
    "AvailableFormats": "2D",
    "City": "Bahraich",
    "Latitude": "27.5715",
    "Longitude": "81.6027",
    "RegionCode": "BHRH",
    "State": "Uttar Pradesh",
    "SubRegionCode": "BHRH",
    "VenueAddress": "Kanoon Go Pura South, Brahmnipura, Near Disha Complex, Bahraich, Uttar Pradesh 271801, India",
    "VenueCode": "KPPB",
    "VenueName": "K Cinemas: Bahraich"
  },
  "KRMT": {
    "AvailableFormats": "2D",
    "City": "Sakti",
    "Latitude": "22.0182",
    "Longitude": "82.9593",
    "RegionCode": "SAKT",
    "State": "Chhattisgarh",
    "SubRegionCode": "SAKT",
    "VenueAddress": "1st Floor, Jindal Plaza Station Road, Sakti Marg, Sakti, Chhattisgarh 495689, India",
    "VenueCode": "KRMT",
    "VenueName": "Krishna Metro Cinema: Sakti"
  },
  "KSGK": {
    "AvailableFormats": "2D",
    "City": "Vizag (Visakhapatnam)",
    "Latitude": "17.6864",
    "Longitude": "83.208",
    "RegionCode": "SABB",
    "State": "Andhra Pradesh",
    "SubRegionCode": "SABB",
    "VenueAddress": "Main Road, Old Gajuwaka, Near Mamata Hospital, Vizag (Visakhapatnam), Andhra Pradesh 530026, India",
    "VenueCode": "KSGK",
    "VenueName": "Sree Kanya Cinemas: Gajuwaka"
  },
  "KSTR": {
    "AvailableFormats": "2D",
    "City": "Alappuzha",
    "Latitude": "9.49605",
    "Longitude": "76.3412",
    "RegionCode": "CRTL",
    "State": "Kerala",
    "SubRegionCode": "CRTL",
    "VenueAddress": "CCNB Road, Erezha, Mullakkal, Near St George Lodgings, Alappuzha, Kerala 688011, India",
    "VenueCode": "KSTR",
    "VenueName": "Kairali Sree Theater: Alappuzha"
  },
  "KTKT": {
    "AvailableFormats": "",
    "City": "Hyderabad",
    "Latitude": "17.3888",
    "Longitude": "78.4962",
    "RegionCode": "HYD",
    "State": "Telangana",
    "SubRegionCode": "HYD",
    "VenueAddress": "3-2-1/1, Kachiguda Main Road, Mahalaxmi Nilayam, Kachiguda, Hyderabad, Telangana 500027, India",
    "VenueCode": "KTKT",
    "VenueName": "Kumar Theatre: Kachiguda"
  },
  "LAIM": {
    "AvailableFormats": "2D",
    "City": "Vijayawada",
    "Latitude": "16.5066",
    "Longitude": "80.6285",
    "RegionCode": "VIJA",
    "State": "Andhra Pradesh",
    "SubRegionCode": "VIJA",
    "VenueAddress": "4th Floor, Laila Mall, M.G. Road, Vijayawada, Andhra Pradesh 520002, India",
    "VenueCode": "LAIM",
    "VenueName": "INOX: Laila Mall, M.G. Road"
  },
  "LCMV": {
    "AvailableFormats": "2D",
    "City": "Kankavli",
    "Latitude": "16.2655",
    "Longitude": "73.7061",
    "RegionCode": "KNKS",
    "State": "Maharashtra",
    "SubRegionCode": "KNKS",
    "VenueAddress": "Achara Road, Near - Police Station, Kalmath, Kankavli, Maharashtra 416602, India",
    "VenueCode": "LCMV",
    "VenueName": "Laxmi Chitramandir: Kankavli"
  },
  "LCZP": {
    "AvailableFormats": "2D",
    "City": "Zirakpur",
    "Latitude": "30.6599",
    "Longitude": "76.8218",
    "RegionCode": "CHD",
    "State": "Punjab",
    "SubRegionCode": "ZRIK",
    "VenueAddress": "Paras Down Town Square Mall, The Golden Plaza Hotel, Ambala Chandigarh Express Way, Zirakpur, Zirakpur, Punjab 140603, India",
    "VenueCode": "LCZP",
    "VenueName": "Legend Cinemas: Paras Downtown Square, Zirakpur"
  },
  "LJWT": {
    "AvailableFormats": "2D",
    "City": "Ramgarhwa",
    "Latitude": "26.8775",
    "Longitude": "84.7875",
    "RegionCode": "RGHA",
    "State": "Bihar",
    "SubRegionCode": "RGHA",
    "VenueAddress": "Ground Floor, East Champaran, Ramgarhwa, Bihar 845433, India",
    "VenueCode": "LJWT",
    "VenueName": "Arjun Cineplex: Ramgarhwa"
  },
  "LKTO": {
    "AvailableFormats": "2D",
    "City": "Kosgi",
    "Latitude": "16.9886",
    "Longitude": "77.7157",
    "RegionCode": "KOSG",
    "State": "Telangana",
    "SubRegionCode": "KOSG",
    "VenueAddress": "Near Vegetable Market, Mahabubnagar Road, Kosgi, Telangana 509339, India",
    "VenueCode": "LKTO",
    "VenueName": "Lakshmi Theatre: Kosgi"
  },
  "LMTP": {
    "AvailableFormats": "2D",
    "City": "Metpally",
    "Latitude": "18.8512",
    "Longitude": "78.6311",
    "RegionCode": "METT",
    "State": "Telangana",
    "SubRegionCode": "METT",
    "VenueAddress": "Ambedkar Stadium Road, Chaitanya Nagar, Metpally, Telangana 505325, India",
    "VenueCode": "LMTP",
    "VenueName": "Laxmi AC Deluxe Theatre: Metpally"
  },
  "LTTP": {
    "AvailableFormats": "2D",
    "City": "Madurai",
    "Latitude": "9.87549",
    "Longitude": "78.0653",
    "RegionCode": "MADU",
    "State": "Tamil Nadu",
    "SubRegionCode": "MADU",
    "VenueAddress": "Thirupparankundram Road, Avaniyapuram, Near Kasi Viswanathar Temple, Madurai, Tamil Nadu 625005, India",
    "VenueCode": "LTTP",
    "VenueName": "Sri Lakshmi Theatre: Thirupparankundram"
  },
  "LYMS": {
    "AvailableFormats": "2D",
    "City": "Mysuru (Mysore)",
    "Latitude": "12.3088",
    "Longitude": "76.6595",
    "RegionCode": "MYS",
    "State": "Karnataka",
    "SubRegionCode": "MYS",
    "VenueAddress": "Mandi Mohalla, Bangalore Nilgiri Road, Mysuru (Mysore), Karnataka 570001, India",
    "VenueCode": "LYMS",
    "VenueName": "Lido Theatre: Mysuru"
  },
  "MACE": {
    "AvailableFormats": "3D|2D",
    "City": "Mumbai",
    "Latitude": "19.1655",
    "Longitude": "72.8512",
    "RegionCode": "MUMBAI",
    "State": "Maharashtra",
    "SubRegionCode": "MWEST",
    "VenueAddress": "Station Road, Goregaon East, Near Railway Station, Peru Baug, Jay Prakash Nagar, Mumbai, Maharashtra 400063, India",
    "VenueCode": "MACE",
    "VenueName": "Miraj Anupam Cinemas: Goregaon (E)"
  },
  "MAGX": {
    "AvailableFormats": "7D",
    "City": "Ghaziabad",
    "Latitude": "28.634",
    "Longitude": "77.3703",
    "RegionCode": "NCR",
    "State": "NCR",
    "SubRegionCode": "GHAZ",
    "VenueAddress": "2nd Floor, Shipra Mall, Plot No. 9, Vaibhav Land, Inirapuram, Ghaziabad, NCR 201014, India",
    "VenueCode": "MAGX",
    "VenueName": "7D Masti: Shipra Mall, Ghaziabad"
  },
  "MAOU": {
    "AvailableFormats": "2D",
    "City": "Routhulapudi",
    "Latitude": "17.3789",
    "Longitude": "82.3691",
    "RegionCode": "ROUT",
    "State": "Andhra Pradesh",
    "SubRegionCode": "ROUT",
    "VenueAddress": "Tuni Kathipudi Road, Nearby Lakshami Durga atoz Emporeya, Routhulapudi, Andhra Pradesh 533446, India",
    "VenueCode": "MAOU",
    "VenueName": "Maha Lakshmi Theatre: Routhulapudi"
  },
  "MAVO": {
    "AvailableFormats": "2D|3D",
    "City": "Samastipur",
    "Latitude": "25.8496",
    "Longitude": "85.7733",
    "RegionCode": "SMST",
    "State": "Bihar",
    "SubRegionCode": "SMST",
    "VenueAddress": "Fourth Floor, Vinuss One Building, NH 322, Near Pantaloon, Mohanpur, Samastipur, Bihar 848101, India",
    "VenueCode": "MAVO",
    "VenueName": "Mukta A2 Cinemas: Vinuss One Mall, Samastipur"
  },
  "MBKR": {
    "AvailableFormats": "2D",
    "City": "Khariar Road",
    "Latitude": "20.8599",
    "Longitude": "82.5139",
    "RegionCode": "KHRR",
    "State": "Odisha",
    "SubRegionCode": "KHRR",
    "VenueAddress": "Dumerpani, Nandapur, Khariar Road, Odisha 766104, India",
    "VenueCode": "MBKR",
    "VenueName": "MB Cinema: Khariar Road"
  },
  "MCBH": {
    "AvailableFormats": "2D",
    "City": "Hyderabad",
    "Latitude": "17.3559",
    "Longitude": "78.4537",
    "RegionCode": "HYD",
    "State": "Telangana",
    "SubRegionCode": "HYD",
    "VenueAddress": "Bahadurpura, Near Zoo Park Road, Hyderabad, Telangana 500064, India",
    "VenueCode": "MCBH",
    "VenueName": "Metro Cinema: Bahadurpura"
  },
  "MCEF": {
    "AvailableFormats": "",
    "City": "Faridabad",
    "Latitude": "28.3868",
    "Longitude": "77.3141",
    "RegionCode": "NCR",
    "State": "NCR",
    "SubRegionCode": "FARI",
    "VenueAddress": "Eldeco Station 1 Mall, 18/6, Sector 12, Haryana, Faridabad, NCR 121007, India",
    "VenueCode": "MCEF",
    "VenueName": "Miraj Cinemas: Eldeco mall, Faridabad"
  },
  "MCIX": {
    "AvailableFormats": "",
    "City": "Greater Noida",
    "Latitude": "28.4574",
    "Longitude": "77.4993",
    "RegionCode": "NCR",
    "State": "NCR",
    "SubRegionCode": "GRET",
    "VenueAddress": "Plot No. C-03, 04, Knowledge Park -II, Greater Noida, Greater Noida, NCR 201310, India",
    "VenueCode": "MCIX",
    "VenueName": "Miraj Cinemas: India Expo Plaza (Newly Opened)"
  },
  "MCMH": {
    "AvailableFormats": "2D",
    "City": "Hardoi",
    "Latitude": "27.4032",
    "Longitude": "80.1376",
    "RegionCode": "HRDI",
    "State": "Uttar Pradesh",
    "SubRegionCode": "HRDI",
    "VenueAddress": "1, Canal Road, Pragati Nagar, Asha Nagar, Hardoi, Uttar Pradesh 241001, India",
    "VenueCode": "MCMH",
    "VenueName": "Meera Chitra Mandir: Hardoi"
  },
  "MCRC": {
    "AvailableFormats": "2D|3D",
    "City": "Mumbai",
    "Latitude": "18.9543",
    "Longitude": "72.8166",
    "RegionCode": "MUMBAI",
    "State": "Maharashtra",
    "SubRegionCode": "MCENT",
    "VenueAddress": "5th Floor, Jewel Building, 23-27 New Queens Road, Opera House, Girgaon, Mumbai, Maharashtra 400004, India",
    "VenueCode": "MCRC",
    "VenueName": "Roxy Mukta A2 Cinemas: Charni Road"
  },
  "MCSS": {
    "AvailableFormats": "",
    "City": "Hyderabad",
    "Latitude": "17.3678",
    "Longitude": "78.5363",
    "RegionCode": "HYD",
    "State": "Telangana",
    "SubRegionCode": "HYD",
    "VenueAddress": "Opposite Kothapet Fruit Market, Beside Reddy Bar and Restaurant, Kothapet Near Induss Hospital, Hyderabad, Telangana 500036, India",
    "VenueCode": "MCSS",
    "VenueName": "Miraj Cinemas: Shalini Shivani, Kothapet"
  },
  "MCVM": {
    "AvailableFormats": "",
    "City": "Delhi",
    "Latitude": "28.6123",
    "Longitude": "77.3111",
    "RegionCode": "NCR",
    "State": "NCR",
    "SubRegionCode": "DELHI",
    "VenueAddress": "Chand Cinema Building, Trilokpuri, Mayur Vihar Phase 1, Near Sanjay Lake Trilokpuri Metro Station, New Delhi, Delhi, NCR 110091, India",
    "VenueCode": "MCVM",
    "VenueName": "Miraj Cinemas: Chand, Mayur Vihar Phase 1"
  },
  "MDKI": {
    "AvailableFormats": "2D",
    "City": "Bengaluru",
    "Latitude": "12.9157",
    "Longitude": "77.5632",
    "RegionCode": "HOKT",
    "State": "Karnataka",
    "SubRegionCode": "HOKT",
    "VenueAddress": "Subramanyapura Main Road, Padmanabhanagar, Near Kadirenahalli Outer Ring Road Junction, Behind The Bangalore City Co-operative Bank Ltd (Padmanabhanagar Branch), 6th Cross, Banashankari 2nd Stage, Ben",
    "VenueCode": "MDKI",
    "VenueName": "Mahadeshwara Cinema 4K Dolby ATMOS AC Banashankari"
  },
  "MEMR": {
    "AvailableFormats": "2D",
    "City": "Muzaffarnagar",
    "Latitude": "29.4865",
    "Longitude": "77.6966",
    "RegionCode": "MUZ",
    "State": "Uttar Pradesh",
    "SubRegionCode": "MUZ",
    "VenueAddress": "498, Opp Saharanpur Bus Stand, GT Road, Rampuri, Roorkee Road, Near Bajaj Agency, Muzaffarnagar, Uttar Pradesh 251001, India",
    "VenueCode": "MEMR",
    "VenueName": "Maya Multiplex: Muzaffarnagar"
  },
  "MGMF": {
    "AvailableFormats": "",
    "City": "Dhuri",
    "Latitude": "30.3649",
    "Longitude": "75.8591",
    "RegionCode": "DHRI",
    "State": "Punjab",
    "SubRegionCode": "DHRI",
    "VenueAddress": "MGM Mall, Sangrur-Dhuri Road, Near Civil Hospital, Dhuri, Punjab 148024, India",
    "VenueCode": "MGMF",
    "VenueName": "MGM Filmiplex Cinema: Dhuri"
  },
  "MIDL": {
    "AvailableFormats": "2D",
    "City": "Madurai",
    "Latitude": "9.93085",
    "Longitude": "78.0907",
    "RegionCode": "MADU",
    "State": "Tamil Nadu",
    "SubRegionCode": "MADU",
    "VenueAddress": "116/2, Sammattipuram Main Road, Opposite to Big Bazaar, Madurai, Tamil Nadu 625016, India",
    "VenueCode": "MIDL",
    "VenueName": "Midlaand Cinemas A/C 4K Dolby Digital 7.1: Madurai"
  },
  "MJCS": {
    "AvailableFormats": "3D|2D",
    "City": "Akola",
    "Latitude": "20.6983",
    "Longitude": "77.0168",
    "RegionCode": "AKOL",
    "State": "Maharashtra",
    "SubRegionCode": "AKOL",
    "VenueAddress": "Murtizapur Road, Kirti Nagar, Near TVS Showroom, Akola, Maharashtra 444005, India",
    "VenueCode": "MJCS",
    "VenueName": "Miraj Cinemas: Radha Krishna, Akola"
  },
  "MKLJ": {
    "AvailableFormats": "2D|3D",
    "City": "Gurugram (Gurgaon)",
    "Latitude": "28.3907",
    "Longitude": "76.975",
    "RegionCode": "NCR",
    "State": "NCR",
    "SubRegionCode": "GURG",
    "VenueAddress": "KLJ Square Mall, 3rd Floor, NH 8, Sector 83, Gurugram (Gurgaon), NCR 122004, India",
    "VenueCode": "MKLJ",
    "VenueName": "Miraj Cinemas: KLJ Square, Gurugram"
  },
  "MLDP": {
    "AvailableFormats": "",
    "City": "Dehradun",
    "Latitude": "30.289",
    "Longitude": "77.9991",
    "RegionCode": "DEH",
    "State": "Uttarakhand",
    "SubRegionCode": "DEH",
    "VenueAddress": "The City Junction, 2nd Floor, Adjoining ISBT Dehradun, Haridwar Byepass Road, Dehradun, Uttarakhand 248001, India",
    "VenueCode": "MLDP",
    "VenueName": "Microcineplex Cinema: Dehradun"
  },
  "MMCJ": {
    "AvailableFormats": "2D",
    "City": "Jasdan",
    "Latitude": "22.0243",
    "Longitude": "71.1793",
    "RegionCode": "JASD",
    "State": "Gujarat",
    "SubRegionCode": "JASD",
    "VenueAddress": "Ring Road, Atkot Road, Aanand Nagar, Jasdan, Gujarat 360050, India",
    "VenueCode": "MMCJ",
    "VenueName": "Miraj Cinemas: Citypride Multiplex, Jasdan"
  },
  "MMKC": {
    "AvailableFormats": "2D",
    "City": "Chennai",
    "Latitude": "12.9198",
    "Longitude": "80.1957",
    "RegionCode": "CHEN",
    "State": "Tamil Nadu",
    "SubRegionCode": "CHEN",
    "VenueAddress": "No. 4/347 Velachery Main Road, Medavakkam, Chennai, Tamil Nadu 600100, India",
    "VenueCode": "MMKC",
    "VenueName": "Medavakkam Kumaran Cinemas RGB LASER Dolby Atmos"
  },
  "MMPR": {
    "AvailableFormats": "",
    "City": "Chennai",
    "Latitude": "13.1017",
    "Longitude": "80.2747",
    "RegionCode": "CHEN",
    "State": "Tamil Nadu",
    "SubRegionCode": "CHEN",
    "VenueAddress": "PR MAll, Prince Ratnapuri Garden residency, New No. 29, Old No. 16, Wall Tax Road, Kondithope, George Town, Chennai, Tamil Nadu 600001, India",
    "VenueCode": "MMPR",
    "VenueName": "MovieMax: PR Mall, Wall Tax Road, Chennai"
  },
  "MMXI": {
    "AvailableFormats": "2D",
    "City": "Indore",
    "Latitude": "22.7481",
    "Longitude": "75.8905",
    "RegionCode": "IND",
    "State": "Madhya Pradesh",
    "SubRegionCode": "IND",
    "VenueAddress": "Gravity Mall Ware House Road Bhamor, Vijay Nagar, Indore, Madhya Pradesh 452010, India",
    "VenueCode": "MMXI",
    "VenueName": "Manmandir Miniplex: Indore"
  },
  "MNKH": {
    "AvailableFormats": "2D",
    "City": "Madurai",
    "Latitude": "9.82126",
    "Longitude": "77.9865",
    "RegionCode": "MADU",
    "State": "Tamil Nadu",
    "SubRegionCode": "MADU",
    "VenueAddress": "26, Virudhunagar Road, Madurai, Tamil Nadu 625706, India",
    "VenueCode": "MNKH",
    "VenueName": "Meenakshi theatre A/C 7.1 Surround: Thirumangalam"
  },
  "MRAA": {
    "AvailableFormats": "2D|3D",
    "City": "Hyderabad",
    "Latitude": "17.4824",
    "Longitude": "78.4487",
    "RegionCode": "HYD",
    "State": "Telangana",
    "SubRegionCode": "HYD",
    "VenueAddress": "A2A Central Mall, 4th Floor, Adarsh Nagar, Hyderabad, Telangana 500037, India",
    "VenueCode": "MRAA",
    "VenueName": "Miraj Cinemas: A2A Central Mall, Balanagar"
  },
  "MRIY": {
    "AvailableFormats": "2D",
    "City": "Trichy",
    "Latitude": "10.7984",
    "Longitude": "78.7042",
    "RegionCode": "TRIC",
    "State": "Tamil Nadu",
    "SubRegionCode": "TRIC",
    "VenueAddress": "No-228/1, Sangiliyandapuram Main Road, Trichy, Tamil Nadu 620001, India",
    "VenueCode": "MRIY",
    "VenueName": "Mariyam Cinemas A/C 4K: Trichy"
  },
  "MSCJ": {
    "AvailableFormats": "2D",
    "City": "Jajpur Town (Odisha)",
    "Latitude": "20.853",
    "Longitude": "86.3293",
    "RegionCode": "JTTT",
    "State": "Odisha",
    "SubRegionCode": "JTTT",
    "VenueAddress": "Gandhi chhak, Sanskruti Bhawan, Jajpur Town (Odisha), Odisha 755001, India",
    "VenueCode": "MSCJ",
    "VenueName": "Mission Shakti Cinemas: Jajpur Town"
  },
  "MTAR": {
    "AvailableFormats": "2D",
    "City": "Rajgangpur",
    "Latitude": "22.1913",
    "Longitude": "84.5893",
    "RegionCode": "RJGR",
    "State": "Odisha",
    "SubRegionCode": "RJGR",
    "VenueAddress": "Subhas Chowk, R.G.P Main Road, Near DHP Shah Hindustan Petrol Pump, Rajgangpur, Odisha 770017, India",
    "VenueCode": "MTAR",
    "VenueName": "Milan Talkies: Rajgangpur"
  },
  "MTGD": {
    "AvailableFormats": "2D",
    "City": "Mumbai",
    "Latitude": "19.2519",
    "Longitude": "72.8629",
    "RegionCode": "MUMBAI",
    "State": "Maharashtra",
    "SubRegionCode": "MWEST",
    "VenueAddress": "Old Rajeshri Cinema Building, S V Road, Maratha Colony Road, Dahisar East, Near Ravindra Hotel, Mumbai, Maharashtra 400068, India",
    "VenueCode": "MTGD",
    "VenueName": "Movietime: Dahisar (E)"
  },
  "MTMD": {
    "AvailableFormats": "2D|3D",
    "City": "Moradabad",
    "Latitude": "28.8252",
    "Longitude": "78.7751",
    "RegionCode": "MORA",
    "State": "Uttar Pradesh",
    "SubRegionCode": "MORA",
    "VenueAddress": "Rampur Road, Near Old Bus Station, Gandhi Nagar, Moradabad, Uttar Pradesh 244001, India",
    "VenueCode": "MTMD",
    "VenueName": "Movietime Miglani Cinema: Moradabad"
  },
  "MTSU": {
    "AvailableFormats": "2D|3D",
    "City": "Mumbai",
    "Latitude": "19.061",
    "Longitude": "72.837",
    "RegionCode": "MUMBAI",
    "State": "Maharashtra",
    "SubRegionCode": "MWEST",
    "VenueAddress": "Suburbia Mall, 206 and 265 Junction of S V Road, And Linking Road, Bandra(W), Near Shoppers Stop, Mumbai, Maharashtra 400050, India",
    "VenueCode": "MTSU",
    "VenueName": "Movietime Suburbia: Bandra (W)"
  },
  "MUTB": {
    "AvailableFormats": "2D",
    "City": "Bengaluru",
    "Latitude": "13.0385",
    "Longitude": "77.5529",
    "RegionCode": "BANG",
    "State": "Karnataka",
    "SubRegionCode": "BANG",
    "VenueAddress": "Muthyala Nagar, 19th Cross, 2nd Stage, Mathikere, Near Railway Gate and J.P.Park, Near Mega Mart, Bengaluru, Karnataka 560054, India",
    "VenueCode": "MUTB",
    "VenueName": "Murali Cinemas(Gokula)4K Dolby7.1 A/C 3D:Mathikere"
  },
  "MXBY": {
    "AvailableFormats": "2D",
    "City": "Mumbai",
    "Latitude": "19.2967",
    "Longitude": "72.8479",
    "RegionCode": "MUMBAI",
    "State": "Maharashtra",
    "SubRegionCode": "MWEST",
    "VenueAddress": "Maxus Mall, 3rd Floor, 150 Feet Road, Near Railway Flyover, Opposite Salasar Bridge Bhoomi, Mumbai, Maharashtra 401101, India",
    "VenueCode": "MXBY",
    "VenueName": "Maxus Cinemas: Bhayander"
  },
  "MYCP": {
    "AvailableFormats": "2D",
    "City": "Gorakhpur",
    "Latitude": "26.747",
    "Longitude": "83.3562",
    "RegionCode": "GRKP",
    "State": "Uttar Pradesh",
    "SubRegionCode": "GRKP",
    "VenueAddress": "Bade Kajipur, Geeta Press Road, Near Kothe Wali Masjid, Gorakhpur, Uttar Pradesh 273005, India",
    "VenueCode": "MYCP",
    "VenueName": "Maya Cineplex: Gorakhpur"
  },
  "MYTK": {
    "AvailableFormats": "2D",
    "City": "Morena",
    "Latitude": "26.4965",
    "Longitude": "77.9884",
    "RegionCode": "MRMP",
    "State": "Madhya Pradesh",
    "SubRegionCode": "MRMP",
    "VenueAddress": "H B Colony, Nainagarh Road, Nearby B.N Garden, Morena, Madhya Pradesh 476001, India",
    "VenueCode": "MYTK",
    "VenueName": "Mayur Talkies: Morena"
  },
  "NBCH": {
    "AvailableFormats": "2D",
    "City": "Diamond Harbour",
    "Latitude": "22.2053",
    "Longitude": "88.1842",
    "RegionCode": "MNHR",
    "State": "West Bengal",
    "SubRegionCode": "MNHR",
    "VenueAddress": "NH34 New Town, Harindanga, Jaydebpur, Diamond Harbour, West Bengal 743331, India",
    "VenueCode": "NBCH",
    "VenueName": "New Bijoli Cinema: Diamond Harbour"
  },
  "NCJN": {
    "AvailableFormats": "2D",
    "City": "Jalna",
    "Latitude": "19.8446",
    "Longitude": "75.8953",
    "RegionCode": "JALN",
    "State": "Maharashtra",
    "SubRegionCode": "JALN",
    "VenueAddress": "Lokhandi Pool Road, Sangram Nagar, Rahman Ganj, Jalna, Maharashtra 431203, India",
    "VenueCode": "NCJN",
    "VenueName": "Natraj Cinema: Jalna"
  },
  "NECA": {
    "AvailableFormats": "2D",
    "City": "Kolkata",
    "Latitude": "22.5605",
    "Longitude": "88.3515",
    "RegionCode": "KOLK",
    "State": "West Bengal",
    "SubRegionCode": "KOLK",
    "VenueAddress": "1 and 2, Humayun Place, New Market Area, Dharmatala, Taltala, Kolkata, West Bengal 700087, India",
    "VenueCode": "NECA",
    "VenueName": "New Empire Cinema: Kolkata"
  },
  "NICJ": {
    "AvailableFormats": "2D|3D",
    "City": "Jodhpur",
    "Latitude": "26.2824",
    "Longitude": "73.0112",
    "RegionCode": "JODH",
    "State": "Rajasthan",
    "SubRegionCode": "JODH",
    "VenueAddress": "Chopasani Road, Sardarpura, Near Sanichar Ji Ka Than, Jodhpur, Rajasthan 342003, India",
    "VenueCode": "NICJ",
    "VenueName": "Nasrani Cinema: Jodhpur"
  },
  "NMNA": {
    "AvailableFormats": "2D",
    "City": "Nagari",
    "Latitude": "13.3251",
    "Longitude": "79.5877",
    "RegionCode": "NAGI",
    "State": "Andhra Pradesh",
    "SubRegionCode": "NAGI",
    "VenueAddress": "NH71, Nagari, Near ABCWO office, Nagari, Andhra Pradesh 517590, India",
    "VenueCode": "NMNA",
    "VenueName": "NMC Cinemas A/C 3D 4K DOLBY ATMOS: Nagari"
  },
  "NPSE": {
    "AvailableFormats": "2D|3D",
    "City": "Pune",
    "Latitude": "18.538",
    "Longitude": "73.8356",
    "RegionCode": "PUNE",
    "State": "Maharashtra",
    "SubRegionCode": "PUNE",
    "VenueAddress": "East Square Flyover, Premnagar, Ashok Nagar, Pune, Maharashtra 411016, India",
    "VenueCode": "NPSE",
    "VenueName": "E-SQUARE: University Road, Pune (Newly Renovated)"
  },
  "NTBB": {
    "AvailableFormats": "2D",
    "City": "Belagavi (Belgaum)",
    "Latitude": "15.8602",
    "Longitude": "74.513",
    "RegionCode": "BELG",
    "State": "Karnataka",
    "SubRegionCode": "BELG",
    "VenueAddress": "2016, Ganpat Galli, Raviwar Peth, Belagavi (Belgaum), Karnataka 590001, India",
    "VenueCode": "NTBB",
    "VenueName": "Nirmal Theatre: Belagavi"
  },
  "NTKP": {
    "AvailableFormats": "2D",
    "City": "Kotpad",
    "Latitude": "19.1393",
    "Longitude": "82.3228",
    "RegionCode": "KTPD",
    "State": "Odisha",
    "SubRegionCode": "KTPD",
    "VenueAddress": "Kundra - Kotpad - Jagdalpur Road, Naikera, Kotpad, Odisha 764058, India",
    "VenueCode": "NTKP",
    "VenueName": "Naveen Talkies: Kotpad"
  },
  "NVRM": {
    "AvailableFormats": "2D",
    "City": "Annavaram",
    "Latitude": "17.2732",
    "Longitude": "82.3895",
    "RegionCode": "ANVR",
    "State": "Andhra Pradesh",
    "SubRegionCode": "ANVR",
    "VenueAddress": "Annavaram Town Road, Near Annavaram Arch, Annavaram, Andhra Pradesh 533406, India",
    "VenueCode": "NVRM",
    "VenueName": "NVR Multiplex: Annavaram"
  },
  "NXTM": {
    "AvailableFormats": "2D",
    "City": "Himmatnagar",
    "Latitude": "23.4927",
    "Longitude": "72.9042",
    "RegionCode": "HIMM",
    "State": "Gujarat",
    "SubRegionCode": "HIMM",
    "VenueAddress": "Gulmohar Square and Sapphire, 2nd Floor, NH 48, Salal, Himmatnagar, Gujarat 383120, India",
    "VenueCode": "NXTM",
    "VenueName": "NXT Cinemas: Nr. Salal, Himmatnagar"
  },
  "NYMD": {
    "AvailableFormats": "2D",
    "City": "Mumbai",
    "Latitude": "19.1706",
    "Longitude": "72.9571",
    "RegionCode": "MUMBAI",
    "State": "Maharashtra",
    "SubRegionCode": "MCENT",
    "VenueAddress": "Sai Symphony, Old Jai Ganesh Talkies, Gopal Krishna Gokhale Road, Mulund East, Mumbai, Maharashtra 400080, India",
    "VenueCode": "NYMD",
    "VenueName": "NY Cinemas: Mulund"
  },
  "OCON": {
    "AvailableFormats": "2D",
    "City": "Ojhar",
    "Latitude": "20.0827",
    "Longitude": "73.9174",
    "RegionCode": "NASK",
    "State": "Maharashtra",
    "SubRegionCode": "NASK",
    "VenueAddress": "Mumbai-Agra Highway, At Post Ojhar, Ojhar, Maharashtra 422206, India",
    "VenueCode": "OCON",
    "VenueName": "Ozone Cinema: Ojhar, Nashik"
  },
  "ONEB": {
    "AvailableFormats": "",
    "City": "Mumbai",
    "Latitude": "18.9956",
    "Longitude": "72.8363",
    "RegionCode": "MUMBAI",
    "State": "Maharashtra",
    "SubRegionCode": "MCENT",
    "VenueAddress": "Dr. Babasaheb Ambedhkar Marg, Curry Road, E, Mahadev Palav Marg, Lal Baug, Mumbai, Maharashtra 400012, India",
    "VenueCode": "ONEB",
    "VenueName": "1 Cinema Powered by Mukta A2: Bharatmata"
  },
  "PACJ": {
    "AvailableFormats": "2D",
    "City": "Jaipur",
    "Latitude": "26.9349",
    "Longitude": "75.8342",
    "RegionCode": "JAIP",
    "State": "Rajasthan",
    "SubRegionCode": "JAIP",
    "VenueAddress": "Outside Zorawar Singh Gate, Amer Road, Jaipur, Rajasthan 302002, India",
    "VenueCode": "PACJ",
    "VenueName": "Paras Cinema: Amer Road"
  },
  "PAWA": {
    "AvailableFormats": "2D",
    "City": "Samsi",
    "Latitude": "25.2799",
    "Longitude": "88.0061",
    "RegionCode": "SAMS",
    "State": "West Bengal",
    "SubRegionCode": "SAMS",
    "VenueAddress": "NH3, Pavan Nagar, Maa Sarbamangala Kali Mandir, Samsi, West Bengal 732139, India",
    "VenueCode": "PAWA",
    "VenueName": "Pawan Talkies (Dolby Digital): Samsi"
  },
  "PBOX": {
    "AvailableFormats": "2D",
    "City": "Dimapur",
    "Latitude": "25.9112",
    "Longitude": "93.7308",
    "RegionCode": "DMPR",
    "State": "Nagaland",
    "SubRegionCode": "DMPR",
    "VenueAddress": "Playbox, Ward No 5 (6), Burma Camp Junction, Near Hotel Falcon, Dimapur, Nagaland 797112, India",
    "VenueCode": "PBOX",
    "VenueName": "FUN Cinemas Playbox Cinema: Dimapur"
  },
  "PCBV": {
    "AvailableFormats": "",
    "City": "Varanasi",
    "Latitude": "25.4181",
    "Longitude": "82.8823",
    "RegionCode": "VAR",
    "State": "Uttar Pradesh",
    "SubRegionCode": "VAR",
    "VenueAddress": "Satomahua, Babatpur Airport Road, Sehmalpur, Near FCI Godown, Varanasi, Uttar Pradesh 221105, India",
    "VenueCode": "PCBV",
    "VenueName": "Pari Cineplex: Babatpur, Varanasi"
  },
  "PCJL": {
    "AvailableFormats": "2D|3D",
    "City": "Jalandhar",
    "Latitude": "31.2823",
    "Longitude": "75.5873",
    "RegionCode": "JALA",
    "State": "Punjab",
    "SubRegionCode": "JALA",
    "VenueAddress": "Curo High Street, 66 Feet Road, Punjabi Bagh Extention, IsharPuri Colony, Mithapur, Near Dulhan Palace, Jalandhar, Punjab 144022, India",
    "VenueCode": "PCJL",
    "VenueName": "PVR: Curo, Jalandhar"
  },
  "PCMZ": {
    "AvailableFormats": "2D|3D|4DX",
    "City": "Pune",
    "Latitude": "18.5613",
    "Longitude": "73.917",
    "RegionCode": "PUNE",
    "State": "Maharashtra",
    "SubRegionCode": "PUNE",
    "VenueAddress": "2nd Floor, Phoenix Market City, Nagar Road, Viman Nagar, Near Baker Gauges, Pune, Maharashtra 411014, India",
    "VenueCode": "PCMZ",
    "VenueName": "PVR: Phoenix Market City, Pune"
  },
  "PCSE": {
    "AvailableFormats": "2D",
    "City": "Satmile",
    "Latitude": "21.8109",
    "Longitude": "87.6466",
    "RegionCode": "SATI",
    "State": "West Bengal",
    "SubRegionCode": "SATI",
    "VenueAddress": "Contai Road, Kholanashwari, Satmile, West Bengal 721452, India",
    "VenueCode": "PCSE",
    "VenueName": "Prafulla Cinema: Satmile"
  },
  "PDCK": {
    "AvailableFormats": "2D",
    "City": "Kolhapur",
    "Latitude": "16.6981",
    "Longitude": "74.2277",
    "RegionCode": "KOLH",
    "State": "Maharashtra",
    "SubRegionCode": "KOLH",
    "VenueAddress": "1550, C Ward, Laxmipuri, Near Jain Mandir, Opposite K M C College, Kolhapur, Maharashtra 416002, India",
    "VenueCode": "PDCK",
    "VenueName": "Padma Cinema: Kolhapur"
  },
  "PDME": {
    "AvailableFormats": "2D",
    "City": "Solapur",
    "Latitude": "17.6779",
    "Longitude": "75.9135",
    "RegionCode": "SOLA",
    "State": "Maharashtra",
    "SubRegionCode": "SOLA",
    "VenueAddress": "168b, Shaniwar Peth, Ganesh Peth, Sakhar Peth, Solapur, Maharashtra 413005, India",
    "VenueCode": "PDME",
    "VenueName": "Padma Cinema: Solapur"
  },
  "PETA": {
    "AvailableFormats": "2D|3D",
    "City": "Gurugram (Gurgaon)",
    "Latitude": "28.3846",
    "Longitude": "77.0536",
    "RegionCode": "NCR",
    "State": "NCR",
    "SubRegionCode": "GURG",
    "VenueAddress": "4rd Floor Elan Town Centre, Main Sohna Road, Sector 67, Badshapur, Opposite Airia Mall, Gurugram (Gurgaon), NCR 122101, India",
    "VenueCode": "PETA",
    "VenueName": "PVR: Elan Town Centre, Sec 67, Gurugram"
  },
  "PGDA": {
    "AvailableFormats": "2D",
    "City": "Penugonda",
    "Latitude": "16.6563",
    "Longitude": "81.7447",
    "RegionCode": "PDDG",
    "State": "Andhra Pradesh",
    "SubRegionCode": "PDDG",
    "VenueAddress": "Near Sai Ganesh Moblies And Xerox, Pekeru- Penugonda Road, Penugonda, Andhra Pradesh 534320, India",
    "VenueCode": "PGDA",
    "VenueName": "G7 Minerva Theatre: Penugonda"
  },
  "PGRK": {
    "AvailableFormats": "3D|2D",
    "City": "Gorakhpur",
    "Latitude": "26.7552",
    "Longitude": "83.3696",
    "RegionCode": "GRKP",
    "State": "Uttar Pradesh",
    "SubRegionCode": "GRKP",
    "VenueAddress": "PVR Pantaloons Venus Mall Purdilpir, Cinema Road, Gorakhpur, Uttar Pradesh 273001, India",
    "VenueCode": "PGRK",
    "VenueName": "PVR: Venus, Gorakhpur"
  },
  "PIIC": {
    "AvailableFormats": "",
    "City": "Hyderabad",
    "Latitude": "17.4351",
    "Longitude": "78.3867",
    "RegionCode": "HYD",
    "State": "Telangana",
    "SubRegionCode": "HYD",
    "VenueAddress": "5th Floor, APIIC Software Layout, Mindspace, Inorbit Mall, Hitech City, Madhapur, Cyberabad, Hyderabad, Telangana 500081, India",
    "VenueCode": "PIIC",
    "VenueName": "PVR Superplex Inorbit: LUXE, PXL, 4DX: Cyberabad"
  },
  "PJMB": {
    "AvailableFormats": "2D",
    "City": "Barbil",
    "Latitude": "22.0998",
    "Longitude": "85.3849",
    "RegionCode": "BABR",
    "State": "Odisha",
    "SubRegionCode": "BABR",
    "VenueAddress": "Gandhi Chowk, Behind Cinema Theater, Barbil, Odisha 758035, India",
    "VenueCode": "PJMB",
    "VenueName": "PJ Movies: Barbil, Odisha"
  },
  "PKKT": {
    "AvailableFormats": "2D",
    "City": "Trivandrum",
    "Latitude": "8.48714",
    "Longitude": "76.9486",
    "RegionCode": "VKAL",
    "State": "Kerala",
    "SubRegionCode": "VKAL",
    "VenueAddress": "Over Bridge, Mahathma Gandhi Road, Chalai Bazaar, Thiruvananthapuram, Trivandrum, Kerala 695036, India",
    "VenueCode": "PKKT",
    "VenueName": "PVR: Kripa, Thampanoor Trivandrum"
  },
  "PLTT": {
    "AvailableFormats": "2D",
    "City": "Trichy",
    "Latitude": "10.8151",
    "Longitude": "78.6933",
    "RegionCode": "TRIC",
    "State": "Tamil Nadu",
    "SubRegionCode": "TRIC",
    "VenueAddress": "162, Madurai Road, Palakarai, Sangillyandapuram, Opposite Inspector of Matriculation Schools, Education Office, Trichy, Tamil Nadu 620008, India",
    "VenueCode": "PLTT",
    "VenueName": "Palace Theatre: Tiruchirappalli"
  },
  "PMBR": {
    "AvailableFormats": "3D|2D",
    "City": "Bengaluru",
    "Latitude": "13.0557",
    "Longitude": "77.7637",
    "RegionCode": "HOKT",
    "State": "Karnataka",
    "SubRegionCode": "HOKT",
    "VenueAddress": "Orion Uptown Mall, 2nd Floor, Survey No. 49-51, Huskar Village, Bidarahalli Hobli, Kattamnallur, Sanntammanahalli, Bengaluru, Karnataka 560049, India",
    "VenueCode": "PMBR",
    "VenueName": "PVR: Orion Uptown, Old Madras Road, Bengaluru"
  },
  "PMMI": {
    "AvailableFormats": "2D|3D",
    "City": "Chandigarh",
    "Latitude": "30.6787",
    "Longitude": "76.7223",
    "RegionCode": "CHD",
    "State": "Punjab",
    "SubRegionCode": "CHD",
    "VenueAddress": "2nd Floor CP67 Mall, Sector 67, Sahibzada Ajit Singh Nagar, Chandigarh, Punjab 160062, India",
    "VenueCode": "PMMI",
    "VenueName": "PVR: CP67 Mall, Mohali"
  },
  "PMSJ": {
    "AvailableFormats": "2D",
    "City": "Jammu",
    "Latitude": "32.7288",
    "Longitude": "74.8471",
    "RegionCode": "JAMM",
    "State": "Jammu and Kashmir",
    "SubRegionCode": "JAMM",
    "VenueAddress": "3rd Floor, Palm Island Mall, Canal Road, Jammu, Jammu and Kashmir 180016, India",
    "VenueCode": "PMSJ",
    "VenueName": "Platinum Movietime SPA: Palm Island Mall, Jammu"
  },
  "PNNG": {
    "AvailableFormats": "2D|3D",
    "City": "Hyderabad",
    "Latitude": "17.4294",
    "Longitude": "78.4501",
    "RegionCode": "HYD",
    "State": "Telangana",
    "SubRegionCode": "HYD",
    "VenueAddress": "Next Galleria Mall, 4th Floor, PVR Limited, Panjagutta, Opposite Panjaguttta Metro Station, Hyderabad, Telangana 500082, India",
    "VenueCode": "PNNG",
    "VenueName": "PVR: Next Galleria Mall, Panjagutta"
  },
  "PPAG": {
    "AvailableFormats": "2D",
    "City": "Agra",
    "Latitude": "27.1417",
    "Longitude": "78.0461",
    "RegionCode": "AGRA",
    "State": "Uttar Pradesh",
    "SubRegionCode": "AGRA",
    "VenueAddress": "Kaharai Mod, Shamsabad Road Near, Near Mar Thoma Centre Agra, Agra, Uttar Pradesh 282001, India",
    "VenueCode": "PPAG",
    "VenueName": "Panna Palace: Agra"
  },
  "PPMF": {
    "AvailableFormats": "2D|3D",
    "City": "Faridabad",
    "Latitude": "28.3861",
    "Longitude": "77.299",
    "RegionCode": "NCR",
    "State": "NCR",
    "SubRegionCode": "FARI",
    "VenueAddress": "The Mall Of Faridabad NIT Bus Stand, K L Mehta Road, 01, New Industrial Township, Faridabad, NCR 121001, India",
    "VenueCode": "PPMF",
    "VenueName": "PVR: Pacific Mall (The Mall of Faridabad NIT)"
  },
  "PPXL": {
    "AvailableFormats": "2D|3D",
    "City": "Lucknow",
    "Latitude": "26.7991",
    "Longitude": "80.8961",
    "RegionCode": "LUCK",
    "State": "Uttar Pradesh",
    "SubRegionCode": "LUCK",
    "VenueAddress": "4th Floor, Phoenix United Mall, Kanpur - Lucknow Road, LDA Alambagh, Sector B, LDA Colony, Lucknow, Uttar Pradesh 226012, India",
    "VenueCode": "PPXL",
    "VenueName": "PVR: Phoenix, Lucknow"
  },
  "PRDB": {
    "AvailableFormats": "2D",
    "City": "Belagavi (Belgaum)",
    "Latitude": "15.85",
    "Longitude": "74.5161",
    "RegionCode": "BELG",
    "State": "Karnataka",
    "SubRegionCode": "BELG",
    "VenueAddress": "SPM Road, Shashtri Nagar, Shahpur, Belagavi (Belgaum), Karnataka 590001, India",
    "VenueCode": "PRDB",
    "VenueName": "Prakash Digital 4K Cinema: Belagavi"
  },
  "PRLR": {
    "AvailableFormats": "2D|3D",
    "City": "Latur",
    "Latitude": "18.4089",
    "Longitude": "76.5395",
    "RegionCode": "LAT",
    "State": "Maharashtra",
    "SubRegionCode": "LAT",
    "VenueAddress": "Plot No-X1/X2,MIDC, Ekmat Chowk, Barshi Road, Latur, Maharashtra 413512, India",
    "VenueCode": "PRLR",
    "VenueName": "PVR: Latur"
  },
  "PRVN": {
    "AvailableFormats": "2D|3D",
    "City": "Nizamabad",
    "Latitude": "18.6692",
    "Longitude": "78.1053",
    "RegionCode": "NIZA",
    "State": "Telangana",
    "SubRegionCode": "NIZA",
    "VenueAddress": "3th Floor, VENU MALL H. NO. 5-6-661, Pragathi Nagar, Nizamabad, Telangana 503003, India",
    "VenueCode": "PRVN",
    "VenueName": "PVR: Venu Mall, Nizamabad"
  },
  "PSMA": {
    "AvailableFormats": "2D",
    "City": "Ahmedabad",
    "Latitude": "23.0983",
    "Longitude": "72.5458",
    "RegionCode": "AHD",
    "State": "Gujarat",
    "SubRegionCode": "AHD",
    "VenueAddress": "Vandemataram Icon, Vandematram City, Opp. Shrifal Flat, Gota, Ahmedabad, Gujarat 382481, India",
    "VenueCode": "PSMA",
    "VenueName": "P Square Movieplex, Gota: Ahmedabad"
  },
  "PSUL": {
    "AvailableFormats": "2D",
    "City": "Lucknow",
    "Latitude": "26.8484",
    "Longitude": "80.9445",
    "RegionCode": "LUCK",
    "State": "Uttar Pradesh",
    "SubRegionCode": "LUCK",
    "VenueAddress": "PVR Sahu Theatre Building, Love Lane, Hazratganj, Lucknow, Uttar Pradesh 226001, India",
    "VenueCode": "PSUL",
    "VenueName": "PVR: Sahu, Lucknow"
  },
  "PTCM": {
    "AvailableFormats": "2D",
    "City": "Khanna",
    "Latitude": "30.6855",
    "Longitude": "76.2524",
    "RegionCode": "KHAN",
    "State": "Punjab",
    "SubRegionCode": "KHAN",
    "VenueAddress": "3rd Floor, The Celebration Bazaar, Dream City Road, DLF Phase 5, Sector 54, Khanna, Punjab 141401, India",
    "VenueCode": "PTCM",
    "VenueName": "PVR: The Celebration Mall, Khanna"
  },