{
  "AACV": {
    "AvailableFormats": "2D",
    "City": "Kovvur",
    "Latitude": "17.0136",
    "Longitude": "81.7281",
    "RegionCode": "KOVU",
    "State": "Andhra Pradesh",
    "SubRegionCode": "KOVU",
    "VenueAddress": "Rama Society Road, Near State Bank of India, Kovvur, Andhra Pradesh 534350, India",
    "VenueCode": "AACV",
    "VenueName": "Ananya Cinemas: Kovvur"
  },
  "AATR": {
    "AvailableFormats": "2D",
    "City": "Erode",
    "Latitude": "11.3326",
    "Longitude": "77.7284",
    "RegionCode": "EROD",
    "State": "Tamil Nadu",
    "SubRegionCode": "EROD",
    "VenueAddress": "Balasubrayalu Street, Surampattivalasu, Near Erode Fire Service, Erode, Tamil Nadu 638001, India",
    "VenueCode": "AATR",
    "VenueName": "Aanoor Theatre A/C Dolby Atmos: Erode"
  },
  "ABDD": {
    "AvailableFormats": "2D|3D",
    "City": "Durgapur",
    "Latitude": "23.5563",
    "Longitude": "87.2745",
    "RegionCode": "DURGA",
    "State": "West Bengal",
    "SubRegionCode": "DURGA",
    "VenueAddress": "Fortune Plaza, 5th Floor, Ananda Gopal Mukherjee Sarani Road, Above Reliance Digital, Near Bhiringi Kali Mandir, Benachity, Durgapur, West Bengal 713213, India",
    "VenueCode": "ABDD",
    "VenueName": "Arti Cinemas, above Pantaloons: Benachity"
  },
  "ACAM": {
    "AvailableFormats": "2D",
    "City": "Ambala",
    "Latitude": "30.3786",
    "Longitude": "76.7636",
    "RegionCode": "AMB",
    "State": "Haryana",
    "SubRegionCode": "AMB",
    "VenueAddress": "City Plaza, 947, Citi Mall, NH 152, Patti Mehar, Ambala, Haryana 134003, India",
    "VenueCode": "ACAM",
    "VenueName": "Ayaan Cinemas: Ambala"
  },
  "ACEV": {
    "AvailableFormats": "2D",
    "City": "Hyderabad",
    "Latitude": "17.338",
    "Longitude": "78.5678",
    "RegionCode": "HYD",
    "State": "Telangana",
    "SubRegionCode": "HYD",
    "VenueAddress": "Door. No.5-5-185 and 5-5-186,Sy.No.53 and 56, 4th Floor, TATTVA MALL, Vanasthalipuram, Saheb Nagar Khurd, Hyderabad, Telangana 500070, India",
    "VenueCode": "ACEV",
    "VenueName": "ART CINEMAS: Vanasthalipuram"
  },
  "ACKB": {
    "AvailableFormats": "2D",
    "City": "Bengaluru",
    "Latitude": "12.977726",
    "Longitude": "77.575961",
    "RegionCode": "BANG",
    "State": "Karnataka",
    "SubRegionCode": "BANG",
    "VenueAddress": "No-300/1, S.C.Road, Gandhinagar, Next To Movieland Theatre, Bengaluru, Karnataka 560009, India",
    "VenueCode": "ACKB",
    "VenueName": "AMB Cinemas Kapali: Bengaluru"
  },
  "ACNB": {
    "AvailableFormats": "2D|3D",
    "City": "Barasat",
    "Latitude": "22.7199",
    "Longitude": "88.4875",
    "RegionCode": "BSRT",
    "State": "West Bengal",
    "SubRegionCode": "BSRT",
    "VenueAddress": "Bus Stand, 125/1, Jessore Road, Champadali, Barasat, West Bengal 700124, India",
    "VenueCode": "ACNB",
    "VenueName": "SSR Cinemas, Suncity Mall: Barasat"
  },
  "ACRT": {
    "AvailableFormats": "2D",
    "City": "Haliya",
    "Latitude": "16.7799",
    "Longitude": "79.3224",
    "RegionCode": "HALI",
    "State": "Telangana",
    "SubRegionCode": "HALI",
    "VenueAddress": "NH 565, Near ICICI Bank ATM, Haliya, Telangana 508377, India",
    "VenueCode": "ACRT",
    "VenueName": "Acchi Reddy Theater A/c Dolby DTS: Haliya"
  },
  "ACXB": {
    "AvailableFormats": "2D",
    "City": "Bhandara",
    "Latitude": "21.1761",
    "Longitude": "79.6388",
    "RegionCode": "BHAA",
    "State": "Maharashtra",
    "SubRegionCode": "BHAA",
    "VenueAddress": "Aswale Park, Samruddhi Nagar, Bhandara, Maharashtra 441906, India",
    "VenueCode": "ACXB",
    "VenueName": "AR Cineplex: Bhandara"
  },
  "ADGR": {
    "AvailableFormats": "2D|3D",
    "City": "Gorakhpur",
    "Latitude": "26.7564",
    "Longitude": "83.3668",
    "RegionCode": "GRKP",
    "State": "Uttar Pradesh",
    "SubRegionCode": "GRKP",
    "VenueAddress": "2nd and 3rd Floor, Ad Mall, Cinema Road, Gorakhpur, Uttar Pradesh 273001, India",
    "VenueCode": "ADGR",
    "VenueName": "AD Cinemas: Gorakhpur"
  },
  "AHKT": {
    "AvailableFormats": "2D",
    "City": "Kottiyam",
    "Latitude": "8.86546",
    "Longitude": "76.6695",
    "RegionCode": "KTTY",
    "State": "Kerala",
    "SubRegionCode": "KTTY",
    "VenueAddress": "Dreams Mall, National Highway 66, Kottiyam, Kerala 691571, India",
    "VenueCode": "AHKT",
    "VenueName": "Aashirvad Cineplexx: Kottiyam"
  },
  "AKFC": {
    "AvailableFormats": "2D",
    "City": "Alakode",
    "Latitude": "12.1785",
    "Longitude": "75.4649",
    "RegionCode": "ALAK",
    "State": "Kerala",
    "SubRegionCode": "ALAK",
    "VenueAddress": "Kottayadu Kavala, Malabar Hill Highway, Near St.Marys Forane Church, Alakode, Kerala 670571, India",
    "VenueCode": "AKFC",
    "VenueName": "Alakode Film City 4K Dolby Atmos"
  },
  "ALAT": {
    "AvailableFormats": "2D",
    "City": "Ponnamaravathi",
    "Latitude": "10.2757",
    "Longitude": "78.5367",
    "RegionCode": "PONM",
    "State": "Tamil Nadu",
    "SubRegionCode": "PONM",
    "VenueAddress": "Amman Kovil Street, Ponnamaravathy, Near Ponnamaravathi Police Station, Ponnamaravathi, Tamil Nadu 622407, India",
    "VenueCode": "ALAT",
    "VenueName": "Alankar Theatre 2K 7.1: Ponnamaravathi"
  },
  "AMBT": {
    "AvailableFormats": "3D|2D",
    "City": "Nagpur",
    "Latitude": "21.1163",
    "Longitude": "79.0128",
    "RegionCode": "NAGP",
    "State": "Maharashtra",
    "SubRegionCode": "NAGP",
    "VenueAddress": "Bansi Nagar, S R P Camp, Digdoh, Nagpur, Maharashtra 440016, India",
    "VenueCode": "AMBT",
    "VenueName": "AM Cinema: Bansi Nagar, Nagpur"
  },
  "AMHR": {
    "AvailableFormats": "2D",
    "City": "Virudhunagar",
    "Latitude": "9.59045",
    "Longitude": "77.9527",
    "RegionCode": "VIRU",
    "State": "Tamil Nadu",
    "SubRegionCode": "VIRU",
    "VenueAddress": "RR Nagar, Sivagami Puram, Virudhunagar, Tamil Nadu 626001, India",
    "VenueCode": "AMHR",
    "VenueName": "Amirtharaj Theatre A/C 2K Dolby 7.1: Virudhunagar"
  },
  "AMRT": {
    "AvailableFormats": "2D",
    "City": "Bengaluru",
    "Latitude": "13.0124",
    "Longitude": "77.6263",
    "RegionCode": "BANG",
    "State": "Karnataka",
    "SubRegionCode": "BANG",
    "VenueAddress": "No 1075, Near Lingarajpuram Fly Over, Hennur Main Road, St Thomas Town, Bengaluru, Karnataka 560084, India",
    "VenueCode": "AMRT",
    "VenueName": "Amruth Digital 2K A/C Cinema: Lingarajapuram"
  },
  "ANCB": {
    "AvailableFormats": "2D",
    "City": "Barmer",
    "Latitude": "25.7618",
    "Longitude": "71.4177",
    "RegionCode": "BARM",
    "State": "Rajasthan",
    "SubRegionCode": "BARM",
    "VenueAddress": "NH25, Baldev Nagar, Uttarlai Road, Barmer, Rajasthan 344001, India",
    "VenueCode": "ANCB",
    "VenueName": "Aanchal Cinema: Barmer"
  },
  "ANPT": {
    "AvailableFormats": "2D",
    "City": "Pithapuram",
    "Latitude": "17.1142",
    "Longitude": "82.2588",
    "RegionCode": "PITA",
    "State": "Andhra Pradesh",
    "SubRegionCode": "PITA",
    "VenueAddress": "Uppada - Pithapuram Road, Madhava Nagar, Pithapuram, Andhra Pradesh 533450, India",
    "VenueCode": "ANPT",
    "VenueName": "Sri Annapoorna Theatre 2K A/C DTS: Pithapuram"
  },
  "AOCH": {
    "AvailableFormats": "2D",
    "City": "Nabadwip",
    "Latitude": "23.4051",
    "Longitude": "88.3661",
    "RegionCode": "NABB",
    "State": "West Bengal",
    "SubRegionCode": "NABB",
    "VenueAddress": "78, Banerjee Para Road, Near Allahabad Bank, Nabadwip, West Bengal 741302, India",
    "VenueCode": "AOCH",
    "VenueName": "Alochaya Cinema: Nabadwip"
  },
  "APJC": {
    "AvailableFormats": "2D",
    "City": "Madurai",
    "Latitude": "9.90666",
    "Longitude": "78.0975",
    "RegionCode": "MADU",
    "State": "Tamil Nadu",
    "SubRegionCode": "MADU",
    "VenueAddress": "No. 6 Kambar street, Pasumpon Nagar, Madurai, Tamil Nadu 625003, India",
    "VenueCode": "APJC",
    "VenueName": "APR Cinemas Jeyam AC Christie 4K Dolby: Madurai"
  },
  "APSU": {
    "AvailableFormats": "2D",
    "City": "Hubli",
    "Latitude": "15.3481",
    "Longitude": "75.144",
    "RegionCode": "HUBL",
    "State": "Karnataka",
    "SubRegionCode": "HUBL",
    "VenueAddress": "Coen Road, New Hubli, Opposite Corporation Bank, Hubli, Karnataka 580020, India",
    "VenueCode": "APSU",
    "VenueName": "Apsara & Sudha Cinemas: Hubli"
  },
  "ARCR": {
    "AvailableFormats": "2D",
    "City": "Peravoor",
    "Latitude": "11.9016",
    "Longitude": "75.7307",
    "RegionCode": "PPVR",
    "State": "Kerala",
    "SubRegionCode": "PPVR",
    "VenueAddress": "Iritty Nedumpoil Road, Near Crystal Mall, Peravoor, Kerala 670673, India",
    "VenueCode": "ARCR",
    "VenueName": "Aura Cinemas: Peravoor"
  },
  "ARTH": {
    "AvailableFormats": "2D",
    "City": "Hyderabad",
    "Latitude": "17.4249",
    "Longitude": "78.5335",
    "RegionCode": "HYD",
    "State": "Telangana",
    "SubRegionCode": "HYD",
    "VenueAddress": "Professors Quarters, Inner Ring Road, Opposite Big Bazaar, Hyderabad, Telangana 500017, India",
    "VenueCode": "ARTH",
    "VenueName": "Aradhana Theatre: Hyderabad"
  },
  "ASCT": {
    "AvailableFormats": "2D",
    "City": "Thodupuzha",
    "Latitude": "9.89105",
    "Longitude": "76.7075",
    "RegionCode": "THOD",
    "State": "Kerala",
    "SubRegionCode": "THOD",
    "VenueAddress": "Near Pvt. Bus Stand, Pala Road, Thodupuzha, Kerala 685584, India",
    "VenueCode": "ASCT",
    "VenueName": "Aashirvad Cineplexx: Thodupuzha"
  },
  "ASLC": {
    "AvailableFormats": "2D",
    "City": "Trivandrum",
    "Latitude": "8.48853",
    "Longitude": "76.9461",
    "RegionCode": "VKAL",
    "State": "Kerala",
    "SubRegionCode": "VKAL",
    "VenueAddress": "Sahodara Samajam Road, near OverBridge, Thampanoor, Thiruvananthapuram, Trivandrum, Kerala 695035, India",
    "VenueCode": "ASLC",
    "VenueName": "Ariesplex SL Cinemas Cinionic Dolby Atmos"
  },
  "ASRG": {
    "AvailableFormats": "2D",
    "City": "Patna",
    "Latitude": "25.6186",
    "Longitude": "85.0469",
    "RegionCode": "PATN",
    "State": "Bihar",
    "SubRegionCode": "PATN",
    "VenueAddress": "6th Floor, Ambition Business Park, Bailey Road, Saguna More, Patna, Bihar 801503, India",
    "VenueCode": "ASRG",
    "VenueName": "ASR Cinemas, RPS More: Patna"
  },
  "ASTK": {
    "AvailableFormats": "2D",
    "City": "Kottayam",
    "Latitude": "9.58609",
    "Longitude": "76.5245",
    "RegionCode": "ETTU",
    "State": "Kerala",
    "SubRegionCode": "ETTU",
    "VenueAddress": "T.B Road, Near Ksrtc Bus Stand, Near Abhilash Theater, Kottayam, Kerala 686001, India",
    "VenueCode": "ASTK",
    "VenueName": "Asha Theatre: Kottayam"
  },
  "ATCK": {
    "AvailableFormats": "3D|2D",
    "City": "Kolkata",
    "Latitude": "22.7641",
    "Longitude": "88.3696",
    "RegionCode": "BARR",
    "State": "West Bengal",
    "SubRegionCode": "BARR",
    "VenueAddress": "91-73, Ghosh Para Road, North 24Pgs, Barrackpore, Near Barrackpore Railway Station, Kolkata, West Bengal 700120, India",
    "VenueCode": "ATCK",
    "VenueName": "Atindra Cinema: Barrackpore"
  },
  "ATPK": {
    "AvailableFormats": "2D",
    "City": "Palakkad",
    "Latitude": "10.7772",
    "Longitude": "76.6532",
    "RegionCode": "PLKK",
    "State": "Kerala",
    "SubRegionCode": "PLKK",
    "VenueAddress": "Priyadarshini Road, Sultanpet, Near Apex Residence, Palakkad, Kerala 678001, India",
    "VenueCode": "ATPK",
    "VenueName": "Aroma Theatre: Palakkad"
  },
  "AUBB": {
    "AvailableFormats": "2D",
    "City": "Bhadrachalam",
    "Latitude": "17.6735",
    "Longitude": "80.8891",
    "RegionCode": "BHDR",
    "State": "Telangana",
    "SubRegionCode": "BHDR",
    "VenueAddress": "NH30, Bhadrachalam Rd, Ashok Nagar Colony, Bhadrachalam, Telangana 507111, India",
    "VenueCode": "AUBB",
    "VenueName": "Asian Uday Bhaskar: Bhadrachalam"
  },
  "AVPS": {
    "AvailableFormats": "2D",
    "City": "Pathanapuram",
    "Latitude": "9.09231",
    "Longitude": "76.8557",
    "RegionCode": "PTPM",
    "State": "Kerala",
    "SubRegionCode": "PTPM",
    "VenueAddress": "3rd Floor,Town Center Mall, Near KSRTC Bus Stand, Pathanapuram, Kerala 689695, India",
    "VenueCode": "AVPS",
    "VenueName": "Aashirvad Cineplexx: Pathanapuram"
  },
  "AYCS": {
    "AvailableFormats": "2D",
    "City": "Shimla",
    "Latitude": "31.0979",
    "Longitude": "77.1513",
    "RegionCode": "SMLA",
    "State": "Himachal Pradesh",
    "SubRegionCode": "SMLA",
    "VenueAddress": "2nd Floor, C.K. Mall New, ISBT Tutikandi, Shimla, Himachal Pradesh 171004, India",
    "VenueCode": "AYCS",
    "VenueName": "Ayaan Cinemas: Shimla"
  },
  "BARA": {
    "AvailableFormats": "2D",
    "City": "Kolkata",
    "Latitude": "22.5794",
    "Longitude": "88.4595",
    "RegionCode": "KOLK",
    "State": "West Bengal",
    "SubRegionCode": "KOLK",
    "VenueAddress": "4TH Floor, Axis Mall, 1C, 11, CF Block(Newtown), Action Area 1C, CF-9 New Town, Rajarhat, Near Novotel Kolkata Hotel And Residences, Kolkata, West Bengal 700156, India",
    "VenueCode": "BARA",
    "VenueName": "Bioscope: Axis Mall, Rajarhat"
  },
  "BBTC": {
    "AvailableFormats": "2D",
    "City": "Channapatna",
    "Latitude": "12.6456",
    "Longitude": "77.1945",
    "RegionCode": "CPTN",
    "State": "Karnataka",
    "SubRegionCode": "CPTN",
    "VenueAddress": "16th Cross, Mangalavara Pete Road, Near Big Bazar, Channapatna, Karnataka 562160, India",
    "VenueCode": "BBTC",
    "VenueName": "Sri Balaji Talkies: Channapatna"
  },
  "BDCG": {
    "AvailableFormats": "2D",
    "City": "Bengaluru",
    "Latitude": "12.974",
    "Longitude": "77.5798",
    "RegionCode": "HOKT",
    "State": "Karnataka",
    "SubRegionCode": "HOKT",
    "VenueAddress": "23, Kempegowda Road, Mysore Bank Colony, Gandhi Nagar, Bengaluru, Karnataka 560009, India",
    "VenueCode": "BDCG",
    "VenueName": "Bhumika Digital 2K Cinema: Gandhinagar"
  },
  "BHCU": {
    "AvailableFormats": "2D",
    "City": "Udupi",
    "Latitude": "13.3426",
    "Longitude": "74.7488",
    "RegionCode": "MANI",
    "State": "Karnataka",
    "SubRegionCode": "MANI",
    "VenueAddress": "3Rd floor, Thenkpete, Maruthi Veethika, Udupi, Karnataka 576101, India",
    "VenueCode": "BHCU",
    "VenueName": "Bharath Cinemas: City Centre Mall, Udupi"
  },
  "BISW": {
    "AvailableFormats": "2D",
    "City": "Siliguri",
    "Latitude": "26.7286",
    "Longitude": "88.4139",
    "RegionCode": "SILI",
    "State": "West Bengal",
    "SubRegionCode": "SILI",
    "VenueAddress": "Hill Cart Road, Ward 2,  Sevoke Road, Pradhan Nagar, Siliguri, West Bengal 734001, India",
    "VenueCode": "BISW",
    "VenueName": "Biswadeep Talkies: Siliguri"
  },
  "BLCK": {
    "AvailableFormats": "2D",
    "City": "Kalladikode",
    "Latitude": "10.8926",
    "Longitude": "76.5402",
    "RegionCode": "KALD",
    "State": "Kerala",
    "SubRegionCode": "KALD",
    "VenueAddress": "Palakkad Highway, Kalladikode, Near Kalladikode Police Station, Kalladikode, Kerala 678596, India",
    "VenueCode": "BLCK",
    "VenueName": "Bala Cinemas Dolby Atmos Laser Tripple Beam 3D"
  },
  "BMRV": {
    "AvailableFormats": "2D",
    "City": "Veeraghattam",
    "Latitude": "18.6896",
    "Longitude": "83.6086",
    "RegionCode": "VEER",
    "State": "Andhra Pradesh",
    "SubRegionCode": "VEER",
    "VenueAddress": "Jiyyammavalasa Road, Down street, Veeraghattam, Andhra Pradesh 532460, India",
    "VenueCode": "BMRV",
    "VenueName": "BMR CINEMAX: Veeraghattam"
  },
  "BRTP": {
    "AvailableFormats": "2D",
    "City": "Palasa",
    "Latitude": "18.7661",
    "Longitude": "84.4217",
    "RegionCode": "PALS",
    "State": "Andhra Pradesh",
    "SubRegionCode": "PALS",
    "VenueAddress": "Shivaji Nagar, Kasibugga, Near Mandala Parishat Office, Palasa, Andhra Pradesh 532222, India",
    "VenueCode": "BRTP",
    "VenueName": "Bhaskara Rama A/C Dts: Palasa"
  },
  "BSSO": {
    "AvailableFormats": "2D",
    "City": "Ahmedabad",
    "Latitude": "23.0415",
    "Longitude": "72.4983",
    "RegionCode": "AHD",
    "State": "Gujarat",
    "SubRegionCode": "AHD",
    "VenueAddress": "312-314-315, Times Square Grand, Sindhu Bhavan Marg, Thaltej, Ahmedabad, Gujarat 380059, India",
    "VenueCode": "BSSO",
    "VenueName": "Sanelite Cinemas (Banana Smartplex): SBR, Thaltej"
  },
  "BTMV": {
    "AvailableFormats": "2D",
    "City": "Vadodara",
    "Latitude": "22.267",
    "Longitude": "73.2227",
    "RegionCode": "VAD",
    "State": "Gujarat",
    "SubRegionCode": "VAD",
    "VenueAddress": "Amar Shraddha Society, Danteshwar, Tarsali, Vadodara, Gujarat 390004, India",
    "VenueCode": "BTMV",
    "VenueName": "Bansal Movieplex: Tarsali, Vadodara"
  },
  "CAGL": {
    "AvailableFormats": "3D|2D",
    "City": "Navi Mumbai",
    "Latitude": "19.1203",
    "Longitude": "73.0071",
    "RegionCode": "MUMBAI",
    "State": "Maharashtra",
    "SubRegionCode": "THAN",
    "VenueAddress": "Cinepolis India Pvt Ltd  Aurum Square, Aurum Q Parc, Ghansoli, Navi Mumbai, Maharashtra 400701, India",
    "VenueCode": "CAGL",
    "VenueName": "Cinepolis: Aurum, Ghansoli, Navi Mumbai"
  },
  "CBZZ": {
    "AvailableFormats": "2D",
    "City": "Jalpaiguri",
    "Latitude": "26.5285",
    "Longitude": "88.7193",
    "RegionCode": "JPG",
    "State": "West Bengal",
    "SubRegionCode": "JPG",
    "VenueAddress": "3rd Floor, Palm Plaza, Ukil Para, Silpasamiti Para, Opposite Union Bank, Jalpaiguri, West Bengal 735101, India",
    "VenueCode": "CBZZ",
    "VenueName": "Cinebazz: Jalpaiguri"
  },
  "CCEJ": {
    "AvailableFormats": "2D",
    "City": "Jharsuguda",
    "Latitude": "21.8501",
    "Longitude": "84.0135",
    "RegionCode": "JRSG",
    "State": "Odisha",
    "SubRegionCode": "JRSG",
    "VenueAddress": "MS Khata No 635, Sarbahal Road, Jharsuguda, Odisha 768201, India",
    "VenueCode": "CCEJ",
    "VenueName": "Chhotu Maharaj CineCafe: Jharsuguda"
  },
  "CCKW": {
    "AvailableFormats": "2D",
    "City": "Singrauli",
    "Latitude": "24.0772",
    "Longitude": "82.5888",
    "RegionCode": "SNGR",
    "State": "Madhya Pradesh",
    "SubRegionCode": "SNGR",
    "VenueAddress": "Carnival Jalsa Talkies, Village Kachni, Ward No. 28, Waidhan, Near Chauhan Sheetgrih, Singrauli, Madhya Pradesh 486886, India",
    "VenueCode": "CCKW",
    "VenueName": "My Cinemas: Singrauli"
  },
  "CCPC": {
    "AvailableFormats": "2D",
    "City": "Raisinghnagar",
    "Latitude": "29.5374",
    "Longitude": "73.4503",
    "RegionCode": "RSNG",
    "State": "Rajasthan",
    "SubRegionCode": "RSNG",
    "VenueAddress": "22 PS Road, Near - Raisingnagar railway station, Raisinghnagar, Rajasthan 335051, India",
    "VenueCode": "CCPC",
    "VenueName": "Cosmo Palace Cinema: Raisinghnagar"
  },
  "CCSI": {
    "AvailableFormats": "2D|3D",
    "City": "Siliguri",
    "Latitude": "26.7394",
    "Longitude": "88.4027",
    "RegionCode": "SILI",
    "State": "West Bengal",
    "SubRegionCode": "SILI",
    "VenueAddress": "Savin Plaza, Savin Kingdom,Hill Kart Road, Dagapur, Behind Baba Loknath Mandir, Siliguri, West Bengal 734003, India",
    "VenueCode": "CCSI",
    "VenueName": "Savin Cinemas: Siliguri"
  },
  "CDDP": {
    "AvailableFormats": "2D",
    "City": "Punalur",
    "Latitude": "9.02059",
    "Longitude": "76.9193",
    "RegionCode": "PUNA",
    "State": "Kerala",
    "SubRegionCode": "PUNA",
    "VenueAddress": "Market Road, Chemmanthoor, Punalur, Kerala 691305, India",
    "VenueCode": "CDDP",
    "VenueName": "Deva Carnival Cinemas: D Mall, Punalur"
  },
  "CEIM": {
    "AvailableFormats": "2D|3D",
    "City": "Vadodara",
    "Latitude": "22.3181",
    "Longitude": "73.228",
    "RegionCode": "ANKV",
    "State": "Gujarat",
    "SubRegionCode": "ANKV",
    "VenueAddress": "3rd/4th Floor Earth Icon,New VIP Ring Road, Khodiyar Nagar Char Rasta,Near, Uma Char Rasta, Opposite Venice Villa, Khodiyar Nagar,Kishanwadi, Vadodara, Gujarat 390022, India",
    "VenueCode": "CEIM",
    "VenueName": "Cinemarc: New VIP Road"
  },
  "CGCB": {
    "AvailableFormats": "",
    "City": "Bathinda",
    "Latitude": "30.1649",
    "Longitude": "74.9233",
    "RegionCode": "BHAT",
    "State": "Punjab",
    "SubRegionCode": "BHAT",
    "VenueAddress": "3rd Floor, Green city square, Near AIIMS hospital, Dabwali Road, Bathinda, Punjab 151001, India",
    "VenueCode": "CGCB",
    "VenueName": "Cinepolis: Green City Square, Bathinda"
  },
  "CGOS": {
    "AvailableFormats": "2D",
    "City": "Ahmedabad",
    "Latitude": "23.0157",
    "Longitude": "72.5294",
    "RegionCode": "AHD",
    "State": "Gujarat",
    "SubRegionCode": "AHD",
    "VenueAddress": "Near Shyamal, Cross Road, 132 Feet Ring Road, Ahmedabad, Gujarat 380015, India",
    "VenueCode": "CGOS",
    "VenueName": "City Gold Satellite: Ahmedabad"
  },
  "CHTH": {
    "AvailableFormats": "2D",
    "City": "Bengaluru",
    "Latitude": "12.9356",
    "Longitude": "77.5616",
    "RegionCode": "HOKT",
    "State": "Karnataka",
    "SubRegionCode": "HOKT",
    "VenueAddress": "Vidyapeeta circle, Katriguppe Main Road, Hanumanthanagar, Near Parekhs Hospital, Bengaluru, Karnataka 560050, India",
    "VenueCode": "CHTH",
    "VenueName": "Chandrodaya Digital 4K Cinema: Vidyapeeta Circle"
  },
  "CIGK": {
    "AvailableFormats": "3D|2D",
    "City": "Delhi",
    "Latitude": "28.5416",
    "Longitude": "77.2402",
    "RegionCode": "NCR",
    "State": "NCR",
    "SubRegionCode": "DELHI",
    "VenueAddress": "Greater Kailash, Part 2, Outer Ring Road, Block E, Near Bank Of India, Delhi, NCR 110048, India",
    "VenueCode": "CIGK",
    "VenueName": "Cinepolis: Savitri Complex GK2"
  },
  "CJJB": {
    "AvailableFormats": "",
    "City": "Jabalpur",
    "Latitude": "23.2455",
    "Longitude": "79.881",
    "RegionCode": "JABL",
    "State": "Madhya Pradesh",
    "SubRegionCode": "JABL",
    "VenueAddress": "Servay no 14 Gram Magela Road, Post Gram Surtalai Tehsil Panagar, Jabalpur, Madhya Pradesh 482002, India",
    "VenueCode": "CJJB",
    "VenueName": "Chhotu Maharaj Cine Cafe: Jabalpur, MP"
  },
  "CLDJ": {
    "AvailableFormats": "2D",
    "City": "Ahmedabad",
    "Latitude": "23.001",
    "Longitude": "72.5348",
    "RegionCode": "AHD",
    "State": "Gujarat",
    "SubRegionCode": "AHD",
    "VenueAddress": "1st Floor ,City Gold center, Opposite Avadh Hotel, Jivraj Apmc Metro Route, Near Jivraj Police Chowki, Ahmedabad, Gujarat 380007, India",
    "VenueCode": "CLDJ",
    "VenueName": "City Gold: Jivraj Park"
  },
  "CLMM": {
    "AvailableFormats": "2D|3D",
    "City": "Mumbai",
    "Latitude": "19.0305",
    "Longitude": "72.8415",
    "RegionCode": "MUMBAI",
    "State": "Maharashtra",
    "SubRegionCode": "MCENT",
    "VenueAddress": "4th Floor, Ashford Chambers, L.J. Road, Mahim (West), Mumbai, Maharashtra 400016, India",
    "VenueCode": "CLMM",
    "VenueName": "Citylight Cinema: Mahim"
  },
  "CMCT": {
    "AvailableFormats": "2D",
    "City": "Thamarassery",
    "Latitude": "11.4148",
    "Longitude": "75.9358",
    "RegionCode": "KOZH",
    "State": "Kerala",
    "SubRegionCode": "KOZH",
    "VenueAddress": "City Mall, Thamarassery, Kerala, Thamarassery, Kerala 673573, India",
    "VenueCode": "CMCT",
    "VenueName": "City Mall Cinemas: Thamarassery"
  },
  "CMMM": {
    "AvailableFormats": "2D",
    "City": "Madhepura",
    "Latitude": "25.927",
    "Longitude": "86.7968",
    "RegionCode": "MHEA",
    "State": "Bihar",
    "SubRegionCode": "MHEA",
    "VenueAddress": "Near Parwati Science College, Birpur-Madhepura Road, Madhepura, Bihar 852113, India",
    "VenueCode": "CMMM",
    "VenueName": "Chhotu Maharaj Cine Cafe: Madhepura, Bihar"
  },
  "CMTT": {
    "AvailableFormats": "2D",
    "City": "Trivandrum",
    "Latitude": "8.48693",
    "Longitude": "76.9263",
    "RegionCode": "TRIV",
    "State": "Kerala",
    "SubRegionCode": "TRIV",
    "VenueAddress": "2nd floor, Mall of Travancore, International Airport Road, Next to Ananthapuri Hospital, Eanchakkal, Trivandrum, Kerala 695024, India",
    "VenueCode": "CMTT",
    "VenueName": "Cinepolis: MOT, Trivandrum"
  },
  "CMXM": {
    "AvailableFormats": "2D",
    "City": "Mehkar",
    "Latitude": "20.1661",
    "Longitude": "76.61",
    "RegionCode": "MEHK",
    "State": "Maharashtra",
    "SubRegionCode": "MEHK",
    "VenueAddress": "Shop No 2, Main Road, Near Khanadala, Mehkar, Maharashtra 443301, India",
    "VenueCode": "CMXM",
    "VenueName": "Cinemark Multiplex: Mehkar"
  },
  "CNCT": {
    "AvailableFormats": "2D",
    "City": "Taliparamba",
    "Latitude": "12.0345",
    "Longitude": "75.3627",
    "RegionCode": "TALI",
    "State": "Kerala",
    "SubRegionCode": "TALI",
    "VenueAddress": "Trichambaram Temple Road, Trichambaram, Near State Bank of India, Taliparamba, Kerala 670141, India",
    "VenueCode": "CNCT",
    "VenueName": "Crown Cinema 2K Dolby: Taliparamba"
  },
  "CNMS": {
    "AvailableFormats": "2D",
    "City": "Surat",
    "Latitude": "21.2299",
    "Longitude": "72.7786",
    "RegionCode": "SURT",
    "State": "Gujarat",
    "SubRegionCode": "SURT",
    "VenueAddress": "Prabhudarshan Society, Jahangirabad, Sima Nagar, Near DMart, Surat, Gujarat 395005, India",
    "VenueCode": "CNMS",
    "VenueName": "Cinezza Multiplex: Jahangirpura, Surat"
  },
  "CNTD": {
    "AvailableFormats": "2D",
    "City": "Tadepalligudem",
    "Latitude": "16.8194",
    "Longitude": "81.524",
    "RegionCode": "TADP",
    "State": "Andhra Pradesh",
    "SubRegionCode": "TADP",
    "VenueAddress": "Housing Board Colony, Sasi College Road, Tadepalligudem, Andhra Pradesh 534101, India",
    "VenueCode": "CNTD",
    "VenueName": "Connplex Cinemas (Signature): Sri Sri"
  },
  "CONN": {
    "AvailableFormats": "2D",
    "City": "Balotra",
    "Latitude": "25.7975",
    "Longitude": "72.1624",
    "RegionCode": "BALO",
    "State": "Rajasthan",
    "SubRegionCode": "BALO",
    "VenueAddress": "2nd Floor, Naresha Palace, Raj Resort, Nakoda Road, Near Rajendra Dham, Balotra, Rajasthan 344024, India",
    "VenueCode": "CONN",
    "VenueName": "Connplex Cinemas: Balotra"
  },
  "CPAR": {
    "AvailableFormats": "2D|3D",
    "City": "Pune",
    "Latitude": "18.4631",
    "Longitude": "73.8168",
    "RegionCode": "PUNE",
    "State": "Maharashtra",
    "SubRegionCode": "PUNE",
    "VenueAddress": "Near Flyover, Sinhagad Road, Vadgaon Budruk, Pune, Maharashtra 411041, India",
    "VenueCode": "CPAR",
    "VenueName": "Abhiruchi City Pride: Sinhagad Road"
  },
  "CPEM": {
    "AvailableFormats": "2D",
    "City": "Ahmedabad",
    "Latitude": "23.0233",
    "Longitude": "72.5682",
    "RegionCode": "AHD",
    "State": "Gujarat",
    "SubRegionCode": "AHD",
    "VenueAddress": "The Orient Club, Near - Gujarat College, Ahmedabad, Gujarat 380006, India",
    "VenueCode": "CPEM",
    "VenueName": "City Pulse: Orient Miniplex, Ellisbridge"
  },
  "CPKN": {
    "AvailableFormats": "2D",
    "City": "Katni",
    "Latitude": "23.8373",
    "Longitude": "80.3997",
    "RegionCode": "KATN",
    "State": "Madhya Pradesh",
    "SubRegionCode": "KATN",
    "VenueAddress": "3rd Floor, City Mall, Barhi Road, Gole Bazar, Katni, Madhya Pradesh 483501, India",
    "VenueCode": "CPKN",
    "VenueName": "City Pride: Katni"
  },
  "CPMU": {
    "AvailableFormats": "2D",
    "City": "Ahmedabad",
    "Latitude": "23.0289",
    "Longitude": "72.5088",
    "RegionCode": "AHD",
    "State": "Gujarat",
    "SubRegionCode": "AHD",
    "VenueAddress": "Baleshwar Square, Sarkhej Gandhinagar Highway, Opposite - ISKCON Temple, Ahmedabad, Gujarat 380055, India",
    "VenueCode": "CPMU",
    "VenueName": "City Pulse Miniplex: Iscon Circle S.G Highway"
  },
  "CPRT": {
    "AvailableFormats": "2D|3D",
    "City": "Ratnagiri",
    "Latitude": "16.9915",
    "Longitude": "73.3238",
    "RegionCode": "RATN",
    "State": "Maharashtra",
    "SubRegionCode": "RATN",
    "VenueAddress": "Siddhivinayak City Center, Shivajinagar, Ratnagiri, Maharashtra 415612, India",
    "VenueCode": "CPRT",
    "VenueName": "City Pride Multiplex: Shivaji Nagar, Ratnagiri"
  },
  "CPVJ": {
    "AvailableFormats": "3D|2D",
    "City": "Vijayawada",
    "Latitude": "16.5024",
    "Longitude": "80.6424",
    "RegionCode": "KADU",
    "State": "Andhra Pradesh",
    "SubRegionCode": "KADU",
    "VenueAddress": "4th Floor, PVP Square Mall, Mahatma Gandhi Road, Labbipet, Mogalrajapuram, Vijayawada, Andhra Pradesh 520010, India",
    "VenueCode": "CPVJ",
    "VenueName": "Cinepolis: PVP Square Mall, Vijayawada"
  },
  "CRPX": {
    "AvailableFormats": "2D",
    "City": "Panipat",
    "Latitude": "29.3814",
    "Longitude": "76.9802",
    "RegionCode": "PAN",
    "State": "Haryana",
    "SubRegionCode": "PAN",
    "VenueAddress": "2nd Floor, Angel Prime Mall, 12, Huda Sector 11, Panipat, Haryana 132103, India",
    "VenueCode": "CRPX",
    "VenueName": "Cinecare Multiplex: Panipat"
  },
  "CSHM": {
    "AvailableFormats": "2D",
    "City": "Mehsana",
    "Latitude": "23.6178",
    "Longitude": "72.3471",
    "RegionCode": "MEHS",
    "State": "Gujarat",
    "SubRegionCode": "MEHS",
    "VenueAddress": "B110, 1st Floor, Trogon Two, D,Mart Circle, Near Mehsana Bypass Road, Mehsana, Gujarat 384002, India",
    "VenueCode": "CSHM",
    "VenueName": "Connplex Cinemas: D`Mart Circle, Mehsana"
  },
  "CSTE": {
    "AvailableFormats": "2D",
    "City": "Ahmedabad",
    "Latitude": "23.1067",
    "Longitude": "72.5418",
    "RegionCode": "AHD",
    "State": "Gujarat",
    "SubRegionCode": "AHD",
    "VenueAddress": "RCC ROAD, 1st Floor, The Link, 100 FT, Krishna Hardware Road, Near JLR Showroom, Ahmedabad, Gujarat 382481, India",
    "VenueCode": "CSTE",
    "VenueName": "Connplex Cinemas (Signature): Gota"
  },
  "CTKR": {
    "AvailableFormats": "2D",
    "City": "Kannur",
    "Latitude": "11.8646",
    "Longitude": "75.409",
    "RegionCode": "KANN",
    "State": "Kerala",
    "SubRegionCode": "KANN",
    "VenueAddress": "3rd Floor, Secura Centre Mall, BA 233/18, Thazhachovva, Elayavoor, Kannur, Kerala 670018, India",
    "VenueCode": "CTKR",
    "VenueName": "Cinepolis: Secura Centre, Kannur"
  },
  "CTNK": {
    "AvailableFormats": "2D|3D",
    "City": "Nashik",
    "Latitude": "19.9906",
    "Longitude": "73.7614",
    "RegionCode": "NASK",
    "State": "Maharashtra",
    "SubRegionCode": "NASK",
    "VenueAddress": "Sambaji Chowk, Lawate Nagar, Banyan Square, Untwadi, Nashik, Maharashtra 422009, India",
    "VenueCode": "CTNK",
    "VenueName": "PVR: City Center, Nashik"
  },
  "CUJC": {
    "AvailableFormats": "2D",
    "City": "Hisar",
    "Latitude": "29.0998",
    "Longitude": "75.9068",
    "RegionCode": "HISR",
    "State": "Haryana",
    "SubRegionCode": "HISR",
    "VenueAddress": "Green Valley Lodge, Delhi Hisar Road, Indian Oil Petrol Pump, Hansi, Near Miyar Toll Plaza, Hisar, Haryana 125033, India",
    "VenueCode": "CUJC",
    "VenueName": "Chhotu Maharaj Cine Cafe: Hansi"
  },
  "CVRN": {
    "AvailableFormats": "3D|2D",
    "City": "Nagpur",
    "Latitude": "21.1327",
    "Longitude": "79.0957",
    "RegionCode": "NAGP",
    "State": "Maharashtra",
    "SubRegionCode": "NAGP",
    "VenueAddress": "City Survey No. 362/1, Ward No 90 (New), Mouza Jat - Tarodi, Near Medical Square, Rambagh Road, Nagpur, Maharashtra 440003, India",
    "VenueCode": "CVRN",
    "VenueName": "Cinepolis: VR Mall, Nagpur"
  },
  "CXKT": {
    "AvailableFormats": "2D",
    "City": "Katihar",
    "Latitude": "25.6067",
    "Longitude": "87.5533",
    "RegionCode": "KATI",
    "State": "Bihar",
    "SubRegionCode": "KATI",
    "VenueAddress": "IPG Mall, Near Dalan Chowk, Katihar Purina Highway, Katihar, Bihar 854105, India",
    "VenueCode": "CXKT",
    "VenueName": "Connplex Cinemas: Katihar"
  },
  "DACA": {
    "AvailableFormats": "",
    "City": "Danapur",
    "Latitude": "25.6369",
    "Longitude": "85.0458",
    "RegionCode": "PATN",
    "State": "Bihar",
    "SubRegionCode": "PATN",
    "VenueAddress": "Diana Cinema Road, Danapur Main Road, Near Danapur Bus Stand Road, Danapur, Bihar 801503, India",
    "VenueCode": "DACA",
    "VenueName": "Diana Danapur AC with New Full Screen Projection"
  },
  "DCCP": {
    "AvailableFormats": "2D",
    "City": "Pune",
    "Latitude": "18.7516",
    "Longitude": "73.8353",
    "RegionCode": "KHED",
    "State": "Maharashtra",
    "SubRegionCode": "KHED",
    "VenueAddress": "City Plaza, Talegaon, Chakan Road, Pune, Maharashtra 410501, India",
    "VenueCode": "DCCP",
    "VenueName": "Dharmatma Cinemark: Chakan, Pune"
  },
  "DCMV": {
    "AvailableFormats": "3D|2D",
    "City": "Noida",
    "Latitude": "28.5673",
    "Longitude": "77.3213",
    "RegionCode": "NCR",
    "State": "NCR",
    "SubRegionCode": "NOIDA",
    "VenueAddress": "5th Floor, DLF Mall of India, Plot No M03, A602/A701B, Sector 18, Noida, NCR 201301, India",
    "VenueCode": "DCMV",
    "VenueName": "PVR Directors Cut, DLF Mall Of India: Noida"
  },
  "DDJP": {
    "AvailableFormats": "2D",
    "City": "Jaipur",
    "Latitude": "26.8024",
    "Longitude": "75.857",
    "RegionCode": "JAIP",
    "State": "Rajasthan",
    "SubRegionCode": "JAIP",
    "VenueAddress": "DD Cinemas, 5th Floor, Viva City Mall, C-3, Mahal Road, Near Akshay Patra Temple, Mahal Yojana, Jagatpura, Shri Kishanpura, Jaipur, Rajasthan 302022, India",
    "VenueCode": "DDJP",
    "VenueName": "DD Cinemas: Vivacity Mall, Jaipur"
  },
  "DESC": {
    "AvailableFormats": "2D",
    "City": "Wani",
    "Latitude": "20.0441",
    "Longitude": "78.9582",
    "RegionCode": "WANI",
    "State": "Maharashtra",
    "SubRegionCode": "WANI",
    "VenueAddress": "MIDC Road, Wani, Near Hanuman Temple, Wani, Maharashtra 445304, India",
    "VenueCode": "DESC",
    "VenueName": "Deepti Sky Cinex: Wani"
  },
  "DIKT": {
    "AvailableFormats": "2D",
    "City": "Madurai",
    "Latitude": "9.88169",
    "Longitude": "78.0556",
    "RegionCode": "MADU",
    "State": "Tamil Nadu",
    "SubRegionCode": "MADU",
    "VenueAddress": "National Highway 7, Thirunagar, Thanakkankulam, Near LIC of India, Branch Office, Madurai, Tamil Nadu 625006, India",
    "VenueCode": "DIKT",
    "VenueName": "Dhevi Kalaivani Theatre A/C DTS: Madurai"
  },
  "DLPB": {
    "AvailableFormats": "2D",
    "City": "Barpeta Road",
    "Latitude": "26.4894",
    "Longitude": "90.9684",
    "RegionCode": "BRPD",
    "State": "Assam",
    "SubRegionCode": "BRPD",
    "VenueAddress": "Ward No. 9, Barpeta Road Post Office, Barpeta Road, Barpeta Road, Assam 781315, India",
    "VenueCode": "DLPB",
    "VenueName": "Dilip Cinema: Barpeta Road"
  },
  "DNCY": {
    "AvailableFormats": "2D",
    "City": "Changanassery",
    "Latitude": "9.44182",
    "Longitude": "76.5444",
    "RegionCode": "CNSY",
    "State": "Kerala",
    "SubRegionCode": "CNSY",
    "VenueAddress": "Dhanya Complex, Main Central Road, Perunna, Near NSS College, Changanassery, Kerala 686101, India",
    "VenueCode": "DNCY",
    "VenueName": "Dhanya Remya: Changanassery"
  },
  "DRCD": {
    "AvailableFormats": "2D",
    "City": "Itanagar",
    "Latitude": "27.0874",
    "Longitude": "93.6113",
    "RegionCode": "ITNG",
    "State": "Arunachal Pradesh",
    "SubRegionCode": "ITNG",
    "VenueAddress": "Ganga Market, Highway No 415, Itanagar, Arunachal Pradesh 791113, India",
    "VenueCode": "DRCD",
    "VenueName": "Drodel Cineworld, Akashdeep: Itanagar"
  },
  "DTPD": {
    "AvailableFormats": "2D",
    "City": "Pendra",
    "Latitude": "22.7551",
    "Longitude": "81.9028",
    "RegionCode": "PEND",
    "State": "Chhattisgarh",
    "SubRegionCode": "PEND",
    "VenueAddress": "Gaurella, Pendra Road, Opposite Shivam Mithai, Pendra, Chhattisgarh 495117, India",
    "VenueCode": "DTPD",
    "VenueName": "Durgesh Talkies: Pendra"
  },
  "DVCF": {
    "AvailableFormats": "2D",
    "City": "Ramjibanpur",
    "Latitude": "22.8259",
    "Longitude": "87.6007",
    "RegionCode": "PUUR",
    "State": "West Bengal",
    "SubRegionCode": "PUUR",
    "VenueAddress": "Devleen Cinema, Near Sandipa Jewellers, Pashchim Medinipur, Ramjibanpur, West Bengal 721242, India",
    "VenueCode": "DVCF",
    "VenueName": "Devleen Cinema: Ramjibanpur"
  },
  "EBCA": {
    "AvailableFormats": "",
    "City": "Kundli",
    "Latitude": "28.9099",
    "Longitude": "77.1097",
    "RegionCode": "NCR",
    "State": "NCR",
    "SubRegionCode": "KUND",
    "VenueAddress": "Parker Mall Sector 62, National Highway 1, Kundli, NCR 131028, India",
    "VenueCode": "EBCA",
    "VenueName": "eBox Cinema: Parker Mall, Kundli"
  },
  "EDSR": {
    "AvailableFormats": "2D",
    "City": "Sattenapalle",
    "Latitude": "16.3953",
    "Longitude": "80.142",
    "RegionCode": "SATL",
    "State": "Andhra Pradesh",
    "SubRegionCode": "SATL",
    "VenueAddress": "Narasaraopet Sattenapalli Road, Near Santhoshini Earth Movers, Sattenapalle, Andhra Pradesh 522403, India",
    "VenueCode": "EDSR",
    "VenueName": "Eswarsai 4K Dolby Atmos: Sattenapalle"
  },
  "EMCI": {
    "AvailableFormats": "2D",
    "City": "Kolkata",
    "Latitude": "22.3973",
    "Longitude": "88.4883",
    "RegionCode": "BARR",
    "State": "West Bengal",
    "SubRegionCode": "BARR",
    "VenueAddress": "Baruipur - Champahati Road, Opposite State Bank of India, Kolkata, West Bengal 743330, India",
    "VenueCode": "EMCI",
    "VenueName": "Elora Multiplex: Champahati"
  },
  "ESBW": {
    "AvailableFormats": "2D|3D",
    "City": "Pune",
    "Latitude": "18.5471",
    "Longitude": "73.9294",
    "RegionCode": "PUNE",
    "State": "Maharashtra",
    "SubRegionCode": "PUNE",
    "VenueAddress": "Old Mundhwa Road, Sector Number 3, Maruti Nagar, Kharadi, Wadgaon Sheri Bypass, Pune, Maharashtra 411014, India",
    "VenueCode": "ESBW",
    "VenueName": "Bollywood Multiplex: Kharadi"
  },
  "ETPB": {
    "AvailableFormats": "2D",
    "City": "Bhavnagar",
    "Latitude": "21.7716",
    "Longitude": "72.1462",
    "RegionCode": "BHNG",
    "State": "Gujarat",
    "SubRegionCode": "BHNG",
    "VenueAddress": "Shiva Blessing 2, Shilpi Nagar, Opposite Bhavnagar Municipal Corporation, Bhavnagar, Gujarat 364001, India",
    "VenueCode": "ETPB",
    "VenueName": "The Entertainment Park: Bhavnagar"
  },
  "EYHZ": {
    "AvailableFormats": "2D",
    "City": "Hazaribagh",
    "Latitude": "23.9914",
    "Longitude": "85.3541",
    "RegionCode": "HAZA",
    "State": "Jharkhand",
    "SubRegionCode": "HAZA",
    "VenueAddress": "Indralok Tower, 4th floor, Main Road Gwal Toli Chowk, Azad Mahalla, Hazaribagh, Jharkhand 825301, India",
    "VenueCode": "EYHZ",
    "VenueName": "Eylex Cinema: Hazaribagh"
  },
  "FDDH": {
    "AvailableFormats": "2D",
    "City": "Etawah",
    "Latitude": "26.7709",
    "Longitude": "79.0256",
    "RegionCode": "ETWH",
    "State": "Uttar Pradesh",
    "SubRegionCode": "ETWH",
    "VenueAddress": "Ram Lila Road, Anand Nagar, Lalpura, Etawah, Uttar Pradesh 206001, India",
    "VenueCode": "FDDH",
    "VenueName": "Fun DD Cinema: Etawah"
  },
  "FMJP": {
    "AvailableFormats": "3D|2D",
    "City": "Pune",
    "Latitude": "18.6486",
    "Longitude": "73.7847",
    "RegionCode": "PUNE",
    "State": "Maharashtra",
    "SubRegionCode": "PUNE",
    "VenueAddress": "Jai Ganesh Vision Mall, Akurdi Chowk, Ganga Nagar, Behind Greaves Cotton Company, Pune, Maharashtra 411035, India",
    "VenueCode": "FMJP",
    "VenueName": "INOX: Jai Ganesh, Akurdi"
  },
  "FNAN": {
    "AvailableFormats": "2D|3D",
    "City": "Mumbai",
    "Latitude": "19.1358",
    "Longitude": "72.8332",
    "RegionCode": "MUMBAI",
    "State": "Maharashtra",
    "SubRegionCode": "MWEST",
    "VenueAddress": "Plot No.844/4,Level 4, Shah Industrial Estate, Veera Desai Road, Andheri(West), Near ICICI Bank ATM, Mumbai, Maharashtra 400053, India",
    "VenueCode": "FNAN",
    "VenueName": "Cinepolis: Fun Republic Mall, Andheri (W)"
  },
  "FNGW": {
    "AvailableFormats": "2D|3D",
    "City": "Gwalior",
    "Latitude": "26.2094",
    "Longitude": "78.1663",
    "RegionCode": "GWAL",
    "State": "Madhya Pradesh",
    "SubRegionCode": "GWAL",
    "VenueAddress": "Dindayal City Mall, MLB Road, Lashkar, Opp Zoo, Gwalior, Madhya Pradesh 474001, India",
    "VenueCode": "FNGW",
    "VenueName": "Fun Cinemas: DD City Mall, Gwalior"
  },
  "FPPF": {
    "AvailableFormats": "2D",
    "City": "Ponkunnam",
    "Latitude": "9.56543",
    "Longitude": "76.7565",
    "RegionCode": "PONK",
    "State": "Kerala",
    "SubRegionCode": "PONK",
    "VenueAddress": "Post Office Road, Near Art Line Digital Studio, Ponkunnam, Kerala 686506, India",
    "VenueCode": "FPPF",
    "VenueName": "Focus Cinemas: Ponkunnam"
  },
  "FSMA": {
    "AvailableFormats": "2D",
    "City": "Angamaly",
    "Latitude": "10.2119",
    "Longitude": "76.4519",
    "RegionCode": "KLDY",
    "State": "Kerala",
    "SubRegionCode": "KLDY",
    "VenueAddress": "Canal Pass, Manjapra, Angamaly, Kerala 683581, India",
    "VenueCode": "FSMA",
    "VenueName": "Four Star Movies: Manjapra, Angamaly"
  },
  "GAGA": {
    "AvailableFormats": "2D",
    "City": "Nabarangpur",
    "Latitude": "19.2124",
    "Longitude": "82.5491",
    "RegionCode": "NAGU",
    "State": "Odisha",
    "SubRegionCode": "NAGU",
    "VenueAddress": "Glaze Hotel and Resorts Pvt Limited, National Highway, Chamuriyaguda, Nabarangpur, Odisha 764059, India",
    "VenueCode": "GAGA",
    "VenueName": "Glaze Cinemas: Nabarangpur"
  },
  "GATP": {
    "AvailableFormats": "2D",
    "City": "Palakollu",
    "Latitude": "16.5176",
    "Longitude": "81.7184",
    "RegionCode": "PLKL",
    "State": "Andhra Pradesh",
    "SubRegionCode": "PLKL",
    "VenueAddress": "PP Road, Near Krishna Bhavani Hospital, Palakollu, Andhra Pradesh 534260, India",
    "VenueCode": "GATP",
    "VenueName": "Geetha Annapurna Theatre: Palakollu"
  },
  "GCBA": {
    "AvailableFormats": "2D",
    "City": "Barnala",
    "Latitude": "30.2621",
    "Longitude": "75.2356",
    "RegionCode": "BAR",
    "State": "Punjab",
    "SubRegionCode": "BAR",
    "VenueAddress": "Bathinda Road, Near T-Point, Barnala, Punjab 148101, India",
    "VenueCode": "GCBA",
    "VenueName": "GE Cinemas: Barnala"
  },
  "GCFA": {
    "AvailableFormats": "2D",
    "City": "Fulkusma",
    "Latitude": "22.7119",
    "Longitude": "86.8696",
    "RegionCode": "FULK",
    "State": "West Bengal",
    "SubRegionCode": "FULK",
    "VenueAddress": "Gandheswari Chitralaya, Bankura Road, Fulkusma, West Bengal 722134, India",
    "VenueCode": "GCFA",
    "VenueName": "Gandheswari Chitralaya: Fulkushma"
  },
  "GCMA": {
    "AvailableFormats": "2D",
    "City": "Morena",
    "Latitude": "26.4905",
    "Longitude": "77.9869",
    "RegionCode": "MRMP",
    "State": "Madhya Pradesh",
    "SubRegionCode": "MRMP",
    "VenueAddress": "Hariraj Palace, M S Road, Morena, Madhya Pradesh 476001, India",
    "VenueCode": "GCMA",
    "VenueName": "Gold Cinema: Morena"
  },
  "GCRP": {
    "AvailableFormats": "2D",
    "City": "Chennai",
    "Latitude": "13.0999",
    "Longitude": "80.1795",
    "RegionCode": "CHEN",
    "State": "Tamil Nadu",
    "SubRegionCode": "CHEN",
    "VenueAddress": "64, Periyar Nagar, Mes Colony, Chennai, Tamil Nadu 600050, India",
    "VenueCode": "GCRP",
    "VenueName": "Green Cinemas 4K Atmos, PLF: Padi"
  },
  "GCYC": {
    "AvailableFormats": "2D",
    "City": "Yewat",
    "Latitude": "18.4758",
    "Longitude": "74.2682",
    "RegionCode": "YEWE",
    "State": "Maharashtra",
    "SubRegionCode": "YEWE",
    "VenueAddress": "Yawat Dorgewadi Road, Yavat, Yewat, Maharashtra 412214, India",
    "VenueCode": "GCYC",
    "VenueName": "Gunjan Cinema: Yewat"
  },
  "GDCP": {
    "AvailableFormats": "",
    "City": "Jaipur",
    "Latitude": "26.9355",
    "Longitude": "75.7919",
    "RegionCode": "JAIP",
    "State": "Rajasthan",
    "SubRegionCode": "JAIP",
    "VenueAddress": "City Plaza Mall, Jhotwara Road, Sindhi Colony, Bani Park, Jaipur, Rajasthan 302016, India",
    "VenueCode": "GDCP",
    "VenueName": "Gold Cinema: City Plaza, Bani Park (Newly Opened)"
  },
  "GDTH": {
    "AvailableFormats": "3D|2D",
    "City": "Thane",
    "Latitude": "19.1905",
    "Longitude": "72.9766",
    "RegionCode": "MUMBAI",
    "State": "Maharashtra",
    "SubRegionCode": "THNE",
    "VenueAddress": "Prabhat Plaza, 3rd Floor, Station Road, Shivaji Road, Near Talao Pali, Thane, Maharashtra 400601, India",
    "VenueCode": "GDTH",
    "VenueName": "Gold  Cinema: Shivaji Road, Thane (W)"
  },
  "GGCS": {
    "AvailableFormats": "2D",
    "City": "Seethathodu",
    "Latitude": "9.325442",
    "Longitude": "76.969631",
    "RegionCode": "SXCF",
    "State": "Kerala",
    "SubRegionCode": "SXCF",
    "VenueAddress": "Gavi Shopping Complex, Chittar, Angamoozhy Road, Seethathodu, Kerala 689667, India",
    "VenueCode": "GGCS",
    "VenueName": "Gavi Galaxi Cinemas: Seethathodu"
  },
  "GKCC": {
    "AvailableFormats": "2D",
    "City": "Coimbatore",
    "Latitude": "10.9543",
    "Longitude": "76.7892",
    "RegionCode": "COIM",
    "State": "Tamil Nadu",
    "SubRegionCode": "COIM",
    "VenueAddress": "Siruvani Road, Alandurai, Near Canara Bank, Coimbatore, Tamil Nadu 641010, India",
    "VenueCode": "GKCC",
    "VenueName": "Gokulam Cinemas A/C 2K: Coimbatore"
  },
  "GLOB": {
    "AvailableFormats": "3D|2D",
    "City": "Belagavi (Belgaum)",
    "Latitude": "15.8516",
    "Longitude": "74.5054",
    "RegionCode": "BELG",
    "State": "Karnataka",
    "SubRegionCode": "BELG",
    "VenueAddress": "Camp Area, Khanapur Road, Opposite Hotel Pranaam, Belagavi (Belgaum), Karnataka 590001, India",
    "VenueCode": "GLOB",
    "VenueName": "Globe Cinemas: Camp Area"
  },
  "GOCS": {
    "AvailableFormats": "2D|3D",
    "City": "Mumbai",
    "Latitude": "19.0895",
    "Longitude": "72.8393",
    "RegionCode": "MUMBAI",
    "State": "Maharashtra",
    "SubRegionCode": "MWEST",
    "VenueAddress": "2nd Floor, Milan Garment Hub, Milan Subway Road, Santacruz West, Mumbai, Maharashtra 400054, India",
    "VenueCode": "GOCS",
    "VenueName": "Gold Cinema: Santacruz (W)"
  },
  "GPKA": {
    "AvailableFormats": "2D",
    "City": "Seoni",
    "Latitude": "22.0777",
    "Longitude": "79.5459",
    "RegionCode": "SEON",
    "State": "Madhya Pradesh",
    "SubRegionCode": "SEON",
    "VenueAddress": "Gopika Cinema and Shopping Mall, Nagpur Road, Seoni, Madhya Pradesh 480661, India",
    "VenueCode": "GPKA",
    "VenueName": "Gopika Cinema: Seoni"
  },
  "GRGA": {
    "AvailableFormats": "3D|2D",
    "City": "Guwahati",
    "Latitude": "26.1288",
    "Longitude": "91.811",
    "RegionCode": "GUW",
    "State": "Assam",
    "SubRegionCode": "GUW",
    "VenueAddress": "6th Floor, NRB City Mall, GS Raod, Sixmile, Khanapara, Guwahati, Assam 781022, India",
    "VenueCode": "GRGA",
    "VenueName": "Grand Royal Cines, Sixmile: Guwahati"
  },
  "GTBY": {
    "AvailableFormats": "2D",
    "City": "Bellary",
    "Latitude": "15.1441",
    "Longitude": "76.9284",
    "RegionCode": "BLRY",
    "State": "Karnataka",
    "SubRegionCode": "BLRY",
    "VenueAddress": "Natraj Theater Royal Circle, Natraj Theater Complex, Old Katte Gudda, Cowl Bazaar, Bellary, Karnataka 583101, India",
    "VenueCode": "GTBY",
    "VenueName": "Ganga Theatre: Bellary"
  },
  "GTSG": {
    "AvailableFormats": "2D",
    "City": "Gudivada",
    "Latitude": "16.4378",
    "Longitude": "80.9924",
    "RegionCode": "GUDI",
    "State": "Andhra Pradesh",
    "SubRegionCode": "GUDI",
    "VenueAddress": "D.No 11-235, Eluru Road, Gudivada, Andhra Pradesh 521301, India",
    "VenueCode": "GTSG",
    "VenueName": "G3 Theatres Sindhura: Gudivada"
  },
  "GVCP": {
    "AvailableFormats": "2D",
    "City": "Pileru",
    "Latitude": "13.6577",
    "Longitude": "78.9366",
    "RegionCode": "PLRU",
    "State": "Andhra Pradesh",
    "SubRegionCode": "PLRU",
    "VenueAddress": "Off National Highway 205, Piler, Pileru, Andhra Pradesh 517214, India",
    "VenueCode": "GVCP",
    "VenueName": "GV Cinemas (Ajantha Theater): Pileru"
  },
  "HANS": {
    "AvailableFormats": "",
    "City": "Chalisgaon",
    "Latitude": "20.4616",
    "Longitude": "74.9972",
    "RegionCode": "CHLS",
    "State": "Maharashtra",
    "SubRegionCode": "CHLS",
    "VenueAddress": "92, Ganesh Nagar, Hans Theatre Road, Chalisgaon, Maharashtra 424101, India",
    "VenueCode": "HANS",
    "VenueName": "Raj Chitramandir: Chalisgaon"
  },
  "HFSQ": {
    "AvailableFormats": "2D",
    "City": "Bicholim",
    "Latitude": "15.5878",
    "Longitude": "73.9441",
    "RegionCode": "GOA",
    "State": "Goa",
    "SubRegionCode": "BICG",
    "VenueAddress": "Bicholim Road, Bicholim, Near Dreams Bakery, Bicholim, Goa 403504, India",
    "VenueCode": "HFSQ",
    "VenueName": "Z Square Hira Talkies: Bicholim"
  },
  "HMMW": {
    "AvailableFormats": "2D|3D",
    "City": "Washim",
    "Latitude": "20.1096",
    "Longitude": "77.1269",
    "RegionCode": "WASH",
    "State": "Maharashtra",
    "SubRegionCode": "WASH",
    "VenueAddress": "Upper Ground Floor,B-Wing, Patni Commercial Comple, Washim, Maharashtra 444505, India",
    "VenueCode": "HMMW",
    "VenueName": "H2M Movieplex: Washim"
  },
  "HVCD": {
    "AvailableFormats": "",
    "City": "Gurugram (Gurgaon)",
    "Latitude": "28.403",
    "Longitude": "76.9739",
    "RegionCode": "NCR",
    "State": "NCR",
    "SubRegionCode": "GURG",
    "VenueAddress": "SVH Metro Street, 2nd Floor, Sector 83, Gurugram (Gurgaon), NCR 122012, India",
    "VenueCode": "HVCD",
    "VenueName": "Cineport Cinemas: SVH Metro Street, Sector 83"
  },
  "IDRM": {
    "AvailableFormats": "2D|3D",
    "City": "Bhubaneswar",
    "Latitude": "20.241",
    "Longitude": "85.7585",
    "RegionCode": "JATN",
    "State": "Odisha",
    "SubRegionCode": "JATN",
    "VenueAddress": "2nd Floor, DN Regalia Mall, IDCO Plot No 1/A, Bhagabanpur Industrial Estate, Patrapada, Bhubaneswar, Odisha 751019, India",
    "VenueCode": "IDRM",
    "VenueName": "INOX: DN Regalia Mall"
  },
  "ILKS": {
    "AvailableFormats": "2D",
    "City": "Hyderabad",
    "Latitude": "17.477071",
    "Longitude": "78.422257",
    "RegionCode": "HYD",
    "State": "Telangana",
    "SubRegionCode": "HYD",
    "VenueAddress": "2nd Floor, Lake Shore Mall, IDA Kukatpally, Hyderabad, Telangana 500072, India",
    "VenueCode": "ILKS",
    "VenueName": "PVR Lakeshore PXL 4K Laser ATMOS DTS-X Y Junction"
  },
  "IMMO": {
    "AvailableFormats": "2D|2D SCREEN X",
    "City": "Bengaluru",
    "Latitude": "13.0702",
    "Longitude": "77.5924",
    "RegionCode": "BANG",
    "State": "Karnataka",
    "SubRegionCode": "BANG",
    "VenueAddress": "239/240, Byatarayanapura, Yelahanka Taluk, Bellary Road, Bengaluru, Karnataka 560092, India",
    "VenueCode": "IMMO",
    "VenueName": "INOX: Megaplex Mall of Asia Bangalore"
  },
  "INAM": {
    "AvailableFormats": "3D|2D",
    "City": "Kota",
    "Latitude": "25.1619",
    "Longitude": "75.8635",
    "RegionCode": "KOTA",
    "State": "Rajasthan",
    "SubRegionCode": "KOTA",
    "VenueAddress": "Kota Ahluwalias Great Mall, DCM Road, Ramchandrapura, Dhanmandi, Kota, Rajasthan 324005, India",
    "VenueCode": "INAM",
    "VenueName": "INOX: Ahluwalias Great Mall, Kota"
  },
  "INBP": {
    "AvailableFormats": "2D|3D",
    "City": "Patna",
    "Latitude": "25.6175",
    "Longitude": "85.1352",
    "RegionCode": "PATN",
    "State": "Bihar",
    "SubRegionCode": "PATN",
    "VenueAddress": "3rd Floor, City Centre Mall, Lodipur, Patna, Bihar 800001, India",
    "VenueCode": "INBP",
    "VenueName": "INOX: City Centre Mall, Patna"
  },
  "INEM": {
    "AvailableFormats": "2D",
    "City": "Jaipur",
    "Latitude": "26.8954",
    "Longitude": "75.7486",
    "RegionCode": "JAIP",
    "State": "Rajasthan",
    "SubRegionCode": "JAIP",
    "VenueAddress": "3rd Floor, Elements Mall, Ajmer Road, Mahatma Gandhi Nagar, Jaipur, Rajasthan 302021, India",
    "VenueCode": "INEM",
    "VenueName": "INOX: Elements Mall, Ajmer Road"
  },
  "INHY": {
    "AvailableFormats": "2D",
    "City": "Hyderabad",
    "Latitude": "17.4196",
    "Longitude": "78.4486",
    "RegionCode": "HYD",
    "State": "Telangana",
    "SubRegionCode": "HYD",
    "VenueAddress": "4th Floor, GVK One Mall, Road No.1, Banjara Hills, Opposite Hyatt Place, Hyderabad, Telangana 500034, India",
    "VenueCode": "INHY",
    "VenueName": "INOX GVK One, Banjara Hills: Hyderabad"
  },
  "INMH": {
    "AvailableFormats": "2D|3D",
    "City": "Hyderabad",
    "Latitude": "17.3907",
    "Longitude": "78.4884",
    "RegionCode": "HYD",
    "State": "Telangana",
    "SubRegionCode": "HYD",
    "VenueAddress": "5th Floor, Maheshwari Parmeshwari Mall, Kachiguda Cross Roads, Hyderabad, Telangana 500027, India",
    "VenueCode": "INMH",
    "VenueName": "INOX: Maheshwari Parmeshwari Mall, Kachiguda"
  },
  "INPC": {
    "AvailableFormats": "2D|3D",
    "City": "Chandigarh",
    "Latitude": "30.7527",
    "Longitude": "76.9086",
    "RegionCode": "CHD",
    "State": "Chandigarh",
    "SubRegionCode": "CHD",
    "VenueAddress": "Amravati, Enclave, Chandigarh, Chandigarh 110065, India",
    "VenueCode": "INPC",
    "VenueName": "INOX: NH22 Mall, Amravati Enclave, Panchkula"
  },
  "INRC": {
    "AvailableFormats": "2D|3D|IMAX 2D",
    "City": "Mumbai",
    "Latitude": "19.0994",
    "Longitude": "72.9161",
    "RegionCode": "MUMBAI",
    "State": "Maharashtra",
    "SubRegionCode": "MCENT",
    "VenueAddress": "3rd Floor, R City Mall, Lal Bahadur Shastri Marg, Ghatkopar West, Mumbai, Maharashtra 400086, India",
    "VenueCode": "INRC",
    "VenueName": "INOX: R-City, Ghatkopar"
  },
  "INSE": {
    "AvailableFormats": "2D",
    "City": "Vadodara",
    "Latitude": "22.3229",
    "Longitude": "73.1866",
    "RegionCode": "VAD",
    "State": "Gujarat",
    "SubRegionCode": "VAD",
    "VenueAddress": "4th Floor, Seven Seas Mall, IPCL Circle, Fatehgunj, Jayesh Colony, Vadodara, Gujarat 390002, India",
    "VenueCode": "INSE",
    "VenueName": "Infinity 7 Seas Cinema: Fatehganj"
  },
  "INTO": {
    "AvailableFormats": "2D",
    "City": "Chennai",
    "Latitude": "12.8362",
    "Longitude": "80.2296",
    "RegionCode": "CHEN",
    "State": "Tamil Nadu",
    "SubRegionCode": "CHEN",
    "VenueAddress": "3rd Floor, The Marina Mall, Old Mahabalipuram Road, Egatoor, Navalur, Chennai, Tamil Nadu 603103, India",
    "VenueCode": "INTO",
    "VenueName": "INOX: The Marina Mall, OMR"
  },
  "INVR": {
    "AvailableFormats": "2D|3D",
    "City": "Surat",
    "Latitude": "21.1455",
    "Longitude": "72.7571",
    "RegionCode": "SURT",
    "State": "Gujarat",
    "SubRegionCode": "SURT",
    "VenueAddress": "3rd Floor, VR Mall, Dumas Road, Magdalla, Near Sunglass Hut, Surat, Gujarat 395007, India",
    "VenueCode": "INVR",
    "VenueName": "INOX: VR Mall, Surat"
  },
  "IOMH": {
    "AvailableFormats": "2D",
    "City": "Hyderabad",
    "Latitude": "17.405558",
    "Longitude": "78.496391",
    "RegionCode": "HYD",
    "State": "Telangana",
    "SubRegionCode": "HYD",
    "VenueAddress": "Odeon Mall, Chikkadpally, New Nallakunta, Hyderabad, Telangana 500020, India",
    "VenueCode": "IOMH",
    "VenueName": "INOX: Odeon 4K, LASER, ATMOS, DTS-X: RTC X Roads"
  },
  "IPMM": {
    "AvailableFormats": "2D",
    "City": "Mughalsarai",
    "Latitude": "25.2937",
    "Longitude": "83.0992",
    "RegionCode": "MGSI",
    "State": "Uttar Pradesh",
    "SubRegionCode": "MGSI",
    "VenueAddress": "Second Floor, IP Mughal Multiplex, Chandauli District, GT Road, Mughalsarai, Uttar Pradesh 232101, India",
    "VenueCode": "IPMM",
    "VenueName": "IP Cinemas: IP Mughal Multiplex"
  },
  "ISML": {
    "AvailableFormats": "2D|3D",
    "City": "Gurugram (Gurgaon)",
    "Latitude": "28.3925",
    "Longitude": "76.9676",
    "RegionCode": "NCR",
    "State": "NCR",
    "SubRegionCode": "GURG",
    "VenueAddress": "INOX Leisure Ltd, 2nd Floor, Sapphire Mall, Sector - 83, NH - 8, Gurugram (Gurgaon), NCR 122004, India",
    "VenueCode": "ISML",
    "VenueName": "INOX: Gurgaon Sapphire 83"
  },
  "IWPM": {
    "AvailableFormats": "2D",
    "City": "Gangtok",
    "Latitude": "27.3295",
    "Longitude": "88.612",
    "RegionCode": "GANG",
    "State": "Sikkim",
    "SubRegionCode": "GANG",
    "VenueAddress": "4th Floor, West Point Mall, DPH Road, Arithang, Gangtok, Sikkim 737101, India",
    "VenueCode": "IWPM",
    "VenueName": "INOX: West Point Mall, Gangtok-MN"
  },
  "JBCA": {
    "AvailableFormats": "2D",
    "City": "Trivandrum",
    "Latitude": "8.71232",
    "Longitude": "76.813",
    "RegionCode": "VKAL",
    "State": "Kerala",
    "SubRegionCode": "VKAL",
    "VenueAddress": "Alamcode, Near - Vazhiyorakkada Restaurant, Trivandrum, Kerala 695102, India",
    "VenueCode": "JBCA",
    "VenueName": "Thapasya Cine House: Attingal"
  },
  "JCMA": {
    "AvailableFormats": "2D|3D",
    "City": "Ambikapur",
    "Latitude": "23.1266",
    "Longitude": "83.1916",
    "RegionCode": "AMBI",
    "State": "Chhattisgarh",
    "SubRegionCode": "AMBI",
    "VenueAddress": "Devigang Road, Near Mahamaya Chowk, Ambikapur, Chhattisgarh 497001, India",
    "VenueCode": "JCMA",
    "VenueName": "JCM Multiplex: Ambikapur"
  },
  "JEMC": {
    "AvailableFormats": "2D",
    "City": "Chotila",
    "Latitude": "22.4669",
    "Longitude": "71.2678",
    "RegionCode": "CHOT",
    "State": "Gujarat",
    "SubRegionCode": "CHOT",
    "VenueAddress": "NH. 8, A Magharikhada, Near Bitter Beans Cafe and Food Zone, Chotila, Gujarat 363520, India",
    "VenueCode": "JEMC",
    "VenueName": "Jolly Enjoy Multiplex: Chotila"
  },
  "JJDA": {
    "AvailableFormats": "2D",
    "City": "Pathapatnam",
    "Latitude": "18.7523",
    "Longitude": "84.0947",
    "RegionCode": "PRKM",
    "State": "Andhra Pradesh",
    "SubRegionCode": "PRKM",
    "VenueAddress": "Jagatha Janani Theatre, Near St.Ann`s School, Srikakulam District, Pathapatnam, Andhra Pradesh 532213, India",
    "VenueCode": "JJDA",
    "VenueName": "J &J Cinemas A/C Dolby Atmos: Pathapatnam"
  },
  "JMEX": {
    "AvailableFormats": "2D",
    "City": "Malkangiri",
    "Latitude": "18.364",
    "Longitude": "81.9024",
    "RegionCode": "MALG",
    "State": "Odisha",
    "SubRegionCode": "MALG",
    "VenueAddress": "National Highway 326, Near Kaniska Automobiles, Malkangiri, Odisha 764045, India",
    "VenueCode": "JMEX",
    "VenueName": "J Max Cinemas: Malkangiri"
  },
  "JPCJ": {
    "AvailableFormats": "2D",
    "City": "Jalalabad",
    "Latitude": "30.6035",
    "Longitude": "74.2602",
    "RegionCode": "JLAB",
    "State": "Punjab",
    "SubRegionCode": "JLAB",
    "VenueAddress": "J P Cinema, Muktsar Road, Jalalabad, Punjab 152024, India",
    "VenueCode": "JPCJ",
    "VenueName": "JP Cinema: Jalalabad"
  },
  "JTCK": {
    "AvailableFormats": "2D",
    "City": "Kozhikode",
    "Latitude": "11.2898",
    "Longitude": "75.7751",
    "RegionCode": "KOZH",
    "State": "Kerala",
    "SubRegionCode": "KOZH",
    "VenueAddress": "East Hill, Near Center School, Opposite State Bank of India, Kozhikode, Kerala 673005, India",
    "VenueCode": "JTCK",
    "VenueName": "Regal Cinemas: Kozhikode"
  },
  "JTMN": {
    "AvailableFormats": "2D",
    "City": "Jaipur",
    "Latitude": "26.8372",
    "Longitude": "75.8339",
    "RegionCode": "JAIP",
    "State": "Rajasthan",
    "SubRegionCode": "JAIP",
    "VenueAddress": "INOX Leisure Ltd, 4th Floor, JTM Mall, Model Town, Malviya Nagar, Jaipur, Rajasthan 302017, India",
    "VenueCode": "JTMN",
    "VenueName": "INOX: JTM Mall, Malviya Nagar"
  },
  "JTRA": {
    "AvailableFormats": "2D",
    "City": "Anakapalle",
    "Latitude": "17.6927",
    "Longitude": "83.0018",
    "RegionCode": "ANKP",
    "State": "Andhra Pradesh",
    "SubRegionCode": "ANKP",
    "VenueAddress": "Narasinga Rao Peta, Near Tata Docomo Store, Anakapalle, Andhra Pradesh 531001, India",
    "VenueCode": "JTRA",
    "VenueName": "Ramachandra Theatre: Anakapalle"
  },
  "JTVK": {
    "AvailableFormats": "2D|3D",
    "City": "Tanuku",
    "Latitude": "16.7597",
    "Longitude": "81.691",
    "RegionCode": "TADP",
    "State": "Andhra Pradesh",
    "SubRegionCode": "TADP",
    "VenueAddress": "NH16, Ngo Colony, Palangi, Near Sri Vijayadurga temple, Tanuku, Andhra Pradesh 534211, India",
    "VenueCode": "JTVK",
    "VenueName": "Sri Venkateswara Complex: Tanuku"
  },
  "JYCM": {
    "AvailableFormats": "2D",
    "City": "Maslandapur",
    "Latitude": "22.8559",
    "Longitude": "88.7447",
    "RegionCode": "MASL",
    "State": "West Bengal",
    "SubRegionCode": "MASL",
    "VenueAddress": "Maslandapur-Tentulia Road, Opposite State Bank of India, Maslandapur, West Bengal 743289, India",
    "VenueCode": "JYCM",
    "VenueName": "Jyoti Cinema: Maslandapur"
  },
  "KACX": {
    "AvailableFormats": "2D",
    "City": "Raikot",
    "Latitude": "30.6484",
    "Longitude": "75.5757",
    "RegionCode": "RKOT",
    "State": "Punjab",
    "SubRegionCode": "RKOT",
    "VenueAddress": "Modern Footwear, 305/3888, Jagraon Road, Raikot, Raikot, Punjab 142034, India",
    "VenueCode": "KACX",
    "VenueName": "KVA Cineplex: Raikot"
  },
  "KAWS": {
    "AvailableFormats": "2D",
    "City": "Sonari",
    "Latitude": "27.028",
    "Longitude": "95.0312",
    "RegionCode": "SOYW",
    "State": "Assam",
    "SubRegionCode": "SOYW",
    "VenueAddress": "Kalpana Motors, Main Road, Sonari, Assam 785690, India",
    "VenueCode": "KAWS",
    "VenueName": "Kalpana Cine World: Sonari"
  },
  "KCKA": {
    "AvailableFormats": "2D",
    "City": "Korutla",
    "Latitude": "18.8262",
    "Longitude": "78.7134",
    "RegionCode": "KCKA",
    "State": "Telangana",
    "SubRegionCode": "KCKA",
    "VenueAddress": "Nizamabad - Mancherial Road, NH 63, Near LIC of India Satellite Ofc, Korutla, Telangana 505326, India",
    "VenueCode": "KCKA",
    "VenueName": "Kinnera Deluxe Theatre: Korutla"
  },
  "KCSR": {
    "AvailableFormats": "2D",
    "City": "Shrirampur",
    "Latitude": "19.6165",
    "Longitude": "74.6566",
    "RegionCode": "SHUR",
    "State": "Maharashtra",
    "SubRegionCode": "SHUR",
    "VenueAddress": "Kishor Cineplex, Shivaji Road, Shrirampur, Maharashtra 413709, India",
    "VenueCode": "KCSR",
    "VenueName": "Kishor Cineplex: Shrirampur"
  },
  "KGCM": {
    "AvailableFormats": "2D",
    "City": "Coimbatore",
    "Latitude": "11.0001",
    "Longitude": "76.9721",
    "RegionCode": "COIM",
    "State": "Tamil Nadu",
    "SubRegionCode": "COIM",
    "VenueAddress": "No.3, Bungalow Road, Race Course, Near K G Hospital, Coimbatore, Tamil Nadu 641018, India",
    "VenueCode": "KGCM",
    "VenueName": "KG Cinemas: Coimbatore"
  },
  "KKMB": {
    "AvailableFormats": "2D",
    "City": "Navi Mumbai",
    "Latitude": "19.101",
    "Longitude": "73.0102",
    "RegionCode": "MUMBAI",
    "State": "Maharashtra",
    "SubRegionCode": "THAN",
    "VenueAddress": "Bonkode Road, Near Railway Station,Sector 8, RS Regency Road, Kopar Khairane, Navi Mumbai, Maharashtra 400709, India",
    "VenueCode": "KKMB",
    "VenueName": "BMX Cinemas (Balaji Movieplex): Koparkhairane"
  },
  "KLPA": {
    "AvailableFormats": "2D",
    "City": "Udupi",
    "Latitude": "13.3362",
    "Longitude": "74.7505",
    "RegionCode": "MANI",
    "State": "Karnataka",
    "SubRegionCode": "MANI",
    "VenueAddress": "Kadekoppala, Chitpady, Udupi, Karnataka 576101, India",
    "VenueCode": "KLPA",
    "VenueName": "Kalpana Theatre: Udupi"
  },
  "KMTV": {
    "AvailableFormats": "2D",
    "City": "Vadakara",
    "Latitude": "11.5927",
    "Longitude": "75.5903",
    "RegionCode": "VDKR",
    "State": "Kerala",
    "SubRegionCode": "VDKR",
    "VenueAddress": "Edodi, Near ICICI Bank Vadakara, Vadakara, Kerala 673101, India",
    "VenueCode": "KMTV",
    "VenueName": "Kirthi Mudra 4K RGB Laser Dolby Atmos"
  },
  "KRBC": {
    "AvailableFormats": "2D|3D",
    "City": "Bahadurgarh",
    "Latitude": "28.6779",
    "Longitude": "76.8975",
    "RegionCode": "BAHD",
    "State": "Haryana",
    "SubRegionCode": "BAHD",
    "VenueAddress": "2nd Floor, Minervas West Side Mall, Sector 14, Jhajjar Road, Jhajjar, Bahadurgarh, Haryana 124507, India",
    "VenueCode": "KRBC",
    "VenueName": "KRB Cineplex: Bahadurgarh"
  },
  "KRRC": {
    "AvailableFormats": "2D",
    "City": "Palakonda",
    "Latitude": "18.603",
    "Longitude": "83.7585",
    "RegionCode": "PALK",
    "State": "Andhra Pradesh",
    "SubRegionCode": "PALK",
    "VenueAddress": "Government Hospital Road, Near Ramakalamandir Sachivalayam, Palakonda, Andhra Pradesh 532440, India",
    "VenueCode": "KRRC",
    "VenueName": "Sri Rama and Sai Kalamandir A/c DTS: Palakonda"
  },
  "KSNP": {
    "AvailableFormats": "2D",
    "City": "Kochi",
    "Latitude": "10.1449",
    "Longitude": "76.2355",
    "RegionCode": "PALY",
    "State": "Kerala",
    "SubRegionCode": "PALY",
    "VenueAddress": "North Paravur, Pullomkulam, Near Dr Ambedkar Park, Kochi, Kerala 683513, India",
    "VenueCode": "KSNP",
    "VenueName": "Kairali Sree Theater: North Parvur"
  },
  "KTBH": {
    "AvailableFormats": "2D",
    "City": "Bhubaneswar",
    "Latitude": "20.2752",
    "Longitude": "85.8349",
    "RegionCode": "JATN",
    "State": "Odisha",
    "SubRegionCode": "JATN",
    "VenueAddress": "98, Unit-3, Sachivalaya Marg, OPTCL Colony, Anand Bazar, Kharbela Nagar, Bhubaneswar, Odisha 751001, India",
    "VenueCode": "KTBH",
    "VenueName": "Keshari Talkies (BARCO 4K LASER DOLBY ATMOS)"
  },
  "KTMV": {
    "AvailableFormats": "2D",
    "City": "Mumbai",
    "Latitude": "19.3785",
    "Longitude": "72.8287",
    "RegionCode": "MUMBAI",
    "State": "Maharashtra",
    "SubRegionCode": "MWEST",
    "VenueAddress": "Navghar Road, Anand Nagar, Opposite.West Panchal Nagar Walkway, Vasai West, Mumbai, Maharashtra 401202, India",
    "VenueCode": "KTMV",
    "VenueName": "KT Vision Cinema: Vasai (Screens)"
  },
  "LALC": {
    "AvailableFormats": "2D",
    "City": "Jagraon",
    "Latitude": "30.8111",
    "Longitude": "75.4725",
    "RegionCode": "JGRO",
    "State": "Punjab",
    "SubRegionCode": "JGRO",
    "VenueAddress": "Moga Road, Kothe Fateh Din De, Jagraon, Punjab 142026, India",
    "VenueCode": "LALC",
    "VenueName": "Lal Palace Cineplex: Jagraon"
  },
  "LCNK": {
    "AvailableFormats": "2D",
    "City": "Kalluru",
    "Latitude": "17.2008",
    "Longitude": "80.55",
    "RegionCode": "KALR",
    "State": "Telangana",
    "SubRegionCode": "KALR",
    "VenueAddress": "Khammam - Sathupally Road, Near Church of Christ, Kalluru, Telangana 507209, India",
    "VenueCode": "LCNK",
    "VenueName": "Lakshmi Cinesquare: Kallur"
  },
  "LEPV": {
    "AvailableFormats": "2D",
    "City": "Mumbai",
    "Latitude": "19.0562",
    "Longitude": "72.8339",
    "RegionCode": "MUMBAI",
    "State": "Maharashtra",
    "SubRegionCode": "MWEST",
    "VenueAddress": "Corner of Hill Road and Water Field Road, Bandra West, Mumbai, Maharashtra 400050, India",
    "VenueCode": "LEPV",
    "VenueName": "PVR: Le Reve-Globus Mall, Bandra West, Mumbai"
  },
  "LKCT": {
    "AvailableFormats": "2D",
    "City": "Tanuku",
    "Latitude": "16.7493",
    "Longitude": "81.6831",
    "RegionCode": "TADP",
    "State": "Andhra Pradesh",
    "SubRegionCode": "TADP",
    "VenueAddress": "Lakshmi Complex, Velpur Road,Venkiatrayapuram, Near Kadharawara Sweet Shop, Tanuku, Andhra Pradesh 534211, India",
    "VenueCode": "LKCT",
    "VenueName": "Lakshmi Complex: Tanuku"
  },
  "LLCH": {
    "AvailableFormats": "2D",
    "City": "Haldwani",
    "Latitude": "29.2121",
    "Longitude": "79.5275",
    "RegionCode": "HALD",
    "State": "Uttarakhand",
    "SubRegionCode": "HALD",
    "VenueAddress": "Sindhi Chaurah, Rampur Road, Nainital, Haldwani, Uttarakhand 263139, India",
    "VenueCode": "LLCH",
    "VenueName": "Laxmi Cineplex: Haldwani"
  },
  "LPCH": {
    "AvailableFormats": "2D|3D",
    "City": "Hubballi (Hubli)",
    "Latitude": "15.3485",
    "Longitude": "75.1443",
    "RegionCode": "HUBL",
    "State": "Karnataka",
    "SubRegionCode": "HUBL",
    "VenueAddress": "3rd Floor, Laxmi Mall, Coen Road, Shree Shakti Road, J C Nagar, New Hubli, Hubballi (Hubli), Karnataka 580020, India",
    "VenueCode": "LPCH",
    "VenueName": "Laxmi Citypride Multiplex: Laxmi Mall, Hubli"
  },
  "LTTR": {
    "AvailableFormats": "2D",
    "City": "Tiptur",
    "Latitude": "13.254",
    "Longitude": "76.4778",
    "RegionCode": "TIPT",
    "State": "Karnataka",
    "SubRegionCode": "TIPT",
    "VenueAddress": "Keragodi Road, Chamundeshwari, Tiptur, Karnataka 572201, India",
    "VenueCode": "LTTR",
    "VenueName": "Lakshmi Talkies: Tiptur"
  },
  "M2PP": {
    "AvailableFormats": "2D",
    "City": "Delhi",
    "Latitude": "28.6895",
    "Longitude": "77.1334",
    "RegionCode": "NCR",
    "State": "NCR",
    "SubRegionCode": "DELHI",
    "VenueAddress": "4 Community Centre, Road No. 44, Opposite Punjab National Bank, Delhi, NCR 110088, India",
    "VenueCode": "M2PP",
    "VenueName": "M2K: Pitampura"
  },
  "MACK": {
    "AvailableFormats": "2D",
    "City": "Kasaragod",
    "Latitude": "12.5063",
    "Longitude": "74.99",
    "RegionCode": "KASA",
    "State": "Kerala",
    "SubRegionCode": "KASA",
    "VenueAddress": "AT Road, Dwaraka Nagar, Kasaragod, Near Kerala State Electricity Board, Kasaragod, Kerala 671121, India",
    "VenueCode": "MACK",
    "VenueName": "Moviemax Circle: Kasaragod"
  },
  "MAHB": {
    "AvailableFormats": "2D",
    "City": "Bhadrak",
    "Latitude": "21.0683",
    "Longitude": "86.466",
    "RegionCode": "BHAD",
    "State": "Odisha",
    "SubRegionCode": "BHAD",
    "VenueAddress": "State Highway 53, Near Randia Children Park, Behind Tarini Temple, Bhadrak, Odisha 756113, India",
    "VenueCode": "MAHB",
    "VenueName": "Madhab Cinema Hall: Bhadrak"
  },
  "MAPM": {
    "AvailableFormats": "2D|3D",
    "City": "Bhopal",
    "Latitude": "23.3045",
    "Longitude": "77.4219",
    "RegionCode": "BHOP",
    "State": "Madhya Pradesh",
    "SubRegionCode": "BHOP",
    "VenueAddress": "1st Floor, Peoples Mall, Peoples Campus, Bhanpur, Bhopal, Madhya Pradesh 462037, India",
    "VenueCode": "MAPM",
    "VenueName": "Mukta A2 Cinemas: Peoples Mall, Bhopal"
  },
  "MAXX": {
    "AvailableFormats": "2D",
    "City": "Sonipat",
    "Latitude": "29.004",
    "Longitude": "77.0332",
    "RegionCode": "RAIH",
    "State": "Haryana",
    "SubRegionCode": "RAIH",
    "VenueAddress": "3rd Floor MG Mall, Sector 14, Sonipat, Haryana 131001, India",
    "VenueCode": "MAXX",
    "VenueName": "Maxx Cinema: Sonipat"
  },
  "MBSJ": {
    "AvailableFormats": "2D",
    "City": "Vizag (Visakhapatnam)",
    "Latitude": "17.7266",
    "Longitude": "83.2994",
    "RegionCode": "VIZA",
    "State": "Andhra Pradesh",
    "SubRegionCode": "VIZA",
    "VenueAddress": "Bupathi Surya Central Mall, 5th Floor, 43-29-53 Dondaparthy, Vizag (Visakhapatnam), Andhra Pradesh 530016, India",
    "VenueCode": "MBSJ",
    "VenueName": "Miraj Cinemas: Bupathi Surya Central, Dondaparthy"
  },
  "MCCD": {
    "AvailableFormats": "2D|3D",
    "City": "Jamshedpur",
    "Latitude": "22.7953",
    "Longitude": "86.2244",
    "RegionCode": "JMDP",
    "State": "Jharkhand",
    "SubRegionCode": "JMDP",
    "VenueAddress": "Chandra Pacific Mall, 5th Floor, Katha No. 28, Plot no. 2911, Besides Akashdeep Plaza, Golmuri, East Singhbhum, Jamshedpur, Jharkhand 831003, India",
    "VenueCode": "MCCD",
    "VenueName": "Miraj Cinemas: Golmuri, Chandra Pacific Mall"
  },
  "MCFD": {
    "AvailableFormats": "2D",
    "City": "Thalassery",
    "Latitude": "11.7452",
    "Longitude": "75.4955",
    "RegionCode": "THAY",
    "State": "Kerala",
    "SubRegionCode": "THAY",
    "VenueAddress": "Jubilee Road, Pilakool, Thalassery, Kerala 670101, India",
    "VenueCode": "MCFD",
    "VenueName": "Magic Frames Downtown Mall: Thalassery"
  },
  "MCJR": {
    "AvailableFormats": "2D",
    "City": "Janjgir",
    "Latitude": "22.0112",
    "Longitude": "82.5834",
    "RegionCode": "JANR",
    "State": "Chhattisgarh",
    "SubRegionCode": "JANR",
    "VenueAddress": "Link Road, Old Chandaniya Para, Janjgir, Chhattisgarh 495668, India",
    "VenueCode": "MCJR",
    "VenueName": "Metro Cinema(Dolby 7.1 sound): Janjgir Naila"
  },
  "MCMJ": {
    "AvailableFormats": "2D",
    "City": "Rajkot",
    "Latitude": "22.2795",
    "Longitude": "70.7632",
    "RegionCode": "RAJK",
    "State": "Gujarat",
    "SubRegionCode": "RAJK",
    "VenueAddress": "2nd Floor, Crystal Mall, Kalawad Road, Rajkot, Gujarat 360005, India",
    "VenueCode": "MCMJ",
    "VenueName": "MOVIE TIME: Crystal Mall"
  },
  "MCRL": {
    "AvailableFormats": "2D|3D",
    "City": "Kanpur",
    "Latitude": "26.4564",
    "Longitude": "80.3342",
    "RegionCode": "KANP",
    "State": "Uttar Pradesh",
    "SubRegionCode": "KANP",
    "VenueAddress": "Ratan Elegance, Afim Kothi Chauraha, 86/275, Rajpurwa, Kanpur, Uttar Pradesh 208012, India",
    "VenueCode": "MCRL",
    "VenueName": "Movietime Cinemas: Ratan Elegance, Kanpur"
  },
  "MCTC": {
    "AvailableFormats": "2D",
    "City": "Coimbatore",
    "Latitude": "11.0776",
    "Longitude": "76.9419",
    "RegionCode": "COIM",
    "State": "Tamil Nadu",
    "SubRegionCode": "COIM",
    "VenueAddress": "Mettupalayam Road, Cheran Colony, Thudiyalur, Near Raj Driving School, Coimbatore, Tamil Nadu 641034, India",
    "VenueCode": "MCTC",
    "VenueName": "Murugan Cinemas A/C 4K Atmos: Thudiyalur"
  },
  "MCXE": {
    "AvailableFormats": "2D",
    "City": "Erandol",
    "Latitude": "20.9247",
    "Longitude": "75.3321",
    "RegionCode": "JALG",
    "State": "Maharashtra",
    "SubRegionCode": "JALG",
    "VenueAddress": "Mahasawad Naka, Onkaro Jadhav Nagar, Erandol, Maharashtra 425109, India",
    "VenueCode": "MCXE",
    "VenueName": "Morya Cineplex: Erandol"
  },
  "MDVA": {
    "AvailableFormats": "2D|3D",
    "City": "Mumbai",
    "Latitude": "19.3605",
    "Longitude": "72.8123",
    "RegionCode": "MUMBAI",
    "State": "Maharashtra",
    "SubRegionCode": "MWEST",
    "VenueAddress": "3rd Floor Dattani Square Mall, Stella Road, Vasai Road West, Near Papdy Talao And D Mart, Mumbai, Maharashtra 401202, India",
    "VenueCode": "MDVA",
    "VenueName": "Miraj Dattani Cinemas: Vasai"
  },
  "MENL": {
    "AvailableFormats": "2D",
    "City": "Ghaziabad",
    "Latitude": "28.7081",
    "Longitude": "77.2916",
    "RegionCode": "NCR",
    "State": "NCR",
    "SubRegionCode": "GHAZ",
    "VenueAddress": "Loni Road, Harijan Basti, Raj Nagar, Gokalpur, Ghaziabad, NCR 110094, India",
    "VenueCode": "MENL",
    "VenueName": "Meenakshi Multiplex Cinema: Loni"
  },
  "MHAL": {
    "AvailableFormats": "2D",
    "City": "Tadepalligudem",
    "Latitude": "16.8126",
    "Longitude": "81.5299",
    "RegionCode": "TADP",
    "State": "Andhra Pradesh",
    "SubRegionCode": "TADP",
    "VenueAddress": "Sheshamahal Road, Karri Satyavathi Nagar, Tadepalligudem, Andhra Pradesh 534101, India",
    "VenueCode": "MHAL",
    "VenueName": "Sri Seshmahal Theatre: Tadepalligudem"
  },
  "MIDO": {
    "AvailableFormats": "2D|3D",
    "City": "Mumbai",
    "Latitude": "19.2183",
    "Longitude": "73.0953",
    "RegionCode": "MUMBAI",
    "State": "Maharashtra",
    "SubRegionCode": "MCENT",
    "VenueAddress": "Mahavir Heights NX, Next To Plasma Blood Bank, Above Reliance Smart Point, VP Road, Dombivli East, Mumbai, Maharashtra 421201, India",
    "VenueCode": "MIDO",
    "VenueName": "Miraj V Cinemas: Dombivali"
  },
  "MJCU": {
    "AvailableFormats": "2D",
    "City": "Umerkote",
    "Latitude": "19.668",
    "Longitude": "82.1916",
    "RegionCode": "UMEK",
    "State": "Odisha",
    "SubRegionCode": "UMEK",
    "VenueAddress": "Bhaskel Dam, Umerkote Road, Umerkote, Odisha 764073, India",
    "VenueCode": "MJCU",
    "VenueName": "MJ Cinema: Umerkote"
  },
  "MKML": {
    "AvailableFormats": "2D",
    "City": "Pune",
    "Latitude": "18.5437",
    "Longitude": "73.9088",
    "RegionCode": "PUNE",
    "State": "Maharashtra",
    "SubRegionCode": "PUNE",
    "VenueAddress": "Marigold Complex, Kalyani Nagar, Pune, Maharashtra 411006, India",
    "VenueCode": "MKML",
    "VenueName": "MovieMax Gold: Mariplex Mall, Kalyani Nagar"
  },
  "MLDT": {
    "AvailableFormats": "2D",
    "City": "Bengaluru",
    "Latitude": "12.9987",
    "Longitude": "77.5035",
    "RegionCode": "HOKT",
    "State": "Karnataka",
    "SubRegionCode": "HOKT",
    "VenueAddress": "Magadi Main Road, Near Hegganahalli Cross, Sunkadakatte, Bengaluru, Karnataka 560091, India",
    "VenueCode": "MLDT",
    "VenueName": "Mohan Cinema Barco 4K A/C 7.1: Sunkadakatte"
  },
  "MMCK": {
    "AvailableFormats": "2D",
    "City": "Katghora",
    "Latitude": "22.4996",
    "Longitude": "82.5419",
    "RegionCode": "KATG",
    "State": "Chhattisgarh",
    "SubRegionCode": "KATG",
    "VenueAddress": "Murli Metro Cinema, Near Gopal Petro Pump, Bilaspur - Katghora Highway, Katghora, Chhattisgarh 495445, India",
    "VenueCode": "MMCK",
    "VenueName": "Murli Metro Cinema: Katghora"
  },
  "MMLB": {
    "AvailableFormats": "",
    "City": "Bareilly",
    "Latitude": "28.3485",
    "Longitude": "79.4179",
    "RegionCode": "BARE",
    "State": "Uttar Pradesh",
    "SubRegionCode": "BARE",
    "VenueAddress": "98, Civil Lines, Bareilly, Uttar Pradesh 243001, India",
    "VenueCode": "MMLB",
    "VenueName": "MovieMax City Centre LA Mall: Bareilly"
  },
  "MMSG": {
    "AvailableFormats": "3D|2D",
    "City": "Lucknow",
    "Latitude": "26.8194",
    "Longitude": "80.9072",
    "RegionCode": "LUCK",
    "State": "Uttar Pradesh",
    "SubRegionCode": "LUCK",
    "VenueAddress": "Shalimar Gateway Mall, Bus Stand, Alambagh, Near Alambagh, Railway Colony, Lucknow, Uttar Pradesh 226005, India",
    "VenueCode": "MMSG",
    "VenueName": "MovieMax: Shalimar Gateway"
  },
  "MMXS": {
    "AvailableFormats": "2D",
    "City": "Surat",
    "Latitude": "21.1396",
    "Longitude": "72.8827",
    "RegionCode": "SURT",
    "State": "Gujarat",
    "SubRegionCode": "SURT",
    "VenueAddress": "Kardava Road, New Dindoli, Vrukshmani Society, Surat, Gujarat 394210, India",
    "VenueCode": "MMXS",
    "VenueName": "Madhuram Multiplex: Surat"
  },
  "MNPP": {
    "AvailableFormats": "2D",
    "City": "Hospet",
    "Latitude": "15.2721",
    "Longitude": "76.3926",
    "RegionCode": "HOSP",
    "State": "Karnataka",
    "SubRegionCode": "HOSP",
    "VenueAddress": "Takka Street, Bukka Road, Opposite New Rexine House, Hospet, Karnataka 583201, India",
    "VenueCode": "MNPP",
    "VenueName": "Meeralam Nawaz Picture Palace: Hospet"
  },
  "MRAD": {
    "AvailableFormats": "",
    "City": "Hyderabad",
    "Latitude": "17.3842",
    "Longitude": "78.3601",
    "RegionCode": "HYD",
    "State": "Telangana",
    "SubRegionCode": "HYD",
    "VenueAddress": "Anand Mall and Movies, Narsingi Village, Hyderabad, Telangana 500075, India",
    "VenueCode": "MRAD",
    "VenueName": "Miraj Cinemas: Anand Mall and Movies, Narsingi"
  },
  "MRIY": {
    "AvailableFormats": "2D",
    "City": "Trichy",
    "Latitude": "10.7984",
    "Longitude": "78.7042",
    "RegionCode": "TRIC",
    "State": "Tamil Nadu",
    "SubRegionCode": "TRIC",
    "VenueAddress": "No-228/1, Sangiliyandapuram Main Road, Trichy, Tamil Nadu 620001, India",
    "VenueCode": "MRIY",
    "VenueName": "Mariyam Cinemas A/C 4K: Trichy"
  },
  "MSCJ": {
    "AvailableFormats": "2D",
    "City": "Jajpur Town (Odisha)",
    "Latitude": "20.853",
    "Longitude": "86.3293",
    "RegionCode": "JTTT",
    "State": "Odisha",
    "SubRegionCode": "JTTT",
    "VenueAddress": "Gandhi chhak, Sanskruti Bhawan, Jajpur Town (Odisha), Odisha 755001, India",
    "VenueCode": "MSCJ",
    "VenueName": "Mission Shakti Cinemas: Jajpur Town"
  },
  "MTAR": {
    "AvailableFormats": "2D",
    "City": "Rajgangpur",
    "Latitude": "22.1913",
    "Longitude": "84.5893",
    "RegionCode": "RJGR",
    "State": "Odisha",
    "SubRegionCode": "RJGR",
    "VenueAddress": "Subhas Chowk, R.G.P Main Road, Near DHP Shah Hindustan Petrol Pump, Rajgangpur, Odisha 770017, India",
    "VenueCode": "MTAR",
    "VenueName": "Milan Talkies: Rajgangpur"
  },
  "MTGD": {
    "AvailableFormats": "2D",
    "City": "Mumbai",
    "Latitude": "19.2519",
    "Longitude": "72.8629",
    "RegionCode": "MUMBAI",
    "State": "Maharashtra",
    "SubRegionCode": "MWEST",
    "VenueAddress": "Old Rajeshri Cinema Building, S V Road, Maratha Colony Road, Dahisar East, Near Ravindra Hotel, Mumbai, Maharashtra 400068, India",
    "VenueCode": "MTGD",
    "VenueName": "Movietime: Dahisar (E)"
  },
  "MTMA": {
    "AvailableFormats": "3D|2D",
    "City": "Mumbai",
    "Latitude": "19.1892",
    "Longitude": "72.8349",
    "RegionCode": "MUMBAI",
    "State": "Maharashtra",
    "SubRegionCode": "MWEST",
    "VenueAddress": "Jagdamba Commercial Complex, Besides Sai Palace Grand, Link Road, Evershine Nagar, Malad West, Mumbai, Maharashtra 400064, India",
    "VenueCode": "MTMA",
    "VenueName": "MOVIETIME: MALAD (WEST)"
  },
  "MTSC": {
    "AvailableFormats": "3D|2D",
    "City": "Mumbai",
    "Latitude": "19.0283",
    "Longitude": "72.8442",
    "RegionCode": "MUMBAI",
    "State": "Maharashtra",
    "SubRegionCode": "MCENT",
    "VenueAddress": "Bijlee Barkha Complex, Junction of Manmala Tank Road, Taikalwadi Road, Matunga(W), Near Maharashtra Municipal School, Mumbai, Maharashtra 400016, India",
    "VenueCode": "MTSC",
    "VenueName": "Movietime Star City: Matunga (W)"
  },
  "MUSC": {
    "AvailableFormats": "2D",
    "City": "Bhopal",
    "Latitude": "23.2651",
    "Longitude": "77.4141",
    "RegionCode": "BHOP",
    "State": "Madhya Pradesh",
    "SubRegionCode": "BHOP",
    "VenueAddress": "80 Feet Road, Station Chouraha, Bajariya, Bhopal, Madhya Pradesh 462010, India",
    "VenueCode": "MUSC",
    "VenueName": "Muskaan Cinema: Bhopal"
  },
  "MXBN": {
    "AvailableFormats": "2D|3D",
    "City": "Bhavnagar",
    "Latitude": "21.7509",
    "Longitude": "72.1364",
    "RegionCode": "BHNG",
    "State": "Gujarat",
    "SubRegionCode": "BHNG",
    "VenueAddress": "Himalaya Mall, Waghawadi Rd, Nr ISKCON Mega City, Opp Victoria Park, Bhavnagar, Gujarat 364002, India",
    "VenueCode": "MXBN",
    "VenueName": "Maxus Cinemas: Bhavnagar"
  },
  "MYBG": {
    "AvailableFormats": "2D",
    "City": "Balaghat",
    "Latitude": "21.8109",
    "Longitude": "80.1954",
    "RegionCode": "BLGT",
    "State": "Madhya Pradesh",
    "SubRegionCode": "BLGT",
    "VenueAddress": "Chitragupt Nagar, Gondia Road, Near HDFC Bank, Balaghat, Madhya Pradesh 481001, India",
    "VenueCode": "MYBG",
    "VenueName": "Mayur Talkies: Balaghat"
  },
  "MYRP": {
    "AvailableFormats": "2D",
    "City": "Kollam",
    "Latitude": "8.88953",
    "Longitude": "76.5858",
    "RegionCode": "KOLM",
    "State": "Kerala",
    "SubRegionCode": "KOLM",
    "VenueAddress": "RP Mall, Level 5, Salem-Kochi Highway, Near Reliance Trends, Kollam, Kerala 691001, India",
    "VenueCode": "MYRP",
    "VenueName": "MY Cinemas, RP Mall: Kollam"
  },
  "NAMD": {
    "AvailableFormats": "2D",
    "City": "Ahmedabad",
    "Latitude": "23.0326",
    "Longitude": "72.5083",
    "RegionCode": "AHD",
    "State": "Gujarat",
    "SubRegionCode": "AHD",
    "VenueAddress": "Ground and First Floor, Block O, Mondeal Retail Park, S G Road, Ahmedabad, Gujarat 380059, India",
    "VenueCode": "NAMD",
    "VenueName": "1,Newfangled Miniplex (Twin Seat): Mondeal Park"
  },
  "NCIL": {
    "AvailableFormats": "2D|3D",
    "City": "Lucknow",
    "Latitude": "26.848",
    "Longitude": "80.9394",
    "RegionCode": "LUCK",
    "State": "Uttar Pradesh",
    "SubRegionCode": "LUCK",
    "VenueAddress": "Lalbagh Crossing, Near Dhyanidhan Park Road, Lucknow, Uttar Pradesh 226001, India",
    "VenueCode": "NCIL",
    "VenueName": "Novelty MGS Cinemas Dolby Atmos: Lalbagh"
  },
  "NCTH": {
    "AvailableFormats": "2D",
    "City": "Vizianagaram",
    "Latitude": "18.1174",
    "Longitude": "83.4003",
    "RegionCode": "JAMI",
    "State": "Andhra Pradesh",
    "SubRegionCode": "JAMI",
    "VenueAddress": "Chinna Veedhi, Balaji Nagar, MG Rd NCS Area, Near SBI Main Branch, Vizianagaram, Andhra Pradesh 535001, India",
    "VenueCode": "NCTH",
    "VenueName": "NCS 4K Laser Dolby Atmos: Vizianagaram"
  },
  "NFGD": {
    "AvailableFormats": "2D",
    "City": "Bengaluru",
    "Latitude": "12.9747",
    "Longitude": "77.6085",
    "RegionCode": "BANG",
    "State": "Karnataka",
    "SubRegionCode": "BANG",
    "VenueAddress": "Shop No. 201, 202, 203, Emporium Davanam, Ward No. 76, MG Road, Bengaluru, Karnataka 560001, India",
    "VenueCode": "NFGD",
    "VenueName": "Newfangled Miniplex (TWIN SEATED): MG Road"
  },
  "NMAD": {
    "AvailableFormats": "2D",
    "City": "Ahmedabad",
    "Latitude": "23.1023",
    "Longitude": "72.5945",
    "RegionCode": "AHD",
    "State": "Gujarat",
    "SubRegionCode": "AHD",
    "VenueAddress": "312, 3 Floor, North Plaza, Motera, Near 4D Square Mall, Ahmedabad, Gujarat 380005, India",
    "VenueCode": "NMAD",
    "VenueName": "2,Newfangled Miniplex (Twin Seat): Motera"
  },
  "NNTD": {
    "AvailableFormats": "2D",
    "City": "Jagdalpur",
    "Latitude": "19.086",
    "Longitude": "82.0227",
    "RegionCode": "JAGD",
    "State": "Chhattisgarh",
    "SubRegionCode": "JAGD",
    "VenueAddress": "Maharani Hospital, House No 1 Road, Pratap Dev Ward, Jagdalpur, Chhattisgarh 494001, India",
    "VenueCode": "NNTD",
    "VenueName": "New Narendra Theater Deluxe: Jagdalpur"
  },
  "NSGL": {
    "AvailableFormats": "2D",
    "City": "Najibabad",
    "Latitude": "29.6226",
    "Longitude": "78.3304",
    "RegionCode": "NAJI",
    "State": "Uttar Pradesh",
    "SubRegionCode": "NAJI",
    "VenueAddress": "Baba Complex, Haridwar Road,Bijnor, Near Inderlok Hotel, Najibabad, Uttar Pradesh 243003, India",
    "VenueCode": "NSGL",
    "VenueName": "SGL Miniplex: Najibabad"
  },
  "NTHS": {
    "AvailableFormats": "2D",
    "City": "Sirsi",
    "Latitude": "14.6172",
    "Longitude": "74.8333",
    "RegionCode": "SRSI",
    "State": "Karnataka",
    "SubRegionCode": "SRSI",
    "VenueAddress": "SH 93, CP Bazar, Sirsi, Karnataka 581401, India",
    "VenueCode": "NTHS",
    "VenueName": "Nataraj Talkies: Sirsi, Karnataka"
  },
  "NVKH": {
    "AvailableFormats": "2D",
    "City": "Khajuraho",
    "Latitude": "24.8707",
    "Longitude": "79.9194",
    "RegionCode": "KHRH",
    "State": "Madhya Pradesh",
    "SubRegionCode": "KHRH",
    "VenueAddress": "Opp. Mata Mandir, Rajnagar, Khajuraho, Madhya Pradesh 471606, India",
    "VenueCode": "NVKH",
    "VenueName": "NVR Cinemas: Khajuraho"
  },
  "NWCC": {
    "AvailableFormats": "2D",
    "City": "Nainital",
    "Latitude": "29.3902",
    "Longitude": "79.4548",
    "RegionCode": "NAIN",
    "State": "Uttarakhand",
    "SubRegionCode": "NAIN",
    "VenueAddress": "Jubilee Hall Apartments, Mall Road,Mallital, Opp Nainital Stadium, Nainital, Uttarakhand 263002, India",
    "VenueCode": "NWCC",
    "VenueName": "New Capitol Cinema: Nainital"
  },
  "NYCH": {
    "AvailableFormats": "2D",
    "City": "Kanpur",
    "Latitude": "26.4617",
    "Longitude": "80.3593",
    "RegionCode": "KANP",
    "State": "Uttar Pradesh",
    "SubRegionCode": "KANP",
    "VenueAddress": "63/1A, Heer Palace,Sadr Bazaar, The Mall, Kanpur, Uttar Pradesh 208001, India",
    "VenueCode": "NYCH",
    "VenueName": "NY Cinemas: Heer Palace, Kanpur"
  },
  "NYTO": {
    "AvailableFormats": "2D",
    "City": "Aurangabad (Bihar)",
    "Latitude": "24.7466",
    "Longitude": "84.3803",
    "RegionCode": "AUBI",
    "State": "Bihar",
    "SubRegionCode": "AUBI",
    "VenueAddress": "Narendra Talkies, Yamunanagar Road, Aurangabad (Bihar), Bihar 824101, India",
    "VenueCode": "NYTO",
    "VenueName": "Narendra Talkies: Aurangabad"
  },
  "OMTP": {
    "AvailableFormats": "2D",
    "City": "Pandharkawada",
    "Latitude": "20.0224",
    "Longitude": "78.5446",
    "RegionCode": "PANR",
    "State": "Maharashtra",
    "SubRegionCode": "PANR",
    "VenueAddress": "Gandhi Ward, Ram Mandir Road, Pandharkawada, Maharashtra 445302, India",
    "VenueCode": "OMTP",
    "VenueName": "Om Cineplex: Pandharkawada"
  },
  "PAAD": {
    "AvailableFormats": "2D",
    "City": "Shadnagar",
    "Latitude": "17.0714",
    "Longitude": "78.2094",
    "RegionCode": "SHAD",
    "State": "Telangana",
    "SubRegionCode": "SHAD",
    "VenueAddress": "Christian Colony, Near Shadnagar Registration Office, Shadnagar, Telangana 509216, India",
    "VenueCode": "PAAD",
    "VenueName": "Parameswara 70MM: Shadnagar"
  },
  "PAJA": {
    "AvailableFormats": "",
    "City": "Agra",
    "Latitude": "27.2051",
    "Longitude": "78.0049",
    "RegionCode": "AGRA",
    "State": "Uttar Pradesh",
    "SubRegionCode": "AGRA",
    "VenueAddress": "Anjana Central Mall, 4th Floor, 3/2D Anjana Cinema Ghar, Lashkarpur, MG Road, Agra, Uttar Pradesh 282002, India",
    "VenueCode": "PAJA",
    "VenueName": "PVR: Anjana Mall, Agra"
  },
  "PBLL": {
    "AvailableFormats": "2D|3D",
    "City": "Faridabad",
    "Latitude": "28.388",
    "Longitude": "77.3215",
    "RegionCode": "NCR",
    "State": "NCR",
    "SubRegionCode": "FARI",
    "VenueAddress": "4th Floor, Pebble Down Town Mall, Sector 12, Faridabad, NCR 121007, India",
    "VenueCode": "PBLL",
    "VenueName": "PVR: Pebble Downtown Sec-12, Faridabad"
  },
  "PCBB": {
    "AvailableFormats": "",
    "City": "Biaora",
    "Latitude": "23.9174",
    "Longitude": "76.9178",
    "RegionCode": "BIAR",
    "State": "Madhya Pradesh",
    "SubRegionCode": "BIAR",
    "VenueAddress": "Puneet Movie Max Cinema, Old Suthaliya Road, Biaora (Rajgarh), Biaora, Madhya Pradesh 465674, India",
    "VenueCode": "PCBB",
    "VenueName": "Punit Movie Max (AC): Biaora"
  },
  "PCEL": {
    "AvailableFormats": "",
    "City": "Delhi",
    "Latitude": "28.6958",
    "Longitude": "77.1531",
    "RegionCode": "NCR",
    "State": "NCR",
    "SubRegionCode": "DELHI",
    "VenueAddress": "3rd Floor, One Unity Elegante Mall, NSP, Pitampura, Delhi, NCR 110034, India",
    "VenueCode": "PCEL",
    "VenueName": "PVR: Cinemagic, Unity One Elegante, NSP, Pitampura"
  },
  "PCMA": {
    "AvailableFormats": "2D",
    "City": "Manali",
    "Latitude": "32.2396",
    "Longitude": "77.1882",
    "RegionCode": "MANA",
    "State": "Himachal Pradesh",
    "SubRegionCode": "MANA",
    "VenueAddress": "The Mall Road, Near Indian Petrol Bunk, Manali, Himachal Pradesh 175131, India",
    "VenueCode": "PCMA",
    "VenueName": "Piccadily Multiplex: Manali"
  },
  "PCPY": {
    "AvailableFormats": "2D",
    "City": "Moyna",
    "Latitude": "22.2447",
    "Longitude": "87.7882",
    "RegionCode": "MAYN",
    "State": "West Bengal",
    "SubRegionCode": "MAYN",
    "VenueAddress": "Anandapur, District Purba Mednipur, Moyna, West Bengal 721629, India",
    "VenueCode": "PCPY",
    "VenueName": "Priya Cineplex: Moyna (Dolby 5.1)"
  },
  "PCWN": {
    "AvailableFormats": "2D",
    "City": "Pulpally",
    "Latitude": "11.7986",
    "Longitude": "76.1633",
    "RegionCode": "PULP",
    "State": "Kerala",
    "SubRegionCode": "PULP",
    "VenueAddress": "Staff Quarters, Pulpally Mullenkolly, Near BSNL Exchange, Pulpally, Kerala 673579, India",
    "VenueCode": "PCWN",
    "VenueName": "Penta Cinemas: Pulpally"
  },
  "PDEI": {
    "AvailableFormats": "3D|2D",
    "City": "Delhi",
    "Latitude": "28.5679",
    "Longitude": "77.2411",
    "RegionCode": "NCR",
    "State": "NCR",
    "SubRegionCode": "DELHI",
    "VenueAddress": "15, Feroze Gandhi Marg, Lajpat Nagar III, Near Lajpat Nagar Police Station, Delhi, NCR 110024, India",
    "VenueCode": "PDEI",
    "VenueName": "PVR: 3CS Lajpat Nagar, Delhi"
  },
  "PECD": {
    "AvailableFormats": "2D|3D",
    "City": "Delhi",
    "Latitude": "28.5842",
    "Longitude": "77.1907",
    "RegionCode": "NCR",
    "State": "NCR",
    "SubRegionCode": "DELHI",
    "VenueAddress": "PVR YPCC Mall, Yashwant Palace, Chanakyapuri, Delhi, NCR 110021, India",
    "VenueCode": "PECD",
    "VenueName": "PVR: ECX Chanakyapuri, Delhi"
  },
  "PFJJ": {
    "AvailableFormats": "2D|3D",
    "City": "Jalandhar",
    "Latitude": "31.3244",
    "Longitude": "75.5786",
    "RegionCode": "JALA",
    "State": "Punjab",
    "SubRegionCode": "JALA",
    "VenueAddress": "Old Post Office Road, Opposite Roxy Hotel, Jalandhar, Punjab 144001, India",
    "VenueCode": "PFJJ",
    "VenueName": "PVR: Friends, Jalandhar"
  },
  "PGND": {
    "AvailableFormats": "2D|3D",
    "City": "Greater Noida",
    "Latitude": "28.6061",
    "Longitude": "77.4294",
    "RegionCode": "NCR",
    "State": "NCR",
    "SubRegionCode": "GRET",
    "VenueAddress": "4th Floor, Gaur City Mall, Plot No. C-01B-GH-01, Sector 4, Greater Noida, NCR 201301, India",
    "VenueCode": "PGND",
    "VenueName": "PVR: Gaur City, Greater Noida"
  },
  "PICP": {
    "AvailableFormats": "2D",
    "City": "Perinthalmanna",
    "Latitude": "10.976190",
    "Longitude": "76.217047",
    "RegionCode": "PNTM",
    "State": "Kerala",
    "SubRegionCode": "PNTM",
    "VenueAddress": "Marketcity Mall, Kozhikode Road, Perinthalmanna, Kerala 679322, India",
    "VenueCode": "PICP",
    "VenueName": "Palaxi Cinemas: Perinthalmanna"
  },
  "PJCP": {
    "AvailableFormats": "2D|3D",
    "City": "Ranchi",
    "Latitude": "23.3786",
    "Longitude": "85.3148",
    "RegionCode": "RANC",
    "State": "Jharkhand",
    "SubRegionCode": "RANC",
    "VenueAddress": "3rd Floor, Mall of Ranchi, Ratu Road Chowk, Opposite Akashwani Kendra, Ranchi, Jharkhand 834001, India",
    "VenueCode": "PJCP",
    "VenueName": "PJP Cinemas: Mall of Ranchi"
  },
  "PKCM": {
    "AvailableFormats": "2D",
    "City": "Ranchi",
    "Latitude": "23.3809",
    "Longitude": "85.3",
    "RegionCode": "RANC",
    "State": "Jharkhand",
    "SubRegionCode": "RANC",
    "VenueAddress": "Galaxia Mall, Ratu Road, Ranchi, Jharkhand 834005, India",
    "VenueCode": "PKCM",
    "VenueName": "Popkorn Cinemas: Galaxia Mall, Ranchi"
  },
  "PLAK": {
    "AvailableFormats": "2D",
    "City": "Karkala",
    "Latitude": "13.2142",
    "Longitude": "74.9999",
    "RegionCode": "KARK",
    "State": "Karnataka",
    "SubRegionCode": "KARK",
    "VenueAddress": "Market Road, Near Karnataka Bank, Opposite Corporation Bank, Karkala, Karnataka 574104, India",
    "VenueCode": "PLAK",
    "VenueName": "Planet Cinema: A/C Digital (Karkala)"
  },
  "PMAD": {
    "AvailableFormats": "2D",
    "City": "Dahanu",
    "Latitude": "19.9866",
    "Longitude": "72.7239",
    "RegionCode": "DHAU",
    "State": "Maharashtra",
    "SubRegionCode": "DHAU",
    "VenueAddress": "Agar Road, Ganga Ashram Wadi, Parnaka, Dahanu, Maharashtra 401601, India",
    "VenueCode": "PMAD",
    "VenueName": "Purnima Cinema: Dahanu"
  },
  "PMGU": {
    "AvailableFormats": "2D|3D",
    "City": "Gurugram (Gurgaon)",
    "Latitude": "28.4755",
    "Longitude": "77.0931",
    "RegionCode": "NCR",
    "State": "NCR",
    "SubRegionCode": "GURG",
    "VenueAddress": "DLF Mega Mall, 3rd Floor, DLF Phase 1, Golf Course Road, Behind Bristol Hotel, Gurugram (Gurgaon), NCR 122002, India",
    "VenueCode": "PMGU",
    "VenueName": "PVR: Mega Mall, Gurgaon"
  },
  "PMPM": {
    "AvailableFormats": "2D|3D",
    "City": "Faridabad",
    "Latitude": "28.4065",
    "Longitude": "77.3106",
    "RegionCode": "NCR",
    "State": "NCR",
    "SubRegionCode": "FARI",
    "VenueAddress": "Sector 20-A, Mathura Road, Parsvnath Mall Manhattan, Faridabad, NCR 121001, India",
    "VenueCode": "PMPM",
    "VenueName": "Fun Cinemas: PM Cinemas, Parsvnath Mall, Manhattan"
  },
  "PMTY": {
    "AvailableFormats": "2D",
    "City": "Mysuru (Mysore)",
    "Latitude": "12.2964",
    "Longitude": "76.6521",
    "RegionCode": "MYS",
    "State": "Karnataka",
    "SubRegionCode": "MYS",
    "VenueAddress": "Ramachandra Agrahara, Near 101 Ganapathi Temple, Mysuru (Mysore), Karnataka 570004, India",
    "VenueCode": "PMTY",
    "VenueName": "Padma Talkies: Mysuru"
  },
  "POON": {
    "AvailableFormats": "2D",
    "City": "Chodavaram",
    "Latitude": "17.8286",
    "Longitude": "82.9348",
    "RegionCode": "CDVM",
    "State": "Andhra Pradesh",
    "SubRegionCode": "CDVM",
    "VenueAddress": "Near Poorna Theatre, Venkannapalem, Visakhapatnam, Chodavaram, Andhra Pradesh 530001, India",
    "VenueCode": "POON",
    "VenueName": "Poorna Theatre A/c Dolby-7.1: Chodavaram"
  },
  "PPDA": {
    "AvailableFormats": "3D|2D",
    "City": "Delhi",
    "Latitude": "28.5525",
    "Longitude": "77.0585",
    "RegionCode": "NCR",
    "State": "NCR",
    "SubRegionCode": "DELHI",
    "VenueAddress": "PVR Cinema, Pacific Mall, Dwarka Sec-21, Metro Station New Delhi, Delhi, NCR 110077, India",
    "VenueCode": "PPDA",
    "VenueName": "PVR: Pacific, Dwarka"
  },
  "PPNX": {
    "AvailableFormats": "2D|4DX|3D",
    "City": "Bengaluru",
    "Latitude": "12.9973",
    "Longitude": "77.6957",
    "RegionCode": "HOKT",
    "State": "Karnataka",
    "SubRegionCode": "HOKT",
    "VenueAddress": "Phoenix Market City Mall, Whitefield Road, Mahadevapura, Krishnarajapura, Devasandra Industrial Estate, Bengaluru, Karnataka 560048, India",
    "VenueCode": "PPNX",
    "VenueName": "PVR: Phoenix Marketcity Mall, Whitefield Road"
  },
  "PRCN": {
    "AvailableFormats": "2D",
    "City": "Kolkata",
    "Latitude": "22.5649",
    "Longitude": "88.3683",
    "RegionCode": "KOLK",
    "State": "West Bengal",
    "SubRegionCode": "KOLK",
    "VenueAddress": "124/A, A.J.C Bose Road, Near Music Channel, Kolkata, West Bengal 700014, India",
    "VenueCode": "PRCN",
    "VenueName": "Prachi Cinema: Kolkata"
  },
  "PRHN": {
    "AvailableFormats": "2D|3D",
    "City": "Hyderabad",
    "Latitude": "17.4128",
    "Longitude": "78.4658",
    "RegionCode": "HYD",
    "State": "Telangana",
    "SubRegionCode": "HYD",
    "VenueAddress": "Khairtabad, IMAX Road, NTR Marg, Near NTR Gardens, Hyderabad, Telangana 500063, India",
    "VenueCode": "PRHN",
    "VenueName": "Prasads Multiplex: Hyderabad"
  },
  "PRTC": {
    "AvailableFormats": "2D",
    "City": "Vadodara",
    "Latitude": "22.3017",
    "Longitude": "73.2052",
    "RegionCode": "VAD",
    "State": "Gujarat",
    "SubRegionCode": "VAD",
    "VenueAddress": "Mangal Bazar, Mandvi, Near Sursagar Lake, Vadodara, Gujarat 390001, India",
    "VenueCode": "PRTC",
    "VenueName": "Pratap Cinema: Vadodara"
  },
  "PSKL": {
    "AvailableFormats": "2D",
    "City": "Chennai",
    "Latitude": "13.1917",
    "Longitude": "80.1862",
    "RegionCode": "PONE",
    "State": "Tamil Nadu",
    "SubRegionCode": "PONE",
    "VenueAddress": "4th Floor, SKLS Galaxy Mall, Survey No. 93/IC/2B, GNT Road Red Hills, Chennai, Tamil Nadu 600052, India",
    "VenueCode": "PSKL",
    "VenueName": "PVR: SKLS Galaxy Mall, Red Hills Chennai"
  },
  "PSMP": {
    "AvailableFormats": "2D|3D",
    "City": "Mangaluru (Mangalore)",
    "Latitude": "12.8582",
    "Longitude": "74.8383",
    "RegionCode": "MLR",
    "State": "Karnataka",
    "SubRegionCode": "MLR",
    "VenueAddress": "Nexus Mall, 2nd Floor, Cantonment Ward, Pandeshwar Road, Attavar, Mangaluru (Mangalore), Karnataka 575001, India",
    "VenueCode": "PSMP",
    "VenueName": "PVR: Nexus Mall, Pandeshwar, Mangalore"
  },
  "PTBC": {
    "AvailableFormats": "2D",
    "City": "Bengaluru",
    "Latitude": "12.9609",
    "Longitude": "77.5872",
    "RegionCode": "HOKT",
    "State": "Karnataka",
    "SubRegionCode": "HOKT",
    "VenueAddress": "1st Cross, J C Road, Bengaluru, Karnataka 560027, India",
    "VenueCode": "PTBC",
    "VenueName": "Swagath Poornima 4K Dolby Atmos: JC Road (New)"
  },
  "PTGK": {
    "AvailableFormats": "2D",
    "City": "Kanchipuram",
    "Latitude": "12.6273",
    "Longitude": "79.6664",
    "RegionCode": "MMNR",
    "State": "Tamil Nadu",
    "SubRegionCode": "MMNR",
    "VenueAddress": "Manampathi, Uthiramerur Road, Near Indian Bank, Kanchipuram, Tamil Nadu 603403, India",
    "VenueCode": "PTGK",
    "VenueName": "GK Poonga Theatre 4K RGB Dolby Atmos: Uthiramerur"
  },