{
  "AACV": {
    "AvailableFormats": "2D",
    "City": "Kovvur",
    "Latitude": "17.0136",
    "Longitude": "81.7281",
    "RegionCode": "KOVU",
    "State": "Andhra Pradesh",
    "SubRegionCode": "KOVU",
    "VenueAddress": "Rama Society Road, Near State Bank of India, Kovvur, Andhra Pradesh 534350, India",
    "VenueCode": "AACV",
    "VenueName": "Ananya Cinemas: Kovvur"
  },
  "AATR": {
    "AvailableFormats": "2D",
    "City": "Erode",
    "Latitude": "11.3326",
    "Longitude": "77.7284",
    "RegionCode": "EROD",
    "State": "Tamil Nadu",
    "SubRegionCode": "EROD",
    "VenueAddress": "Balasubrayalu Street, Surampattivalasu, Near Erode Fire Service, Erode, Tamil Nadu 638001, India",
    "VenueCode": "AATR",
    "VenueName": "Aanoor Theatre A/C Dolby Atmos: Erode"
  },
  "ABDD": {
    "AvailableFormats": "2D|3D",
    "City": "Durgapur",
    "Latitude": "23.5563",
    "Longitude": "87.2745",
    "RegionCode": "DURGA",
    "State": "West Bengal",
    "SubRegionCode": "DURGA",
    "VenueAddress": "Fortune Plaza, 5th Floor, Ananda Gopal Mukherjee Sarani Road, Above Reliance Digital, Near Bhiringi Kali Mandir, Benachity, Durgapur, West Bengal 713213, India",
    "VenueCode": "ABDD",
    "VenueName": "Arti Cinemas, above Pantaloons: Benachity"
  },
  "ACAM": {
    "AvailableFormats": "2D",
    "City": "Ambala",
    "Latitude": "30.3786",
    "Longitude": "76.7636",
    "RegionCode": "AMB",
    "State": "Haryana",
    "SubRegionCode": "AMB",
    "VenueAddress": "City Plaza, 947, Citi Mall, NH 152, Patti Mehar, Ambala, Haryana 134003, India",
    "VenueCode": "ACAM",
    "VenueName": "Ayaan Cinemas: Ambala"
  },
  "ACEV": {
    "AvailableFormats": "2D",
    "City": "Hyderabad",
    "Latitude": "17.338",
    "Longitude": "78.5678",
    "RegionCode": "HYD",
    "State": "Telangana",
    "SubRegionCode": "HYD",
    "VenueAddress": "Door. No.5-5-185 and 5-5-186,Sy.No.53 and 56, 4th Floor, TATTVA MALL, Vanasthalipuram, Saheb Nagar Khurd, Hyderabad, Telangana 500070, India",
    "VenueCode": "ACEV",
    "VenueName": "ART CINEMAS: Vanasthalipuram"
  },
  "ACKB": {
    "AvailableFormats": "2D",
    "City": "Bengaluru",
    "Latitude": "12.977726",
    "Longitude": "77.575961",
    "RegionCode": "BANG",
    "State": "Karnataka",
    "SubRegionCode": "BANG",
    "VenueAddress": "No-300/1, S.C.Road, Gandhinagar, Next To Movieland Theatre, Bengaluru, Karnataka 560009, India",
    "VenueCode": "ACKB",
    "VenueName": "AMB Cinemas Kapali: Bengaluru"
  },
  "ACNB": {
    "AvailableFormats": "2D|3D",
    "City": "Barasat",
    "Latitude": "22.7199",
    "Longitude": "88.4875",
    "RegionCode": "BSRT",
    "State": "West Bengal",
    "SubRegionCode": "BSRT",
    "VenueAddress": "Bus Stand, 125/1, Jessore Road, Champadali, Barasat, West Bengal 700124, India",
    "VenueCode": "ACNB",
    "VenueName": "SSR Cinemas, Suncity Mall: Barasat"
  },
  "ACRT": {
    "AvailableFormats": "2D",
    "City": "Haliya",
    "Latitude": "16.7799",
    "Longitude": "79.3224",
    "RegionCode": "HALI",
    "State": "Telangana",
    "SubRegionCode": "HALI",
    "VenueAddress": "NH 565, Near ICICI Bank ATM, Haliya, Telangana 508377, India",
    "VenueCode": "ACRT",
    "VenueName": "Acchi Reddy Theater A/c Dolby DTS: Haliya"
  },
  "ACXB": {
    "AvailableFormats": "2D",
    "City": "Bhandara",
    "Latitude": "21.1761",
    "Longitude": "79.6388",
    "RegionCode": "BHAA",
    "State": "Maharashtra",
    "SubRegionCode": "BHAA",
    "VenueAddress": "Aswale Park, Samruddhi Nagar, Bhandara, Maharashtra 441906, India",
    "VenueCode": "ACXB",
    "VenueName": "AR Cineplex: Bhandara"
  },
  "ADGR": {
    "AvailableFormats": "2D|3D",
    "City": "Gorakhpur",
    "Latitude": "26.7564",
    "Longitude": "83.3668",
    "RegionCode": "GRKP",
    "State": "Uttar Pradesh",
    "SubRegionCode": "GRKP",
    "VenueAddress": "2nd and 3rd Floor, Ad Mall, Cinema Road, Gorakhpur, Uttar Pradesh 273001, India",
    "VenueCode": "ADGR",
    "VenueName": "AD Cinemas: Gorakhpur"
  },
  "AHKT": {
    "AvailableFormats": "2D",
    "City": "Kottiyam",
    "Latitude": "8.86546",
    "Longitude": "76.6695",
    "RegionCode": "KTTY",
    "State": "Kerala",
    "SubRegionCode": "KTTY",
    "VenueAddress": "Dreams Mall, National Highway 66, Kottiyam, Kerala 691571, India",
    "VenueCode": "AHKT",
    "VenueName": "Aashirvad Cineplexx: Kottiyam"
  },
  "AKFC": {
    "AvailableFormats": "2D",
    "City": "Alakode",
    "Latitude": "12.1785",
    "Longitude": "75.4649",
    "RegionCode": "ALAK",
    "State": "Kerala",
    "SubRegionCode": "ALAK",
    "VenueAddress": "Kottayadu Kavala, Malabar Hill Highway, Near St.Marys Forane Church, Alakode, Kerala 670571, India",
    "VenueCode": "AKFC",
    "VenueName": "Alakode Film City 4K Dolby Atmos"
  },
  "ALAT": {
    "AvailableFormats": "2D",
    "City": "Ponnamaravathi",
    "Latitude": "10.2757",
    "Longitude": "78.5367",
    "RegionCode": "PONM",
    "State": "Tamil Nadu",
    "SubRegionCode": "PONM",
    "VenueAddress": "Amman Kovil Street, Ponnamaravathy, Near Ponnamaravathi Police Station, Ponnamaravathi, Tamil Nadu 622407, India",
    "VenueCode": "ALAT",
    "VenueName": "Alankar Theatre 2K 7.1: Ponnamaravathi"
  },
  "AMBT": {
    "AvailableFormats": "3D|2D",
    "City": "Nagpur",
    "Latitude": "21.1163",
    "Longitude": "79.0128",
    "RegionCode": "NAGP",
    "State": "Maharashtra",
    "SubRegionCode": "NAGP",
    "VenueAddress": "Bansi Nagar, S R P Camp, Digdoh, Nagpur, Maharashtra 440016, India",
    "VenueCode": "AMBT",
    "VenueName": "AM Cinema: Bansi Nagar, Nagpur"
  },
  "AMHR": {
    "AvailableFormats": "2D",
    "City": "Virudhunagar",
    "Latitude": "9.59045",
    "Longitude": "77.9527",
    "RegionCode": "VIRU",
    "State": "Tamil Nadu",
    "SubRegionCode": "VIRU",
    "VenueAddress": "RR Nagar, Sivagami Puram, Virudhunagar, Tamil Nadu 626001, India",
    "VenueCode": "AMHR",
    "VenueName": "Amirtharaj Theatre A/C 2K Dolby 7.1: Virudhunagar"
  },
  "AMRT": {
    "AvailableFormats": "2D",
    "City": "Bengaluru",
    "Latitude": "13.0124",
    "Longitude": "77.6263",
    "RegionCode": "BANG",
    "State": "Karnataka",
    "SubRegionCode": "BANG",
    "VenueAddress": "No 1075, Near Lingarajpuram Fly Over, Hennur Main Road, St Thomas Town, Bengaluru, Karnataka 560084, India",
    "VenueCode": "AMRT",
    "VenueName": "Amruth Digital 2K A/C Cinema: Lingarajapuram"
  },
  "ANCB": {
    "AvailableFormats": "2D",
    "City": "Barmer",
    "Latitude": "25.7618",
    "Longitude": "71.4177",
    "RegionCode": "BARM",
    "State": "Rajasthan",
    "SubRegionCode": "BARM",
    "VenueAddress": "NH25, Baldev Nagar, Uttarlai Road, Barmer, Rajasthan 344001, India",
    "VenueCode": "ANCB",
    "VenueName": "Aanchal Cinema: Barmer"
  },
  "ANPT": {
    "AvailableFormats": "2D",
    "City": "Pithapuram",
    "Latitude": "17.1142",
    "Longitude": "82.2588",
    "RegionCode": "PITA",
    "State": "Andhra Pradesh",
    "SubRegionCode": "PITA",
    "VenueAddress": "Uppada - Pithapuram Road, Madhava Nagar, Pithapuram, Andhra Pradesh 533450, India",
    "VenueCode": "ANPT",
    "VenueName": "Sri Annapoorna Theatre 2K A/C DTS: Pithapuram"
  },
  "AOCH": {
    "AvailableFormats": "2D",
    "City": "Nabadwip",
    "Latitude": "23.4051",
    "Longitude": "88.3661",
    "RegionCode": "NABB",
    "State": "West Bengal",
    "SubRegionCode": "NABB",
    "VenueAddress": "78, Banerjee Para Road, Near Allahabad Bank, Nabadwip, West Bengal 741302, India",
    "VenueCode": "AOCH",
    "VenueName": "Alochaya Cinema: Nabadwip"
  },
  "APJC": {
    "AvailableFormats": "2D",
    "City": "Madurai",
    "Latitude": "9.90666",
    "Longitude": "78.0975",
    "RegionCode": "MADU",
    "State": "Tamil Nadu",
    "SubRegionCode": "MADU",
    "VenueAddress": "No. 6 Kambar street, Pasumpon Nagar, Madurai, Tamil Nadu 625003, India",
    "VenueCode": "APJC",
    "VenueName": "APR Cinemas Jeyam AC Christie 4K Dolby: Madurai"
  },
  "APSU": {
    "AvailableFormats": "2D",
    "City": "Hubli",
    "Latitude": "15.3481",
    "Longitude": "75.144",
    "RegionCode": "HUBL",
    "State": "Karnataka",
    "SubRegionCode": "HUBL",
    "VenueAddress": "Coen Road, New Hubli, Opposite Corporation Bank, Hubli, Karnataka 580020, India",
    "VenueCode": "APSU",
    "VenueName": "Apsara & Sudha Cinemas: Hubli"
  },
  "ARCR": {
    "AvailableFormats": "2D",
    "City": "Peravoor",
    "Latitude": "11.9016",
    "Longitude": "75.7307",
    "RegionCode": "PPVR",
    "State": "Kerala",
    "SubRegionCode": "PPVR",
    "VenueAddress": "Iritty Nedumpoil Road, Near Crystal Mall, Peravoor, Kerala 670673, India",
    "VenueCode": "ARCR",
    "VenueName": "Aura Cinemas: Peravoor"
  },
  "ARTH": {
    "AvailableFormats": "2D",
    "City": "Hyderabad",
    "Latitude": "17.4249",
    "Longitude": "78.5335",
    "RegionCode": "HYD",
    "State": "Telangana",
    "SubRegionCode": "HYD",
    "VenueAddress": "Professors Quarters, Inner Ring Road, Opposite Big Bazaar, Hyderabad, Telangana 500017, India",
    "VenueCode": "ARTH",
    "VenueName": "Aradhana Theatre: Hyderabad"
  },
  "ASCT": {
    "AvailableFormats": "2D",
    "City": "Thodupuzha",
    "Latitude": "9.89105",
    "Longitude": "76.7075",
    "RegionCode": "THOD",
    "State": "Kerala",
    "SubRegionCode": "THOD",
    "VenueAddress": "Near Pvt. Bus Stand, Pala Road, Thodupuzha, Kerala 685584, India",
    "VenueCode": "ASCT",
    "VenueName": "Aashirvad Cineplexx: Thodupuzha"
  },
  "ASLC": {
    "AvailableFormats": "2D",
    "City": "Trivandrum",
    "Latitude": "8.48853",
    "Longitude": "76.9461",
    "RegionCode": "VKAL",
    "State": "Kerala",
    "SubRegionCode": "VKAL",
    "VenueAddress": "Sahodara Samajam Road, near OverBridge, Thampanoor, Thiruvananthapuram, Trivandrum, Kerala 695035, India",
    "VenueCode": "ASLC",
    "VenueName": "Ariesplex SL Cinemas Cinionic Dolby Atmos"
  },
  "ASRG": {
    "AvailableFormats": "2D",
    "City": "Patna",
    "Latitude": "25.6186",
    "Longitude": "85.0469",
    "RegionCode": "PATN",
    "State": "Bihar",
    "SubRegionCode": "PATN",
    "VenueAddress": "6th Floor, Ambition Business Park, Bailey Road, Saguna More, Patna, Bihar 801503, India",
    "VenueCode": "ASRG",
    "VenueName": "ASR Cinemas, RPS More: Patna"
  },
  "ASTK": {
    "AvailableFormats": "2D",
    "City": "Kottayam",
    "Latitude": "9.58609",
    "Longitude": "76.5245",
    "RegionCode": "ETTU",
    "State": "Kerala",
    "SubRegionCode": "ETTU",
    "VenueAddress": "T.B Road, Near Ksrtc Bus Stand, Near Abhilash Theater, Kottayam, Kerala 686001, India",
    "VenueCode": "ASTK",
    "VenueName": "Asha Theatre: Kottayam"
  },
  "ATCK": {
    "AvailableFormats": "3D|2D",
    "City": "Kolkata",
    "Latitude": "22.7641",
    "Longitude": "88.3696",
    "RegionCode": "BARR",
    "State": "West Bengal",
    "SubRegionCode": "BARR",
    "VenueAddress": "91-73, Ghosh Para Road, North 24Pgs, Barrackpore, Near Barrackpore Railway Station, Kolkata, West Bengal 700120, India",
    "VenueCode": "ATCK",
    "VenueName": "Atindra Cinema: Barrackpore"
  },
  "ATMG": {
    "AvailableFormats": "2D",
    "City": "Chennai",
    "Latitude": "12.5051",
    "Longitude": "79.8799",
    "RegionCode": "CHEN",
    "State": "Tamil Nadu",
    "SubRegionCode": "CHEN",
    "VenueAddress": "National Highway Service Road, Maduranthakam, Tamil Nadu, Near Lake View Hotal, Chennai, Tamil Nadu 603306, India",
    "VenueCode": "ATMG",
    "VenueName": "Anand Theatre Madhuranthagam RGB LASER 4k"
  },
  "ATVJ": {
    "AvailableFormats": "2D",
    "City": "Vijayawada",
    "Latitude": "16.516",
    "Longitude": "80.6268",
    "RegionCode": "KADU",
    "State": "Andhra Pradesh",
    "SubRegionCode": "KADU",
    "VenueAddress": "Samba Murthy Road, Gandhi Nagar, Near Ramakrishna Mission Ashrama, Vijayawada, Andhra Pradesh 520003, India",
    "VenueCode": "ATVJ",
    "VenueName": "Alankar A/C 4K Dolby Surround: Vijayawada"
  },
  "AVMT": {
    "AvailableFormats": "",
    "City": "Chennai",
    "Latitude": "13.3341",
    "Longitude": "79.8884",
    "RegionCode": "CHEN",
    "State": "Tamil Nadu",
    "SubRegionCode": "CHEN",
    "VenueAddress": "Tirupati Road, Uthukkottai, Near Andhra Bank, Chennai, Tamil Nadu 602026, India",
    "VenueCode": "AVMT",
    "VenueName": "AVM Cinemas: Uthukkottai"
  },
  "AYAA": {
    "AvailableFormats": "2D",
    "City": "Solan",
    "Latitude": "30.9058",
    "Longitude": "77.1071",
    "RegionCode": "SCO",
    "State": "Himachal Pradesh",
    "SubRegionCode": "SCO",
    "VenueAddress": "2nd Floor, G Square Mall, Kotla Nala, Solan, Himachal Pradesh 173212, India",
    "VenueCode": "AYAA",
    "VenueName": "Ayaan Cinemas: Solan (G Square Mall)"
  },
  "BALT": {
    "AvailableFormats": "2D",
    "City": "Bengaluru",
    "Latitude": "12.9256",
    "Longitude": "77.6077",
    "RegionCode": "HOKT",
    "State": "Karnataka",
    "SubRegionCode": "HOKT",
    "VenueAddress": "Near BTM Layout, Balaji Nagar, Tavarekere Main Road, Next To  Lakshmi Theater, Opposite to Forum Mall, Bengaluru, Karnataka 560081, India",
    "VenueCode": "BALT",
    "VenueName": "Balaji Theatre:Tavarekere(Next to Lakshmi Theatre)"
  },
  "BBPO": {
    "AvailableFormats": "2D|3D",
    "City": "Puttur (Karnataka)",
    "Latitude": "12.7596",
    "Longitude": "75.2062",
    "RegionCode": "PTTU",
    "State": "Karnataka",
    "SubRegionCode": "PTTU",
    "VenueAddress": "2nd Floor, GL One Mall, Pangalai Road, Puttur (Karnataka), Karnataka 574201, India",
    "VenueCode": "BBPO",
    "VenueName": "Bharath Cinemas: Puttur"
  },
  "BCWG": {
    "AvailableFormats": "2D|3D",
    "City": "Ghaziabad",
    "Latitude": "28.6797",
    "Longitude": "77.3819",
    "RegionCode": "NCR",
    "State": "NCR",
    "SubRegionCode": "GHAZ",
    "VenueAddress": "Bhutani City Centre, Ghaziabad T-Point, Mohan Nagar, Near Air Force Station Hindon, Ghaziabad, NCR 201007, India",
    "VenueCode": "BCWG",
    "VenueName": "B18 Cinemas (Bhutani Cineplex) City Center GZB"
  },
  "BHCS": {
    "AvailableFormats": "2D|3D",
    "City": "Manipal",
    "Latitude": "13.353",
    "Longitude": "74.7903",
    "RegionCode": "MANI",
    "State": "Karnataka",
    "SubRegionCode": "MANI",
    "VenueAddress": "Canara Mall, Hebri Road, Near Hotel Green Park, Manipal, Karnataka 576104, India",
    "VenueCode": "BHCS",
    "VenueName": "Bharath Cinemas: Canara Mall, Manipal"
  },
  "BINT": {
    "AvailableFormats": "2D",
    "City": "Dubrajpur",
    "Latitude": "23.797",
    "Longitude": "87.3776",
    "RegionCode": "DUBR",
    "State": "West Bengal",
    "SubRegionCode": "DUBR",
    "VenueAddress": "Bharat Mata Sangha Road, Birbhum, Near S.J Electronics, Dubrajpur, West Bengal 731132, India",
    "VenueCode": "BINT",
    "VenueName": "Binapani Talkies: Dubrajpur"
  },
  "BLBR": {
    "AvailableFormats": "2D",
    "City": "Burhar",
    "Latitude": "23.202",
    "Longitude": "81.535",
    "RegionCode": "BRHR",
    "State": "Madhya Pradesh",
    "SubRegionCode": "BRHR",
    "VenueAddress": "Shree Shraja Mall, Shree Shraja Mall, Burhar, Madhya Pradesh 484110, India",
    "VenueCode": "BLBR",
    "VenueName": "Bliss Multiplex: Burhar"
  },
  "BMMB": {
    "AvailableFormats": "",
    "City": "Gudivada",
    "Latitude": "16.4387",
    "Longitude": "80.9925",
    "RegionCode": "GUDI",
    "State": "Andhra Pradesh",
    "SubRegionCode": "GUDI",
    "VenueAddress": "Santhi Nagar, Loya Vari Street, Near Sri Sai Ratna Eye Hospital, Gudivada, Andhra Pradesh 521301, India",
    "VenueCode": "BMMB",
    "VenueName": "Bommarillu Cinemas 4k Dolby Laser: Gudivada"
  },
  "BRKT": {
    "AvailableFormats": "2D",
    "City": "Thrissur",
    "Latitude": "10.4775",
    "Longitude": "76.1166",
    "RegionCode": "MANR",
    "State": "Kerala",
    "SubRegionCode": "MANR",
    "VenueAddress": "Thrissur, Vatanappally Road Kanjany, Near Simla Mall, Thrissur, Kerala 680612, India",
    "VenueCode": "BRKT",
    "VenueName": "Brahmakulam Theatre, 4K Dolby Atmos: Kanjany"
  },
  "BSRM": {
    "AvailableFormats": "2D",
    "City": "Palanpur",
    "Latitude": "24.1896",
    "Longitude": "72.4287",
    "RegionCode": "PALN",
    "State": "Gujarat",
    "SubRegionCode": "PALN",
    "VenueAddress": "Abu Highway, Behind Diti Honda Palanpur, Palanpur, Gujarat 385001, India",
    "VenueCode": "BSRM",
    "VenueName": "Byte Suramandir Cinema: Palanpur"
  },
  "BTLR": {
    "AvailableFormats": "2D",
    "City": "Lakhimpur",
    "Latitude": "27.2365",
    "Longitude": "94.1042",
    "RegionCode": "LAHA",
    "State": "Assam",
    "SubRegionCode": "LAHA",
    "VenueAddress": "Biswa Talkies, NH 15, North Lakhimpur, Lakhimpur, Assam 787001, India",
    "VenueCode": "BTLR",
    "VenueName": "Biswa Talkies: Lakhimpur"
  },
  "CAEP": {
    "AvailableFormats": "2D|3D",
    "City": "Patna",
    "Latitude": "25.5785",
    "Longitude": "85.0798",
    "RegionCode": "PATN",
    "State": "Bihar",
    "SubRegionCode": "PATN",
    "VenueAddress": "2nd Floor, S R Arcade, Near Mahavir Cancer Sansthan Pulwarishariff, Patna, Bihar 801505, India",
    "VenueCode": "CAEP",
    "VenueName": "Connplex Cinemas: Phulwari Sharif, Patna"
  },
  "CBWC": {
    "AvailableFormats": "",
    "City": "Biswanath Chariali",
    "Latitude": "26.7412",
    "Longitude": "93.1505",
    "RegionCode": "BICH",
    "State": "Assam",
    "SubRegionCode": "BICH",
    "VenueAddress": "3rd and 4th Floor, Millennium Market City, Biswanath Civil Sub Division, Biswanath Chariali, Assam 784176, India",
    "VenueCode": "CBWC",
    "VenueName": "Connplex Cinemas: Biswanath Chariali"
  },
  "CCCB": {
    "AvailableFormats": "2D",
    "City": "Coimbatore",
    "Latitude": "11.0137",
    "Longitude": "77.0026",
    "RegionCode": "COIM",
    "State": "Tamil Nadu",
    "SubRegionCode": "COIM",
    "VenueAddress": "14, Renganayaki Nagar, Thirumagal Nagar, Udayampalayam, Coimbatore, Tamil Nadu 641028, India",
    "VenueCode": "CCCB",
    "VenueName": "Cosmo Cinemas PEELAMEDU AC 4K RGB Lase:Coimbatore"
  },
  "CCKS": {
    "AvailableFormats": "2D|3D",
    "City": "Surat",
    "Latitude": "21.2319",
    "Longitude": "72.8362",
    "RegionCode": "SURT",
    "State": "Gujarat",
    "SubRegionCode": "SURT",
    "VenueAddress": "6th floor, Laxmi Enclave 2, Near Gajera School, Surat, Gujarat 395004, India",
    "VenueCode": "CCKS",
    "VenueName": "Cineverse Cinema: Katargam, Surat"
  },
  "CCMX": {
    "AvailableFormats": "2D",
    "City": "Madhubani",
    "Latitude": "26.3545",
    "Longitude": "86.0693",
    "RegionCode": "MADZ",
    "State": "Bihar",
    "SubRegionCode": "MADZ",
    "VenueAddress": "Mahaseth Complex, Opposite Suri High School, Bara Bazar, Madhubani, Bihar 847211, India",
    "VenueCode": "CCMX",
    "VenueName": "Connplex Cinemas: Madhubani"
  },
  "CCRP": {
    "AvailableFormats": "2D",
    "City": "Raipur",
    "Latitude": "21.2173",
    "Longitude": "81.6566",
    "RegionCode": "RAIPUR",
    "State": "Chhattisgarh",
    "SubRegionCode": "RAIPUR",
    "VenueAddress": "Colors Cinema, 3rd floor, Colors Mall, Pachpedi Naka, NH 43, Raipur, Chhattisgarh 492001, India",
    "VenueCode": "CCRP",
    "VenueName": "Colors Cinemas: Colors Mall, Raipur"
  },
  "CDCM": {
    "AvailableFormats": "2D",
    "City": "Marayur",
    "Latitude": "10.278",
    "Longitude": "77.1658",
    "RegionCode": "MAYR",
    "State": "Kerala",
    "SubRegionCode": "MAYR",
    "VenueAddress": "Munnar - Udumalpet Road, Nearby Rahul Hotel, Marayur, Kerala 685620, India",
    "VenueCode": "CDCM",
    "VenueName": "Chandana Cinema: Marayur"
  },
  "CEHR": {
    "AvailableFormats": "2D|3D",
    "City": "Bengaluru",
    "Latitude": "12.8963",
    "Longitude": "77.6579",
    "RegionCode": "BANG",
    "State": "Karnataka",
    "SubRegionCode": "BANG",
    "VenueAddress": "No.102, 2B, Haralur Main Road, Bengaluru, Karnataka 560102, India",
    "VenueCode": "CEHR",
    "VenueName": "Cinephile HSR Layout: PNR Felicity Mall Haralur Rd"
  },
  "CGCA": {
    "AvailableFormats": "2D",
    "City": "Cherpulassery",
    "Latitude": "10.8768",
    "Longitude": "76.3129",
    "RegionCode": "CHER",
    "State": "Kerala",
    "SubRegionCode": "CHER",
    "VenueAddress": "Main Road, Near Federal Bank ATM, Cherpulassery, Kerala 679503, India",
    "VenueCode": "CGCA",
    "VenueName": "Cheloor Grand Cinemas: Cherpulassery"
  },
  "CGMO": {
    "AvailableFormats": "2D",
    "City": "Ahmedabad",
    "Latitude": "23.0926",
    "Longitude": "72.5929",
    "RegionCode": "AHD",
    "State": "Gujarat",
    "SubRegionCode": "AHD",
    "VenueAddress": "Indira Nagar,Parvati Nagar, Motera Stadium Road, Motera, Opposite Motera Stadium, Ahmedabad, Gujarat 380005, India",
    "VenueCode": "CGMO",
    "VenueName": "City Gold: Motera"
  },
  "CHSX": {
    "AvailableFormats": "",
    "City": "Patna",
    "Latitude": "25.5698",
    "Longitude": "84.8705",
    "RegionCode": "PATN",
    "State": "Bihar",
    "SubRegionCode": "PATN",
    "VenueAddress": "NT Complex Shrirampur Naya Bazar, Opposite Bank Of Baroda, Bihta, Patna, Bihar 801103, India",
    "VenueCode": "CHSX",
    "VenueName": "Connplex Cinemas: Bihta, Patna"
  },
  "CICM": {
    "AvailableFormats": "2D",
    "City": "Math Chandipur",
    "Latitude": "22.0886",
    "Longitude": "87.8576",
    "RegionCode": "MPUR",
    "State": "West Bengal",
    "SubRegionCode": "MPUR",
    "VenueAddress": "Mayukh Gift Corner, Nandigram Road, Math Chandipur, West Bengal 721659, India",
    "VenueCode": "CICM",
    "VenueName": "Chitranjali Cinema: Math Chandipur"
  },
  "CIXH": {
    "AvailableFormats": "",
    "City": "Ahmedabad",
    "Latitude": "23.0902",
    "Longitude": "72.5297",
    "RegionCode": "AHD",
    "State": "Gujarat",
    "SubRegionCode": "AHD",
    "VenueAddress": "310/11/12 Silver Radiance 4, Near Silver Oak College SG Highway, Gota, Ahmedabad, Gujarat 382481, India",
    "VenueCode": "CIXH",
    "VenueName": "CINELUX Cinema:Sola SG Highway (Newly Premium JBL)"
  },
  "CLCU": {
    "AvailableFormats": "2D",
    "City": "Umred",
    "Latitude": "20.8595",
    "Longitude": "79.3164",
    "RegionCode": "UMRD",
    "State": "Maharashtra",
    "SubRegionCode": "UMRD",
    "VenueAddress": "Kawarapeth, Gangapur, Umred, Maharashtra 441203, India",
    "VenueCode": "CLCU",
    "VenueName": "Balaji Multiplex: Umred"
  },
  "CLMK": {
    "AvailableFormats": "2D|3D",
    "City": "Kolkata",
    "Latitude": "22.5167",
    "Longitude": "88.3489",
    "RegionCode": "KOLK",
    "State": "West Bengal",
    "SubRegionCode": "KOLK",
    "VenueAddress": "5th Floor Lake mall, Rash behari Avenue Road, 104- Rashbehari Avenue, Kolkata, West Bengal 700026, India",
    "VenueCode": "CLMK",
    "VenueName": "Cinepolis: Lake Mall, Kolkata"
  },
  "CMBW": {
    "AvailableFormats": "",
    "City": "Bankura",
    "Latitude": "23.2527",
    "Longitude": "87.0263",
    "RegionCode": "BNKU",
    "State": "West Bengal",
    "SubRegionCode": "BNKU",
    "VenueAddress": "Salboni Village, Bankura-Chhatna Road, Bankura, West Bengal 722102, India",
    "VenueCode": "CMBW",
    "VenueName": "Chhotu Maharaj: Bankura, WB"
  },
  "CMMK": {
    "AvailableFormats": "2D",
    "City": "Medak",
    "Latitude": "18.0507",
    "Longitude": "78.2634",
    "RegionCode": "NRPR",
    "State": "Telangana",
    "SubRegionCode": "NRPR",
    "VenueAddress": "Chaman Road, Fathe Nagar, Thimmaipalli, Medak, Telangana 502110, India",
    "VenueCode": "CMMK",
    "VenueName": "Cinemax Theatre: Medak"
  },
  "CMSN": {
    "AvailableFormats": "",
    "City": "Agra",
    "Latitude": "27.2032",
    "Longitude": "77.9671",
    "RegionCode": "AGRA",
    "State": "Uttar Pradesh",
    "SubRegionCode": "AGRA",
    "VenueAddress": "2nd Floor Bhawna Dwarka Street ,Prop. No. Comm 7, Anthem Pocket A Sec, 15 Avas Vikas Sikandra Agra, Agra, Uttar Pradesh 282007, India",
    "VenueCode": "CMSN",
    "VenueName": "Chhotu Maharaj: Sikandra Agra, UP"
  },
  "CMVV": {
    "AvailableFormats": "2D",
    "City": "Varanasi",
    "Latitude": "25.3012",
    "Longitude": "82.9586",
    "RegionCode": "VAR",
    "State": "Uttar Pradesh",
    "SubRegionCode": "VAR",
    "VenueAddress": "Plot No. 237/3, Madauli, Near St.Johns School, Varanasi, Uttar Pradesh 221003, India",
    "VenueCode": "CMVV",
    "VenueName": "Chhotu Maharaj Cine Cafe: Varanasi"
  },
  "CNCS": {
    "AvailableFormats": "2D",
    "City": "Sangamner",
    "Latitude": "19.5948",
    "Longitude": "74.1942",
    "RegionCode": "SMNE",
    "State": "Maharashtra",
    "SubRegionCode": "SMNE",
    "VenueAddress": "2nd Floor, Malpani Multiplex Mall, Gunjalwadi, Sangamner, Maharashtra 422605, India",
    "VenueCode": "CNCS",
    "VenueName": "Connplex Cinemas: Sangamner"
  },
  "CNLP": {
    "AvailableFormats": "3D|2D",
    "City": "Ahmedabad",
    "Latitude": "23.1461",
    "Longitude": "72.5463",
    "RegionCode": "GNAGAR",
    "State": "Gujarat",
    "SubRegionCode": "GNAGAR",
    "VenueAddress": "1st Floor, Master Avenue, Gandhinagar, Near - Vaishnodevi Circle, Ahmedabad, Gujarat 382421, India",
    "VenueCode": "CNLP",
    "VenueName": "Connplex Cinemas (Luxuriance): Vaishnodevi"
  },
  "CNRM": {
    "AvailableFormats": "2D",
    "City": "Bengaluru",
    "Latitude": "12.8759",
    "Longitude": "77.5956",
    "RegionCode": "HOKT",
    "State": "Karnataka",
    "SubRegionCode": "HOKT",
    "VenueAddress": "Royal Meenakshi Mall, Bannerghatta Road, Bengaluru, Karnataka 560076, India",
    "VenueCode": "CNRM",
    "VenueName": "Cinepolis: Royal Meenakshi Mall"
  },
  "COLV": {
    "AvailableFormats": "2D|3D",
    "City": "Vadodara",
    "Latitude": "22.3108",
    "Longitude": "73.1688",
    "RegionCode": "VAD",
    "State": "Gujarat",
    "SubRegionCode": "VAD",
    "VenueAddress": "Kanha Center, 2nd Floor, RC Dutt Road, Alkapuri, Opposite Hotel Express Ardhana Society, Vadodara, Gujarat 390020, India",
    "VenueCode": "COLV",
    "VenueName": "Connplex Cinemas (Luxuriance): Vadodara"
  },
  "CPAO": {
    "AvailableFormats": "3D|2D",
    "City": "Ahmedabad",
    "Latitude": "23.0378",
    "Longitude": "72.5283",
    "RegionCode": "AHD",
    "State": "Gujarat",
    "SubRegionCode": "AHD",
    "VenueAddress": "3rd Floor, Alpha One Mall, Opp Vastrapur Lake, Ahmedabad, Gujarat 380015, India",
    "VenueCode": "CPAO",
    "VenueName": "Cinepolis: Nexus Ahmedabad One"
  },
  "CPEC": {
    "AvailableFormats": "2D",
    "City": "Ahmedabad",
    "Latitude": "23.0464",
    "Longitude": "72.6737",
    "RegionCode": "AHD",
    "State": "Gujarat",
    "SubRegionCode": "AHD",
    "VenueAddress": "4th Floor, Hiltown Square, MG Road, Ahmedabad, Gujarat 382350, India",
    "VenueCode": "CPEC",
    "VenueName": "Cineprime Cinema: Nikol"
  },
  "CPKC": {
    "AvailableFormats": "2D|3D",
    "City": "Vapi",
    "Latitude": "20.3954",
    "Longitude": "72.8928",
    "RegionCode": "VAPI",
    "State": "Gujarat",
    "SubRegionCode": "VAPI",
    "VenueAddress": "Fortune Square-1, 4th Floor, Vapi -Daman Road, Chala, Vapi, Gujarat 396191, India",
    "VenueCode": "CPKC",
    "VenueName": "Cine Park: Chala, Vapi"
  },
  "CPMJ": {
    "AvailableFormats": "2D",
    "City": "Jagdalpur",
    "Latitude": "19.0887",
    "Longitude": "82.0118",
    "RegionCode": "JAGD",
    "State": "Chhattisgarh",
    "SubRegionCode": "JAGD",
    "VenueAddress": "Binaka Mall, Chitrakote Road, Jagdalpur, Chhattisgarh 493773, India",
    "VenueCode": "CPMJ",
    "VenueName": "Cine Plus Multiplex: Jagdalpur"
  },
  "CPRP": {
    "AvailableFormats": "2D|3D",
    "City": "Pune",
    "Latitude": "18.5933",
    "Longitude": "73.7864",
    "RegionCode": "PUNE",
    "State": "Maharashtra",
    "SubRegionCode": "PUNE",
    "VenueAddress": "Spot-18 Mall, 3rd Floor, Rahatani Rd, Pimpri Chinchwad, Pune, Maharashtra 411017, India",
    "VenueCode": "CPRP",
    "VenueName": "City Pride Royal Cinemas: Rahatani"
  },
  "CPUS": {
    "AvailableFormats": "2D",
    "City": "Surat",
    "Latitude": "21.1361",
    "Longitude": "72.7521",
    "RegionCode": "SURT",
    "State": "Gujarat",
    "SubRegionCode": "SURT",
    "VenueAddress": "Dumas Road, Opposite L and T Colony, Near Magdalla Circle, Surat, Gujarat 395007, India",
    "VenueCode": "CPUS",
    "VenueName": "City Plus Multiplex: Surat"
  },
  "CRPR": {
    "AvailableFormats": "2D",
    "City": "Puthoor",
    "Latitude": "9.040496",
    "Longitude": "76.715786",
    "RegionCode": "PUTR",
    "State": "Kerala",
    "SubRegionCode": "PUTR",
    "VenueAddress": "Cheerankavu, Maranadu, Puthoor, Kerala 691507, India",
    "VenueCode": "CRPR",
    "VenueName": "Chellam Theatre 4K Laser Dolby Atmos: Puthoor"
  },
  "CSER": {
    "AvailableFormats": "2D",
    "City": "Guntur",
    "Latitude": "16.3333",
    "Longitude": "80.438",
    "RegionCode": "GUNT",
    "State": "Andhra Pradesh",
    "SubRegionCode": "GUNT",
    "VenueAddress": "Amravati Road, Gorantla, Near Gorantla Electricity Office, Guntur, Andhra Pradesh 522034, India",
    "VenueCode": "CSER",
    "VenueName": "Cine Square Dolby Atmos A/C: Guntur"
  },
  "CSST": {
    "AvailableFormats": "2D",
    "City": "Ahmedabad",
    "Latitude": "23.0525",
    "Longitude": "72.4807",
    "RegionCode": "AHD",
    "State": "Gujarat",
    "SubRegionCode": "AHD",
    "VenueAddress": "2nd Floor, Shilp The Address,Shilaj Road, SP Ringoad, Thaltej, Ahmedabad, Gujarat 380059, India",
    "VenueCode": "CSST",
    "VenueName": "Connplex Cinemas: Shilaj"
  },
  "CTEE": {
    "AvailableFormats": "3D|2D",
    "City": "Gurugram (Gurgaon)",
    "Latitude": "28.454",
    "Longitude": "76.9927",
    "RegionCode": "NCR",
    "State": "NCR",
    "SubRegionCode": "GURG",
    "VenueAddress": "The Esplanade Mall, Sector 37 C Road, Sector 37, Gurugram (Gurgaon), NCR 122001, India",
    "VenueCode": "CTEE",
    "VenueName": "Cinepolis: The Esplanade, Gurugram"
  },
  "CTMR": {
    "AvailableFormats": "2D",
    "City": "Muzaffarnagar",
    "Latitude": "29.4762",
    "Longitude": "77.6966",
    "RegionCode": "MUZ",
    "State": "Uttar Pradesh",
    "SubRegionCode": "MUZ",
    "VenueAddress": "NH 58, Civil Lines North, Muzaffarnagar, Uttar Pradesh 251001, India",
    "VenueCode": "CTMR",
    "VenueName": "Chandra Talkies: Muzaffarnagar"
  },
  "CUDN": {
    "AvailableFormats": "",
    "City": "Nagpur",
    "Latitude": "20.8422",
    "Longitude": "79.3181",
    "RegionCode": "NAGP",
    "State": "Maharashtra",
    "SubRegionCode": "NAGP",
    "VenueAddress": "Plot No. 1, 2, and 3, Giradkar Layout, Bypass Road, Nagpur, Maharashtra 441203, India",
    "VenueCode": "CUDN",
    "VenueName": "Chhotu Maharaj: Umred, Nagpur"
  },
  "CVMU": {
    "AvailableFormats": "",
    "City": "Hyderabad",
    "Latitude": "17.402",
    "Longitude": "78.5719",
    "RegionCode": "HYD",
    "State": "Telangana",
    "SubRegionCode": "HYD",
    "VenueAddress": "Main Road, IBP Petrol Bunk, Shanthi Nagar, Medchal Malkajgiri, Hyderabad, Telangana 500039, India",
    "VenueCode": "CVMU",
    "VenueName": "Cineverse Multiplex: Uppal"
  },
  "CXKR": {
    "AvailableFormats": "2D",
    "City": "Rourkela",
    "Latitude": "22.2342",
    "Longitude": "84.8724",
    "RegionCode": "RKOR",
    "State": "Odisha",
    "SubRegionCode": "RKOR",
    "VenueAddress": "Railway Colony, Ring Road, Rourkela, Odisha 769001, India",
    "VenueCode": "CXKR",
    "VenueName": "Cineplexx: Beside Hotel Deepti, Rourkela"
  },
  "DABA": {
    "AvailableFormats": "2D",
    "City": "Cumbum",
    "Latitude": "9.73105",
    "Longitude": "77.2823",
    "RegionCode": "CMBM",
    "State": "Tamil Nadu",
    "SubRegionCode": "CMBM",
    "VenueAddress": "Angoorpalayam Road, Mani Nagaram, Cumbum, Tamil Nadu 625516, India",
    "VenueCode": "DABA",
    "VenueName": "Deva Bala Sakthi Bala A/C 2K DOLBY Atmos: Cumbum"
  },
  "DCCO": {
    "AvailableFormats": "2D|3D",
    "City": "Nashik",
    "Latitude": "19.9812",
    "Longitude": "73.756",
    "RegionCode": "NASK",
    "State": "Maharashtra",
    "SubRegionCode": "NASK",
    "VenueAddress": "Purab Paschim Plaza, Trimurti Chowk Cidco-9, Opposite Trimurti Chowk Post Office, Nashik, Maharashtra 422008, India",
    "VenueCode": "DCCO",
    "VenueName": "Divya Cinemas: Nashik"
  },
  "DCMJ": {
    "AvailableFormats": "2D",
    "City": "Manjeri",
    "Latitude": "11.1232",
    "Longitude": "76.1175",
    "RegionCode": "MAJR",
    "State": "Kerala",
    "SubRegionCode": "MAJR",
    "VenueAddress": "Rajiv Gandhi Bypass, Karuvambram, Manjeri, Kerala 676121, India",
    "VenueCode": "DCMJ",
    "VenueName": "Devaki Cinemax: Manjeri"
  },
  "DDCK": {
    "AvailableFormats": "2D|3D",
    "City": "Hajipur",
    "Latitude": "25.6943",
    "Longitude": "85.2116",
    "RegionCode": "HAJI",
    "State": "Bihar",
    "SubRegionCode": "HAJI",
    "VenueAddress": "Cine Krishna Mall ,1st Floor, Cinema Road, Hajipur, Bihar 844101, India",
    "VenueCode": "DDCK",
    "VenueName": "DD Cinemas: Cine Krishna Mall, Hajipur"
  },
  "DESB": {
    "AvailableFormats": "2D",
    "City": "Dhanbad",
    "Latitude": "23.7401",
    "Longitude": "86.4183",
    "RegionCode": "DHAN",
    "State": "Jharkhand",
    "SubRegionCode": "DHAN",
    "VenueAddress": "Nai Duniya Mohlla, Main Road, Jharia, Dhanbad, Jharkhand 828111, India",
    "VenueCode": "DESB",
    "VenueName": "Deshbandhu Cinema: Jharia, Dhanbad"
  },
  "DICI": {
    "AvailableFormats": "2D",
    "City": "Indore",
    "Latitude": "22.6273",
    "Longitude": "75.8388",
    "RegionCode": "IND",
    "State": "Madhya Pradesh",
    "SubRegionCode": "IND",
    "VenueAddress": "Windasa Theme Park, Near - State Institute of Hotel Management, Indore, Madhya Pradesh 453331, India",
    "VenueCode": "DICI",
    "VenueName": "Cine Wheels Drive in by Windasa: Indore"
  },
  "DLGK": {
    "AvailableFormats": "2D",
    "City": "Katni",
    "Latitude": "23.8149",
    "Longitude": "80.3782",
    "RegionCode": "KATN",
    "State": "Madhya Pradesh",
    "SubRegionCode": "KATN",
    "VenueAddress": "Relaince Petrol Pump, Shanti Nagar, Katni, Madhya Pradesh 483504, India",
    "VenueCode": "DLGK",
    "VenueName": "DLG Cinemas: Katni"
  },
  "DMXM": {
    "AvailableFormats": "2D",
    "City": "Morbi",
    "Latitude": "22.7781",
    "Longitude": "70.9053",
    "RegionCode": "MOBI",
    "State": "Gujarat",
    "SubRegionCode": "MOBI",
    "VenueAddress": "SURVEY NO-66/1 AND 66/2, C/o Dariyalal Business Center, Opposite Rafaleshwar, 8 A National Highway, Jambudiya, Morbi, Gujarat 363642, India",
    "VenueCode": "DMXM",
    "VenueName": "Dariyalal Multiplex: Morbi"
  },
  "DPTD": {
    "AvailableFormats": "2D",
    "City": "Mavelikkara",
    "Latitude": "9.2543",
    "Longitude": "76.545",
    "RegionCode": "MVLR",
    "State": "Kerala",
    "SubRegionCode": "MVLR",
    "VenueAddress": "Kayamkulam-Thiruvalla Road (SH 6), Old Mavelikkara, Mavelikkara, Kerala 690101, India",
    "VenueCode": "DPTD",
    "VenueName": "Dreambig Prathibha Theatre: Mavelikkara"
  },
  "DTCK": {
    "AvailableFormats": "2D",
    "City": "Kalimpong",
    "Latitude": "27.0648",
    "Longitude": "88.4667",
    "RegionCode": "KALI",
    "State": "West Bengal",
    "SubRegionCode": "KALI",
    "VenueAddress": "9th Mile, Trimoti Shopping complex, Mongbol Busty, Alipurduar Road, Rishi Road, Near Hotel Jiwan Jyoti, Kalimpong, West Bengal 734301, India",
    "VenueCode": "DTCK",
    "VenueName": "Dream Theatre Cineplex: Kalimpong"
  },
  "DURG": {
    "AvailableFormats": "2D",
    "City": "Banki",
    "Latitude": "20.3791",
    "Longitude": "85.531",
    "RegionCode": "BANK",
    "State": "Odisha",
    "SubRegionCode": "BANK",
    "VenueAddress": "Near SBI Bank, Cuttack - Banki Road, Banki, Odisha 754008, India",
    "VenueCode": "DURG",
    "VenueName": "Durga Talkies: Banki"
  },
  "DXEC": {
    "AvailableFormats": "",
    "City": "Ottapalam",
    "Latitude": "10.7413",
    "Longitude": "76.3901",
    "RegionCode": "THSR",
    "State": "Kerala",
    "SubRegionCode": "THSR",
    "VenueAddress": "Chelakkara, Kondazhi Mayannur Road, Ottapalam, Kerala 679105, India",
    "VenueCode": "DXEC",
    "VenueName": "Dreamax E Cinemas: Mayannur"
  },
  "ECPP": {
    "AvailableFormats": "2D|3D",
    "City": "Pune",
    "Latitude": "18.6285",
    "Longitude": "73.7841",
    "RegionCode": "PUNE",
    "State": "Maharashtra",
    "SubRegionCode": "PUNE",
    "VenueAddress": "2nd Floor, Elpro City Square Mall, Pimpri Chinchwad Link Road, Pune, Maharashtra 411033, India",
    "VenueCode": "ECPP",
    "VenueName": "INOX: Elpro City Square, Chinchwad"
  },
  "EKCM": {
    "AvailableFormats": "2D",
    "City": "Kusumgram",
    "Latitude": "23.3893",
    "Longitude": "88.1318",
    "RegionCode": "KKKL",
    "State": "West Bengal",
    "SubRegionCode": "KKKL",
    "VenueAddress": "SH 8, Kusumgram, Belgram Bolgona Kalna Road, Opposite Bandhan Bank, Kusumgram, West Bengal 713422, India",
    "VenueCode": "EKCM",
    "VenueName": "Ekta Manch: Kusumgram"
  },
  "EOCS": {
    "AvailableFormats": "2D",
    "City": "Sundargarh",
    "Latitude": "22.1043",
    "Longitude": "84.0378",
    "RegionCode": "SUND",
    "State": "Odisha",
    "SubRegionCode": "SUND",
    "VenueAddress": "Sankara City, Mission Road, Sankara Road, Sundargarh, Odisha 770001, India",
    "VenueCode": "EOCS",
    "VenueName": "EOS Cinema: Sundargarh"
  },
  "ESOS": {
    "AvailableFormats": "2D|3D",
    "City": "Solapur",
    "Latitude": "17.6766",
    "Longitude": "75.8985",
    "RegionCode": "SOLA",
    "State": "Maharashtra",
    "SubRegionCode": "SOLA",
    "VenueAddress": "11/A, NH13, Old Police Line, Murarji Peth, Solapur, Maharashtra 413001, India",
    "VenueCode": "ESOS",
    "VenueName": "E-SQUARE Oasis (A.C): Solapur"
  },
  "EVMC": {
    "AvailableFormats": "2D",
    "City": "Muvattupuzha",
    "Latitude": "9.97985",
    "Longitude": "76.5837",
    "RegionCode": "MUVA",
    "State": "Kerala",
    "SubRegionCode": "MUVA",
    "VenueAddress": "SH8, Kizhakkekara, Muvattupuzha, Near Nirmala Shopping Centre, Muvattupuzha, Kerala 686661, India",
    "VenueCode": "EVMC",
    "VenueName": "EVM Latha 4k 3D RGB Pure laser 7.1: Muvattupuzha"
  },
  "FCDH": {
    "AvailableFormats": "2D|3D",
    "City": "Dhanbad(Jharkhand)",
    "Latitude": "23.8206",
    "Longitude": "86.4703",
    "RegionCode": "DHAN",
    "State": "Jharkhand",
    "SubRegionCode": "DHAN",
    "VenueAddress": "Ozone Galleria Mall, Saraidhela, Kolakusma, Above Big Bazaar, Dhanbad(Jharkhand), Jharkhand 828127, India",
    "VenueCode": "FCDH",
    "VenueName": "INOX Cinemas: Dhanbad"
  },
  "FMCB": {
    "AvailableFormats": "2D|3D",
    "City": "Bhagalpur",
    "Latitude": "25.2632",
    "Longitude": "87.0324",
    "RegionCode": "BHAG",
    "State": "Bihar",
    "SubRegionCode": "BHAG",
    "VenueAddress": "Near DAV School, Large Industrial Area, Barari, Bhagalpur, Bihar 812003, India",
    "VenueCode": "FMCB",
    "VenueName": "FM Cineplex: Bhagalpur"
  },
  "FMMA": {
    "AvailableFormats": "2D|MX4D|IMAX 2D|3D",
    "City": "Mumbai",
    "Latitude": "19.1725",
    "Longitude": "72.8355",
    "RegionCode": "MUMBAI",
    "State": "Maharashtra",
    "SubRegionCode": "MWEST",
    "VenueAddress": "Inorbit Mall, Goregaon Malad Link Road, Near Shoppers Stop, Malad West, Mumbai, Maharashtra 400064, India",
    "VenueCode": "FMMA",
    "VenueName": "INOX: Megaplex, Inorbit Mall, Malad"
  },
  "FNBP": {
    "AvailableFormats": "3D|2D",
    "City": "Bhopal",
    "Latitude": "23.2329",
    "Longitude": "77.4298",
    "RegionCode": "BHOP",
    "State": "Madhya Pradesh",
    "SubRegionCode": "BHOP",
    "VenueAddress": "Arera Hills, DB City Mall, Maharana Pratap Nagar, Bhopal, Madhya Pradesh 462011, India",
    "VenueCode": "FNBP",
    "VenueName": "Cinepolis: DB Mall, Bhopal"
  },
  "FNLK": {
    "AvailableFormats": "2D|3D",
    "City": "Lucknow",
    "Latitude": "26.8582",
    "Longitude": "80.9762",
    "RegionCode": "LUCK",
    "State": "Uttar Pradesh",
    "SubRegionCode": "LUCK",
    "VenueAddress": "Near Eldeco Greens, Nehru Enclave, Gomti Nagar, Opposite Lohia Park, Lucknow, Uttar Pradesh 226010, India",
    "VenueCode": "FNLK",
    "VenueName": "Fun Cinemas: Fun Republic Mall, Lucknow"
  },
  "FRGS": {
    "AvailableFormats": "2D|3D",
    "City": "Thanjavur",
    "Latitude": "10.7857",
    "Longitude": "79.1392",
    "RegionCode": "TANJ",
    "State": "Tamil Nadu",
    "SubRegionCode": "TANJ",
    "VenueAddress": "78/3, Abraham Pandither Road, Next to P.K Hospital, Thanjavur, Tamil Nadu 613001, India",
    "VenueCode": "FRGS",
    "VenueName": "Frame Cinemas RGB Laser Atmos: Thanjavur"
  },
  "FUCG": {
    "AvailableFormats": "2D",
    "City": "Guwahati",
    "Latitude": "26.167",
    "Longitude": "91.7669",
    "RegionCode": "GUW",
    "State": "Assam",
    "SubRegionCode": "GUW",
    "VenueAddress": "5th Floor, Hub Mall, Bhangaghar, G. S. Road, Guwahati, Assam 781005, India",
    "VenueCode": "FUCG",
    "VenueName": "Galleria Cinema: HUB Mall, Guwahati"
  },
  "GAHC": {
    "AvailableFormats": "2D",
    "City": "Chennai",
    "Latitude": "13.2499",
    "Longitude": "80.1568",
    "RegionCode": "CHEN",
    "State": "Tamil Nadu",
    "SubRegionCode": "CHEN",
    "VenueAddress": "Sholavaram, Karanodai, Chennai, Tamil Nadu 600067, India",
    "VenueCode": "GAHC",
    "VenueName": "Gopalakrishna A/C 2K DOLBY 7.1-Karanodai(Redhills)"
  },
  "GAUT": {
    "AvailableFormats": "2D",
    "City": "Berhampur",
    "Latitude": "19.3128",
    "Longitude": "84.7861",
    "RegionCode": "BERP",
    "State": "Odisha",
    "SubRegionCode": "BERP",
    "VenueAddress": "Gandhi Nagar, Near Hanuman Temple, Berhampur, Odisha 760001, India",
    "VenueCode": "GAUT",
    "VenueName": "Gautam Cinema A/C Dolby Digital 2K: Berhampur"
  },
  "GCCH": {
    "AvailableFormats": "2D",
    "City": "Raigarh",
    "Latitude": "21.8949",
    "Longitude": "83.3958",
    "RegionCode": "RAIG",
    "State": "Chhattisgarh",
    "SubRegionCode": "RAIG",
    "VenueAddress": "Grand Mall, 4th Floor, Gouri Shankar Mandir Chowk, Raigarh, Chhattisgarh 496001, India",
    "VenueCode": "GCCH",
    "VenueName": "Grand Cinemas: Raigarh"
  },
  "GCGP": {
    "AvailableFormats": "2D|3D",
    "City": "Silchar",
    "Latitude": "24.8229",
    "Longitude": "92.8001",
    "RegionCode": "SIL",
    "State": "Assam",
    "SubRegionCode": "SIL",
    "VenueAddress": "Gold Digital Cinema, Goldighi Municipal Mall, Nazirpatty, Silchar, Assam 788001, India",
    "VenueCode": "GCGP",
    "VenueName": "Gold Cinema: Goldighi Municipal Mall, Silchar"
  },
  "GCMI": {
    "AvailableFormats": "2D",
    "City": "Mangaldoi",
    "Latitude": "26.4506",
    "Longitude": "92.0291",
    "RegionCode": "MANG",
    "State": "Assam",
    "SubRegionCode": "MANG",
    "VenueAddress": "Mangaldai Bhutiachang Road, No.1 Bezpara, Opposite Maa Bhandar, Mangaldoi, Assam 784125, India",
    "VenueCode": "GCMI",
    "VenueName": "Gold Cinema: Mangaldoi"
  },
  "GCSE": {
    "AvailableFormats": "2D",
    "City": "Hooghly",
    "Latitude": "22.7538",
    "Longitude": "88.3401",
    "RegionCode": "CHDD",
    "State": "West Bengal",
    "SubRegionCode": "CHDD",
    "VenueAddress": "180 N.S. Avenue, 3rd Floor Manasi Bazar, Near Bawarchi Biryani, Hooghly, West Bengal 712201, India",
    "VenueCode": "GCSE",
    "VenueName": "Goodwin Cineplex: Serampore"
  },
  "GDAW": {
    "AvailableFormats": "2D",
    "City": "Alwar",
    "Latitude": "27.5806",
    "Longitude": "76.6156",
    "RegionCode": "ALWR",
    "State": "Rajasthan",
    "SubRegionCode": "ALWR",
    "VenueAddress": "Near, Jail Circle, Cross Point Mall, Alwar, Rajasthan 301001, India",
    "VenueCode": "GDAW",
    "VenueName": "Gold Cinema: Alwar Crosspoint Mall"
  },
  "GDDR": {
    "AvailableFormats": "2D",
    "City": "Dausa",
    "Latitude": "26.9013",
    "Longitude": "76.34",
    "RegionCode": "DAUS",
    "State": "Rajasthan",
    "SubRegionCode": "DAUS",
    "VenueAddress": "Sunshine Complex, 1st Tower, Agra - Jaipur Road, Opposite P.G. College, Near Pinky Hotel, Dausa, Rajasthan 303303, India",
    "VenueCode": "GDDR",
    "VenueName": "Gold Cinema: Dausa"
  },
  "GEKR": {
    "AvailableFormats": "2D",
    "City": "Tumakuru (Tumkur)",
    "Latitude": "13.3375",
    "Longitude": "77.1039",
    "RegionCode": "TUMK",
    "State": "Karnataka",
    "SubRegionCode": "TUMK",
    "VenueAddress": "B.H. Road, CSI Layout, Near Shiva Agencies, Tumakuru (Tumkur), Karnataka 572101, India",
    "VenueCode": "GEKR",
    "VenueName": "Gayatri Theater 2K Digital A/C Dolby: Tumakuru"
  },
  "GGGZ": {
    "AvailableFormats": "2D",
    "City": "Jalore",
    "Latitude": "25.339",
    "Longitude": "72.6284",
    "RegionCode": "LALO",
    "State": "Rajasthan",
    "SubRegionCode": "LALO",
    "VenueAddress": "RSS Entertainments, Graveet Tower, Bhinmal by Pass Road, Jalore, Rajasthan 343001, India",
    "VenueCode": "GGGZ",
    "VenueName": "Glitz Cinemas: Jalore"
  },
  "GKDN": {
    "AvailableFormats": "2D",
    "City": "Kondamallepally",
    "Latitude": "16.7125",
    "Longitude": "78.9814",
    "RegionCode": "NALK",
    "State": "Telangana",
    "SubRegionCode": "NALK",
    "VenueAddress": "3rd Floor, Vishnu Shopping Mall, MLG Road, Near AMC, Kondamallepally, Telangana 508243, India",
    "VenueCode": "GKDN",
    "VenueName": "GK Cineplex Dolby Atmos: Kondamallepally"
  },
  "GMDH": {
    "AvailableFormats": "2D",
    "City": "Dharmapuri",
    "Latitude": "12.1229",
    "Longitude": "78.1593",
    "RegionCode": "DMPI",
    "State": "Tamil Nadu",
    "SubRegionCode": "DMPI",
    "VenueAddress": "Dharmapuri-Harur Road, Indhira Nagar, Dharmapuri, Tamil Nadu 636701, India",
    "VenueCode": "GMDH",
    "VenueName": "GM Theatre: Dharmapuri"
  },
  "GOST": {
    "AvailableFormats": "2D",
    "City": "Varadaiahpalem",
    "Latitude": "13.6011",
    "Longitude": "79.9331",
    "RegionCode": "VARA",
    "State": "Andhra Pradesh",
    "SubRegionCode": "VARA",
    "VenueAddress": "Tranku Road, Near APSRTC Bus Stand, Varadaiahpalem, Andhra Pradesh 517541, India",
    "VenueCode": "GOST",
    "VenueName": "Sri Gowrisankar Cinema`s A/C 4K Dolby 7.1 Surround"
  },
  "GPRH": {
    "AvailableFormats": "2D|3D",
    "City": "Hyderabad",
    "Latitude": "17.4993",
    "Longitude": "78.3907",
    "RegionCode": "HYD",
    "State": "Telangana",
    "SubRegionCode": "HYD",
    "VenueAddress": "Nizampet X Roads, Kukatpally, Hyderabad, Telangana 500072, India",
    "VenueCode": "GPRH",
    "VenueName": "GPR Multiplex: Nizampet, Hyderabad"
  },
  "GSEE": {
    "AvailableFormats": "",
    "City": "Baikunthpur",
    "Latitude": "23.2686",
    "Longitude": "82.5548",
    "RegionCode": "BKTH",
    "State": "Chhattisgarh",
    "SubRegionCode": "BKTH",
    "VenueAddress": "Mission School Road, Harratola, Near Hotel Shree Ganga, Baikunthpur, Chhattisgarh 497335, India",
    "VenueCode": "GSEE",
    "VenueName": "Ganga Shree Cineplex: Baikunthpur"
  },
  "GTDN": {
    "AvailableFormats": "2D",
    "City": "Davanagere",
    "Latitude": "14.4664",
    "Longitude": "75.9254",
    "RegionCode": "DAVA",
    "State": "Karnataka",
    "SubRegionCode": "DAVA",
    "VenueAddress": "KB Extension, Near Lingeshwara Temple, Davanagere, Karnataka 577001, India",
    "VenueCode": "GTDN",
    "VenueName": "Geetanjali Theatre: Davangere"
  },
  "GTTT": {
    "AvailableFormats": "2D",
    "City": "Ooty",
    "Latitude": "11.406",
    "Longitude": "76.701",
    "RegionCode": "OOTY",
    "State": "Tamil Nadu",
    "SubRegionCode": "OOTY",
    "VenueAddress": "Ganapathy Theatre Road, Upper Bazar, Ooty, Tamil Nadu 643001, India",
    "VenueCode": "GTTT",
    "VenueName": "Ganapathy Theatre: Ooty"
  },
  "GXYN": {
    "AvailableFormats": "2D",
    "City": "Nawapara",
    "Latitude": "20.9732",
    "Longitude": "81.8549",
    "RegionCode": "NAWA",
    "State": "Chhattisgarh",
    "SubRegionCode": "NAWA",
    "VenueAddress": "Nawapara Nagar, Abhanpur-Rajim Road, Near HP Petrol Pump, Nawapara, Chhattisgarh 493881, India",
    "VenueCode": "GXYN",
    "VenueName": "Galaxy Cinema: Nawapara"
  },
  "HCAD": {
    "AvailableFormats": "2D",
    "City": "Vadodara",
    "Latitude": "22.2669",
    "Longitude": "73.2225",
    "RegionCode": "VAD",
    "State": "Gujarat",
    "SubRegionCode": "VAD",
    "VenueAddress": "4th Floor, Siddharth Magnum Plus, Tarsali Danteshwar Ring Road, Beside Bansal Mall, Tarsali, Vadodara, Gujarat 390009, India",
    "VenueCode": "HCAD",
    "VenueName": "Havelock Cineflix: Tarsali, Vadodara"
  },
  "HHCG": {
    "AvailableFormats": "2D",
    "City": "Guntur",
    "Latitude": "16.3097",
    "Longitude": "80.4342",
    "RegionCode": "GUNT",
    "State": "Andhra Pradesh",
    "SubRegionCode": "GUNT",
    "VenueAddress": "Opp LVR Club, Road Lakshmipuram, Koritepadu Road, Guntur, Andhra Pradesh 522007, India",
    "VenueCode": "HHCG",
    "VenueName": "Harihar Cinemas: Guntur"
  },
  "HPVR": {
    "AvailableFormats": "2D|3D",
    "City": "Thane",
    "Latitude": "19.3",
    "Longitude": "73.0649",
    "RegionCode": "MUMBAI",
    "State": "Maharashtra",
    "SubRegionCode": "THNE",
    "VenueAddress": "Kaap Islanpura, Agra Road, Gokul Nagar, Near Bhiwandi Court, Bhiwandi, Thane, Maharashtra 421302, India",
    "VenueCode": "HPVR",
    "VenueName": "PVR: Haseen, Bhiwandi"
  },
  "IAJS": {
    "AvailableFormats": "2D|3D",
    "City": "Gurugram (Gurgaon)",
    "Latitude": "28.392",
    "Longitude": "77.059",
    "RegionCode": "NCR",
    "State": "NCR",
    "SubRegionCode": "GURG",
    "VenueAddress": "INOX Leisure Limited, 3rd Floor, AIPL Joystreet Mall, Sector-66, Gurugram (Gurgaon), NCR 122018, India",
    "VenueCode": "IAJS",
    "VenueName": "INOX: AIPL Joy Street, Gurgaon"
  },
  "IESA": {
    "AvailableFormats": "2D",
    "City": "Satna",
    "Latitude": "24.5749",
    "Longitude": "80.8303",
    "RegionCode": "SATN",
    "State": "Madhya Pradesh",
    "SubRegionCode": "SATN",
    "VenueAddress": "Venus Treasure, 3rd Floor, Near Civil Line over bridge, Behind Circuit House, Satna, Madhya Pradesh 485001, India",
    "VenueCode": "IESA",
    "VenueName": "Imusica Entertainments: Satna"
  },
  "IMCB": {
    "AvailableFormats": "2D",
    "City": "Bengaluru",
    "Latitude": "12.8415",
    "Longitude": "77.6767",
    "RegionCode": "BANG",
    "State": "Karnataka",
    "SubRegionCode": "BANG",
    "VenueAddress": "M5 Ecity Mall, 3rd Floor, Plot No. 1, Veerasandra Industrial Area, Hosur Road, Next to Audi Showroom. Opposite - Electronic City Flyover, Phase II, Electronic City, Bengaluru, Karnataka 560100, India",
    "VenueCode": "IMCB",
    "VenueName": "INOX: M5 Ecity, Bengaluru"
  },
  "IMPM": {
    "AvailableFormats": "2D",
    "City": "Trivandrum",
    "Latitude": "8.32379",
    "Longitude": "77.1803",
    "RegionCode": "VKAL",
    "State": "Kerala",
    "SubRegionCode": "VKAL",
    "VenueAddress": "Pandathalamood, Aallumoodu, Kaliyikkavila, Trivandrum, Kerala 629194, India",
    "VenueCode": "IMPM",
    "VenueName": "IMP Big Screen 2K 3D Dolby Atmos"
  },
  "INBB": {
    "AvailableFormats": "2D",
    "City": "Bhubaneswar",
    "Latitude": "20.2868",
    "Longitude": "85.8474",
    "RegionCode": "BHUB",
    "State": "Odisha",
    "SubRegionCode": "BHUB",
    "VenueAddress": "Market Street, Sahid Nagar, Bhubaneswar, Odisha 751007, India",
    "VenueCode": "INBB",
    "VenueName": "INOX: BMC Bhawani Mall"
  },
  "INBW": {
    "AvailableFormats": "2D|3D",
    "City": "Burdwan",
    "Latitude": "23.2467",
    "Longitude": "87.8653",
    "RegionCode": "BURD",
    "State": "West Bengal",
    "SubRegionCode": "BURD",
    "VenueAddress": "Burdwan Arcade, 4th Floor, 60, B. B. Ghosh Road, Next to Big Bazaar, Burdwan, West Bengal 713101, India",
    "VenueCode": "INBW",
    "VenueName": "INOX: Burdwan Arcade, B B Ghosh Road"
  },
  "INFR": {
    "AvailableFormats": "2D|3D",
    "City": "Faridabad",
    "Latitude": "28.4608",
    "Longitude": "77.3068",
    "RegionCode": "NCR",
    "State": "NCR",
    "SubRegionCode": "FARI",
    "VenueAddress": "3rd Floor, Crown Interiorz Mall, Delhi Mathura Road, Subash Nagar, Faridabad, NCR 121003, India",
    "VenueCode": "INFR",
    "VenueName": "INOX: Crown Interiorz Mall, Delhi Mathura Road"
  },
  "INJV": {
    "AvailableFormats": "3D|2D",
    "City": "Jaipur",
    "Latitude": "26.9128",
    "Longitude": "75.7435",
    "RegionCode": "JAIP",
    "State": "Rajasthan",
    "SubRegionCode": "JAIP",
    "VenueAddress": "Vaibhav Complex, C-1 C Block, Amrapali Circle, Vaishali Nagar, Near Vaishali Hospital, Jaipur, Rajasthan 302021, India",
    "VenueCode": "INJV",
    "VenueName": "INOX: Vaibhav, Amarapali Circle"
  },
  "INMT": {
    "AvailableFormats": "2D",
    "City": "Kakinada",
    "Latitude": "16.9979",
    "Longitude": "82.2434",
    "RegionCode": "KAKI",
    "State": "Andhra Pradesh",
    "SubRegionCode": "KAKI",
    "VenueAddress": "3rd Floor, 82-EAST, SRMT Mall, Lalitha Nagar, Ramanayyapeta, Pithapuram Road, Sarpavaram Junction, Kakinada, Andhra Pradesh 533005, India",
    "VenueCode": "INMT",
    "VenueName": "INOX: SRMT Mall, Kakinada"
  },
  "INPN": {
    "AvailableFormats": "2D|3D",
    "City": "Pune",
    "Latitude": "18.527",
    "Longitude": "73.8777",
    "RegionCode": "PUNE",
    "State": "Maharashtra",
    "SubRegionCode": "PUNE",
    "VenueAddress": "Plot No.D, Bund Garden Road, Agarkar Nagar, Near Central Park Hotel, Pune, Maharashtra 411001, India",
    "VenueCode": "INPN",
    "VenueName": "INOX: Bund Garden Road"
  },
  "INRJ": {
    "AvailableFormats": "2D|3D",
    "City": "Jalandhar",
    "Latitude": "31.307",
    "Longitude": "75.5926",
    "RegionCode": "JALA",
    "State": "Punjab",
    "SubRegionCode": "JALA",
    "VenueAddress": "INOX Leisure Ltd., 3rd Floor, Reliance Mall, Chotti Baradari Part-2, Puda, Jalandhar, Punjab 144001, India",
    "VenueCode": "INRJ",
    "VenueName": "INOX: Reliance Mall, Jalandhar"
  },
  "INSL": {
    "AvailableFormats": "2D|3D",
    "City": "Kolkata",
    "Latitude": "22.589",
    "Longitude": "88.4082",
    "RegionCode": "BARR",
    "State": "West Bengal",
    "SubRegionCode": "BARR",
    "VenueAddress": "City Centre, DC Block I, Sector-1, City Center Mall, Kolkata, West Bengal 700020, India",
    "VenueCode": "INSL",
    "VenueName": "INOX: City Center, Salt Lake"
  },
  "INVB": {
    "AvailableFormats": "2D|3D",
    "City": "Vizag (Visakhapatnam)",
    "Latitude": "17.7111",
    "Longitude": "83.3167",
    "RegionCode": "SABB",
    "State": "Andhra Pradesh",
    "SubRegionCode": "SABB",
    "VenueAddress": "Survey No.120 and 121, Varun Beach, 3rd Floor, R K Beach Road, Maharani Pet, Vizag, Andhra Pradesh 530003, India",
    "VenueCode": "INVB",
    "VenueName": "INOX: Varun Beach, Beach Road"
  },
  "INWM": {
    "AvailableFormats": "2D|3D",
    "City": "Gurugram (Gurgaon)",
    "Latitude": "28.3976",
    "Longitude": "77.0721",
    "RegionCode": "NCR",
    "State": "NCR",
    "SubRegionCode": "GURG",
    "VenueAddress": "INOX Leisure Ltd, Ground Floor, Tower 5, WorldMark, Maidawas Road, Sec-65, Gurugram (Gurgaon), NCR 122001, India",
    "VenueCode": "INWM",
    "VenueName": "INOX: World Mark, Gurugram"
  },
  "IOSE": {
    "AvailableFormats": "2D",
    "City": "Vellore",
    "Latitude": "12.9679",
    "Longitude": "79.1496",
    "RegionCode": "RANI",
    "State": "Tamil Nadu",
    "SubRegionCode": "RANI",
    "VenueAddress": "2nd Floor, Selvam Square, Selvam Nagar, Thiruvalam Road, Katpadi, Vellore, Tamil Nadu 632007, India",
    "VenueCode": "IOSE",
    "VenueName": "INOX: Selvam Square, Vellore"
  },
  "IPRS": {
    "AvailableFormats": "2D",
    "City": "Hyderabad",
    "Latitude": "17.4423",
    "Longitude": "78.3625",
    "RegionCode": "HYD",
    "State": "Telangana",
    "SubRegionCode": "HYD",
    "VenueAddress": "PVR INOX Limited, 3rd Floor, Prism Mall, Near Gachibowli Cross Roads, Hyderabad, Telangana 500032, India",
    "VenueCode": "IPRS",
    "VenueName": "INOX: Prism Mall, Hyderabad"
  },
  "ISMT": {
    "AvailableFormats": "2D|3D",
    "City": "Tumakuru (Tumkur)",
    "Latitude": "13.3582",
    "Longitude": "77.1031",
    "RegionCode": "TUMK",
    "State": "Karnataka",
    "SubRegionCode": "TUMK",
    "VenueAddress": "INOX Leisure Ltd, 2nd Floor, S Mall, Sira Road, Tumakuru (Tumkur), Karnataka 572106, India",
    "VenueCode": "ISMT",
    "VenueName": "INOX: S Mall, Tumakuru"
  },
  "IZOP": {
    "AvailableFormats": "IMAX 2D",
    "City": "Delhi",
    "Latitude": "28.5472",
    "Longitude": "77.2519",
    "RegionCode": "NCR",
    "State": "NCR",
    "SubRegionCode": "DELHI",
    "VenueAddress": "1st Floor, Paras Cinema Building, Nehru Place, Delhi, NCR 110019, India",
    "VenueCode": "IZOP",
    "VenueName": "INOX: COCA-COLA IMAX Paras, Nehru Place, Delhi"
  },
  "JBTT": {
    "AvailableFormats": "2D",
    "City": "Tumakuru (Tumkur)",
    "Latitude": "13.345",
    "Longitude": "77.0969",
    "RegionCode": "TUMK",
    "State": "Karnataka",
    "SubRegionCode": "TUMK",
    "VenueAddress": "Mandipet Main Road, Opposite Church Road, New Mandipet, Tumakuru (Tumkur), Karnataka 572101, India",
    "VenueCode": "JBTT",
    "VenueName": "Jai Bharath Theater 4K Atmos: Tumkur"
  },
  "JCNM": {
    "AvailableFormats": "2D",
    "City": "Dindigul",
    "Latitude": "10.288",
    "Longitude": "77.9201",
    "RegionCode": "DIND",
    "State": "Tamil Nadu",
    "SubRegionCode": "DIND",
    "VenueAddress": "Balasubramanian Street, Keelakottai, Chinnalapatti, Dindigul, Tamil Nadu 624301, India",
    "VenueCode": "JCNM",
    "VenueName": "J Cinemas A/C 7.1 Laser Projector: Chinnalapatti"
  },
  "JGDM": {
    "AvailableFormats": "",
    "City": "Vizag",
    "Latitude": "17.7122",
    "Longitude": "83.3022",
    "RegionCode": "VIZA",
    "State": "Andhra Pradesh",
    "SubRegionCode": "VIZA",
    "VenueAddress": "Chitralaya Road, Jagadamba Junction, Near South Indian Bank ATM, Vizag, Andhra Pradesh 530020, India",
    "VenueCode": "JGDM",
    "VenueName": "Jagadamba Complex A/C 4K Dolby Atmos : Vizag"
  },
  "JKCM": {
    "AvailableFormats": "2D",
    "City": "Irinjalakuda",
    "Latitude": "10.3651",
    "Longitude": "76.1944",
    "RegionCode": "IRNK",
    "State": "Kerala",
    "SubRegionCode": "IRNK",
    "VenueAddress": "Kizhuthani, Irinjalakuda Kattoor Road, Near JK Theatres, Irinjalakuda, Kerala 680125, India",
    "VenueCode": "JKCM",
    "VenueName": "JK Cinemas 4K Dolby Atmos: Kizhuthani"
  },
  "JMJU": {
    "AvailableFormats": "2D",
    "City": "Jammu",
    "Latitude": "32.6993",
    "Longitude": "74.8583",
    "RegionCode": "JAMM",
    "State": "Jammu and Kashmir",
    "SubRegionCode": "JAMM",
    "VenueAddress": "Gandhi Nagar, Apsara Road, Jammu, Jammu and Kashmir 180004, India",
    "VenueCode": "JMJU",
    "VenueName": "Apsra Hospitality & Entertainment(Apsra Multiplex)"
  },
  "JRRM": {
    "AvailableFormats": "2D",
    "City": "Rupnagar",
    "Latitude": "30.9548",
    "Longitude": "76.5313",
    "RegionCode": "RUPN",
    "State": "Punjab",
    "SubRegionCode": "RUPN",
    "VenueAddress": "Chandigarh Road, Magror, Rupnagar, Punjab 140001, India",
    "VenueCode": "JRRM",
    "VenueName": "JR Ohri Cinemas: Ropar"
  },
  "JTGN": {
    "AvailableFormats": "2D",
    "City": "Amalapuram",
    "Latitude": "16.5786",
    "Longitude": "81.9984",
    "RegionCode": "AMAP",
    "State": "Andhra Pradesh",
    "SubRegionCode": "AMAP",
    "VenueAddress": "Amalapuram - Gannavaram Road, Next To Zeta Hotels, Near APSRTC Bus Stand, Amalapuram, Andhra Pradesh 533201, India",
    "VenueCode": "JTGN",
    "VenueName": "Sri Ganapathi Picture Palace: Amalapuram"
  },
  "JTNM": {
    "AvailableFormats": "2D",
    "City": "Martur",
    "Latitude": "15.9869",
    "Longitude": "80.1031",
    "RegionCode": "MART",
    "State": "Andhra Pradesh",
    "SubRegionCode": "MART",
    "VenueAddress": "Konidena Road, Near Andhra Pragati Grameena Bank, Martur, Andhra Pradesh 523301, India",
    "VenueCode": "JTNM",
    "VenueName": "NR Cinemas A/C Dts: Martur"
  },
  "JTSC": {
    "AvailableFormats": "2D",
    "City": "Vijayawada",
    "Latitude": "16.5132",
    "Longitude": "80.6263",
    "RegionCode": "VIJA",
    "State": "Andhra Pradesh",
    "SubRegionCode": "VIJA",
    "VenueAddress": "Swarnalok Complex, Eluru Rd, Governorpet, Vijayawada, Andhra Pradesh 520002, India",
    "VenueCode": "JTSC",
    "VenueName": "Swarna Multiplex: Vijayawada"
  },
  "JTYS": {
    "AvailableFormats": "2D",
    "City": "Vizag (Visakhapatnam)",
    "Latitude": "17.7255",
    "Longitude": "83.3025",
    "RegionCode": "SABB",
    "State": "Andhra Pradesh",
    "SubRegionCode": "SABB",
    "VenueAddress": "Station Road, Dondaparthy, Dwaraka Nagar, Vizag, Andhra Pradesh 530016, India",
    "VenueCode": "JTYS",
    "VenueName": "Sangam Theatre 4K Dolby Atmos: Vizag"
  },
  "JYKL": {
    "AvailableFormats": "3D|2D",
    "City": "Kolkata",
    "Latitude": "22.7609",
    "Longitude": "88.3668",
    "RegionCode": "KOLK",
    "State": "West Bengal",
    "SubRegionCode": "KOLK",
    "VenueAddress": "2, B.T Road, Barrackpore Chiriamore, North 24 Parganas, Near Samanta Automobiles and SBI Railway Station Branch, Kolkata, West Bengal 700120, India",
    "VenueCode": "JYKL",
    "VenueName": "Jayanti Cinema: Barrackpore"
  },
  "KAMP": {
    "AvailableFormats": "2D|3D",
    "City": "Jabalpur",
    "Latitude": "23.1652",
    "Longitude": "79.935",
    "RegionCode": "JABL",
    "State": "Madhya Pradesh",
    "SubRegionCode": "JABL",
    "VenueAddress": "4th floor, KA Mall, Jyoti talkies, Naudra Bridge, Jabalpur, Madhya Pradesh 482002, India",
    "VenueCode": "KAMP",
    "VenueName": "PVR: KA Mall, Jabalpur"
  },
  "KBPM": {
    "AvailableFormats": "2D",
    "City": "Pamuru",
    "Latitude": "15.0961",
    "Longitude": "79.4099",
    "RegionCode": "PMMR",
    "State": "Andhra Pradesh",
    "SubRegionCode": "PMMR",
    "VenueAddress": "Chitralaya Street, Near SBI, Pamuru, Andhra Pradesh 523108, India",
    "VenueCode": "KBPM",
    "VenueName": "KB Srinivasa A/C 2K Dolby 7.1: Pamuru"
  },
  "KCKN": {
    "AvailableFormats": "2D",
    "City": "Kondagaon",
    "Latitude": "19.5952",
    "Longitude": "81.6674",
    "RegionCode": "KNGN",
    "State": "Chhattisgarh",
    "SubRegionCode": "KNGN",
    "VenueAddress": "Bazar para, Near Sahu Communication, Kondagaon, Chhattisgarh 494226, India",
    "VenueCode": "KCKN",
    "VenueName": "Kishore Cineplex: Kondagaon"
  },
  "KCTK": {
    "AvailableFormats": "2D",
    "City": "Kochi",
    "Latitude": "10.1269",
    "Longitude": "76.199",
    "RegionCode": "PALY",
    "State": "Kerala",
    "SubRegionCode": "PALY",
    "VenueAddress": "Ayyampilly, Pallippuram Rd,Kochi, Near Rama Varma Union High School, Kochi, Kerala 682501, India",
    "VenueCode": "KCTK",
    "VenueName": "K Cinemas 4K Dolby Atmos Tripplebeam 3D: Cherai"
  },
  "KHMJ": {
    "AvailableFormats": "2D",
    "City": "Jalna",
    "Latitude": "19.8322",
    "Longitude": "75.9121",
    "RegionCode": "JALN",
    "State": "Maharashtra",
    "SubRegionCode": "JALN",
    "VenueAddress": "Krishna Mall, Krishna Vihar, Mantha Ambad Bypass Ring Road, Jalna, Maharashtra 431203, India",
    "VenueCode": "KHMJ",
    "VenueName": "Krishna Multiplex: Jalna"
  },
  "KKMT": {
    "AvailableFormats": "2D",
    "City": "Navi Mumbai",
    "Latitude": "19.0124",
    "Longitude": "73.0897",
    "RegionCode": "MUMBAI",
    "State": "Maharashtra",
    "SubRegionCode": "THAN",
    "VenueAddress": "Shop No.01, Bhoomi Harmony, Plot No. 82, Sec-18, Kamothe, Panvel, Navi Mumbai, Maharashtra 410209, India",
    "VenueCode": "KKMT",
    "VenueName": "K.K. Cinema: Kamothe"
  },
  "KLRT": {
    "AvailableFormats": "2D",
    "City": "Palakkad",
    "Latitude": "10.7001",
    "Longitude": "76.7378",
    "RegionCode": "PLKK",
    "State": "Kerala",
    "SubRegionCode": "PLKK",
    "VenueAddress": "State Highway 25, Anikode, Chittur, Thathamangalam, Near Muthoottu Mini Financiers Ltd, Palakkad, Kerala 678101, India",
    "VenueCode": "KLRT",
    "VenueName": "Kairali Sree Theatre: Chittur"
  },
  "KNOX": {
    "AvailableFormats": "2D",
    "City": "Keonjhar",
    "Latitude": "21.6354",
    "Longitude": "85.616",
    "RegionCode": "KNJH",
    "State": "Odisha",
    "SubRegionCode": "KNJH",
    "VenueAddress": "Kashvi Mall, Mining Road, Opposite Keonjhar Law College, Keonjhar, Odisha 758001, India",
    "VenueCode": "KNOX",
    "VenueName": "KNOX Cinema: Keonjhar"
  },
  "KRBC": {
    "AvailableFormats": "2D|3D",
    "City": "Bahadurgarh",
    "Latitude": "28.6779",
    "Longitude": "76.8975",
    "RegionCode": "BAHD",
    "State": "Haryana",
    "SubRegionCode": "BAHD",
    "VenueAddress": "2nd Floor, Minervas West Side Mall, Sector 14, Jhajjar Road, Jhajjar, Bahadurgarh, Haryana 124507, India",
    "VenueCode": "KRBC",
    "VenueName": "KRB Cineplex: Bahadurgarh"
  },
  "KRRC": {
    "AvailableFormats": "2D",
    "City": "Palakonda",
    "Latitude": "18.603",
    "Longitude": "83.7585",
    "RegionCode": "PALK",
    "State": "Andhra Pradesh",
    "SubRegionCode": "PALK",
    "VenueAddress": "Government Hospital Road, Near Ramakalamandir Sachivalayam, Palakonda, Andhra Pradesh 532440, India",
    "VenueCode": "KRRC",
    "VenueName": "Sri Rama and Sai Kalamandir A/c DTS: Palakonda"
  },
  "KSNP": {
    "AvailableFormats": "2D",
    "City": "Kochi",
    "Latitude": "10.1449",
    "Longitude": "76.2355",
    "RegionCode": "PALY",
    "State": "Kerala",
    "SubRegionCode": "PALY",
    "VenueAddress": "North Paravur, Pullomkulam, Near Dr Ambedkar Park, Kochi, Kerala 683513, India",
    "VenueCode": "KSNP",
    "VenueName": "Kairali Sree Theater: North Parvur"
  },
  "KTBH": {
    "AvailableFormats": "2D",
    "City": "Bhubaneswar",
    "Latitude": "20.2752",
    "Longitude": "85.8349",
    "RegionCode": "JATN",
    "State": "Odisha",
    "SubRegionCode": "JATN",
    "VenueAddress": "98, Unit-3, Sachivalaya Marg, OPTCL Colony, Anand Bazar, Kharbela Nagar, Bhubaneswar, Odisha 751001, India",
    "VenueCode": "KTBH",
    "VenueName": "Keshari Talkies (BARCO 4K LASER DOLBY ATMOS)"
  },
  "KTMV": {
    "AvailableFormats": "2D",
    "City": "Mumbai",
    "Latitude": "19.3785",
    "Longitude": "72.8287",
    "RegionCode": "MUMBAI",
    "State": "Maharashtra",
    "SubRegionCode": "MWEST",
    "VenueAddress": "Navghar Road, Anand Nagar, Opposite.West Panchal Nagar Walkway, Vasai West, Mumbai, Maharashtra 401202, India",
    "VenueCode": "KTMV",
    "VenueName": "KT Vision Cinema: Vasai (Screens)"
  },
  "LALC": {
    "AvailableFormats": "2D",
    "City": "Jagraon",
    "Latitude": "30.8111",
    "Longitude": "75.4725",
    "RegionCode": "JGRO",
    "State": "Punjab",
    "SubRegionCode": "JGRO",
    "VenueAddress": "Moga Road, Kothe Fateh Din De, Jagraon, Punjab 142026, India",
    "VenueCode": "LALC",
    "VenueName": "Lal Palace Cineplex: Jagraon"
  },
  "LCNK": {
    "AvailableFormats": "2D",
    "City": "Kalluru",
    "Latitude": "17.2008",
    "Longitude": "80.55",
    "RegionCode": "KALR",
    "State": "Telangana",
    "SubRegionCode": "KALR",
    "VenueAddress": "Khammam - Sathupally Road, Near Church of Christ, Kalluru, Telangana 507209, India",
    "VenueCode": "LCNK",
    "VenueName": "Lakshmi Cinesquare: Kallur"
  },
  "LEPV": {
    "AvailableFormats": "2D",
    "City": "Mumbai",
    "Latitude": "19.0562",
    "Longitude": "72.8339",
    "RegionCode": "MUMBAI",
    "State": "Maharashtra",
    "SubRegionCode": "MWEST",
    "VenueAddress": "Corner of Hill Road and Water Field Road, Bandra West, Mumbai, Maharashtra 400050, India",
    "VenueCode": "LEPV",
    "VenueName": "PVR: Le Reve-Globus Mall, Bandra West, Mumbai"
  },
  "LKCT": {
    "AvailableFormats": "2D",
    "City": "Tanuku",
    "Latitude": "16.7493",
    "Longitude": "81.6831",
    "RegionCode": "TADP",
    "State": "Andhra Pradesh",
    "SubRegionCode": "TADP",
    "VenueAddress": "Lakshmi Complex, Velpur Road,Venkiatrayapuram, Near Kadharawara Sweet Shop, Tanuku, Andhra Pradesh 534211, India",
    "VenueCode": "LKCT",
    "VenueName": "Lakshmi Complex: Tanuku"
  },
  "LLCH": {
    "AvailableFormats": "2D",
    "City": "Haldwani",
    "Latitude": "29.2121",
    "Longitude": "79.5275",
    "RegionCode": "HALD",
    "State": "Uttarakhand",
    "SubRegionCode": "HALD",
    "VenueAddress": "Sindhi Chaurah, Rampur Road, Nainital, Haldwani, Uttarakhand 263139, India",
    "VenueCode": "LLCH",
    "VenueName": "Laxmi Cineplex: Haldwani"
  },
  "LPCH": {
    "AvailableFormats": "2D|3D",
    "City": "Hubballi (Hubli)",
    "Latitude": "15.3485",
    "Longitude": "75.1443",
    "RegionCode": "HUBL",
    "State": "Karnataka",
    "SubRegionCode": "HUBL",
    "VenueAddress": "3rd Floor, Laxmi Mall, Coen Road, Shree Shakti Road, J C Nagar, New Hubli, Hubballi (Hubli), Karnataka 580020, India",
    "VenueCode": "LPCH",
    "VenueName": "Laxmi Citypride Multiplex: Laxmi Mall, Hubli"
  },
  "LTTR": {
    "AvailableFormats": "2D",
    "City": "Tiptur",
    "Latitude": "13.254",
    "Longitude": "76.4778",
    "RegionCode": "TIPT",
    "State": "Karnataka",
    "SubRegionCode": "TIPT",
    "VenueAddress": "Keragodi Road, Chamundeshwari, Tiptur, Karnataka 572201, India",
    "VenueCode": "LTTR",
    "VenueName": "Lakshmi Talkies: Tiptur"
  },
  "M2PP": {
    "AvailableFormats": "2D",
    "City": "Delhi",
    "Latitude": "28.6895",
    "Longitude": "77.1334",
    "RegionCode": "NCR",
    "State": "NCR",
    "SubRegionCode": "DELHI",
    "VenueAddress": "4 Community Centre, Road No. 44, Opposite Punjab National Bank, Delhi, NCR 110088, India",
    "VenueCode": "M2PP",
    "VenueName": "M2K: Pitampura"
  },
  "MACK": {
    "AvailableFormats": "2D",
    "City": "Kasaragod",
    "Latitude": "12.5063",
    "Longitude": "74.99",
    "RegionCode": "KASA",
    "State": "Kerala",
    "SubRegionCode": "KASA",
    "VenueAddress": "AT Road, Dwaraka Nagar, Kasaragod, Near Kerala State Electricity Board, Kasaragod, Kerala 671121, India",
    "VenueCode": "MACK",
    "VenueName": "Moviemax Circle: Kasaragod"
  },
  "MAHB": {
    "AvailableFormats": "2D",
    "City": "Bhadrak",
    "Latitude": "21.0683",
    "Longitude": "86.466",
    "RegionCode": "BHAD",
    "State": "Odisha",
    "SubRegionCode": "BHAD",
    "VenueAddress": "State Highway 53, Near Randia Children Park, Behind Tarini Temple, Bhadrak, Odisha 756113, India",
    "VenueCode": "MAHB",
    "VenueName": "Madhab Cinema Hall: Bhadrak"
  },
  "MAPM": {
    "AvailableFormats": "2D|3D",
    "City": "Bhopal",
    "Latitude": "23.3045",
    "Longitude": "77.4219",
    "RegionCode": "BHOP",
    "State": "Madhya Pradesh",
    "SubRegionCode": "BHOP",
    "VenueAddress": "1st Floor, Peoples Mall, Peoples Campus, Bhanpur, Bhopal, Madhya Pradesh 462037, India",
    "VenueCode": "MAPM",
    "VenueName": "Mukta A2 Cinemas: Peoples Mall, Bhopal"
  },
  "MAXX": {
    "AvailableFormats": "2D",
    "City": "Sonipat",
    "Latitude": "29.004",
    "Longitude": "77.0332",
    "RegionCode": "RAIH",
    "State": "Haryana",
    "SubRegionCode": "RAIH",
    "VenueAddress": "3rd Floor MG Mall, Sector 14, Sonipat, Haryana 131001, India",
    "VenueCode": "MAXX",
    "VenueName": "Maxx Cinema: Sonipat"
  },
  "MBSJ": {
    "AvailableFormats": "2D",
    "City": "Vizag (Visakhapatnam)",
    "Latitude": "17.7266",
    "Longitude": "83.2994",
    "RegionCode": "VIZA",
    "State": "Andhra Pradesh",
    "SubRegionCode": "VIZA",
    "VenueAddress": "Bupathi Surya Central Mall, 5th Floor, 43-29-53 Dondaparthy, Vizag (Visakhapatnam), Andhra Pradesh 530016, India",
    "VenueCode": "MBSJ",
    "VenueName": "Miraj Cinemas: Bupathi Surya Central, Dondaparthy"
  },
  "MCCD": {
    "AvailableFormats": "2D|3D",
    "City": "Jamshedpur",
    "Latitude": "22.7953",
    "Longitude": "86.2244",
    "RegionCode": "JMDP",
    "State": "Jharkhand",
    "SubRegionCode": "JMDP",
    "VenueAddress": "Chandra Pacific Mall, 5th Floor, Katha No. 28, Plot no. 2911, Besides Akashdeep Plaza, Golmuri, East Singhbhum, Jamshedpur, Jharkhand 831003, India",
    "VenueCode": "MCCD",
    "VenueName": "Miraj Cinemas: Golmuri, Chandra Pacific Mall"
  },
  "MCFD": {
    "AvailableFormats": "2D",
    "City": "Thalassery",
    "Latitude": "11.7452",
    "Longitude": "75.4955",
    "RegionCode": "THAY",
    "State": "Kerala",
    "SubRegionCode": "THAY",
    "VenueAddress": "Jubilee Road, Pilakool, Thalassery, Kerala 670101, India",
    "VenueCode": "MCFD",
    "VenueName": "Magic Frames Downtown Mall: Thalassery"
  },
  "MCJH": {
    "AvailableFormats": "",
    "City": "Junagarh",
    "Latitude": "19.862988",
    "Longitude": "82.943504",
    "RegionCode": "JUNA",
    "State": "Odisha",
    "SubRegionCode": "JUNA",
    "VenueAddress": "Next to Monarch Lodge, Bhatrajore Right Canal, Junagarh, Odisha 766014, India",
    "VenueCode": "MCJH",
    "VenueName": "Monarch Cinema: Junagarh, Odisha"
  },
  "MCMH": {
    "AvailableFormats": "2D",
    "City": "Hardoi",
    "Latitude": "27.4032",
    "Longitude": "80.1376",
    "RegionCode": "HRDI",
    "State": "Uttar Pradesh",
    "SubRegionCode": "HRDI",
    "VenueAddress": "1, Canal Road, Pragati Nagar, Asha Nagar, Hardoi, Uttar Pradesh 241001, India",
    "VenueCode": "MCMH",
    "VenueName": "Meera Chitra Mandir: Hardoi"
  },
  "MCRC": {
    "AvailableFormats": "2D|3D",
    "City": "Mumbai",
    "Latitude": "18.9543",
    "Longitude": "72.8166",
    "RegionCode": "MUMBAI",
    "State": "Maharashtra",
    "SubRegionCode": "MCENT",
    "VenueAddress": "5th Floor, Jewel Building, 23-27 New Queens Road, Opera House, Girgaon, Mumbai, Maharashtra 400004, India",
    "VenueCode": "MCRC",
    "VenueName": "Roxy Mukta A2 Cinemas: Charni Road"
  },
  "MCSS": {
    "AvailableFormats": "",
    "City": "Hyderabad",
    "Latitude": "17.3678",
    "Longitude": "78.5363",
    "RegionCode": "HYD",
    "State": "Telangana",
    "SubRegionCode": "HYD",
    "VenueAddress": "Opposite Kothapet Fruit Market, Beside Reddy Bar and Restaurant, Kothapet Near Induss Hospital, Hyderabad, Telangana 500036, India",
    "VenueCode": "MCSS",
    "VenueName": "Miraj Cinemas: Shalini Shivani, Kothapet"
  },
  "MCVM": {
    "AvailableFormats": "",
    "City": "Delhi",
    "Latitude": "28.6123",
    "Longitude": "77.3111",
    "RegionCode": "NCR",
    "State": "NCR",
    "SubRegionCode": "DELHI",
    "VenueAddress": "Chand Cinema Building, Trilokpuri, Mayur Vihar Phase 1, Near Sanjay Lake Trilokpuri Metro Station, New Delhi, Delhi, NCR 110091, India",
    "VenueCode": "MCVM",
    "VenueName": "Miraj Cinemas: Chand, Mayur Vihar Phase 1"
  },
  "MDKI": {
    "AvailableFormats": "2D",
    "City": "Bengaluru",
    "Latitude": "12.9157",
    "Longitude": "77.5632",
    "RegionCode": "HOKT",
    "State": "Karnataka",
    "SubRegionCode": "HOKT",
    "VenueAddress": "Subramanyapura Main Road, Padmanabhanagar, Near Kadirenahalli Outer Ring Road Junction, Behind The Bangalore City Co-operative Bank Ltd (Padmanabhanagar Branch), 6th Cross, Banashankari 2nd Stage, Ben",
    "VenueCode": "MDKI",
    "VenueName": "Mahadeshwara Cinema 4K Dolby ATMOS AC Banashankari"
  },
  "MEMR": {
    "AvailableFormats": "2D",
    "City": "Muzaffarnagar",
    "Latitude": "29.4865",
    "Longitude": "77.6966",
    "RegionCode": "MUZ",
    "State": "Uttar Pradesh",
    "SubRegionCode": "MUZ",
    "VenueAddress": "498, Opp Saharanpur Bus Stand, GT Road, Rampuri, Roorkee Road, Near Bajaj Agency, Muzaffarnagar, Uttar Pradesh 251001, India",
    "VenueCode": "MEMR",
    "VenueName": "Maya Multiplex: Muzaffarnagar"
  },
  "MGMF": {
    "AvailableFormats": "",
    "City": "Dhuri",
    "Latitude": "30.3649",
    "Longitude": "75.8591",
    "RegionCode": "DHRI",
    "State": "Punjab",
    "SubRegionCode": "DHRI",
    "VenueAddress": "MGM Mall, Sangrur-Dhuri Road, Near Civil Hospital, Dhuri, Punjab 148024, India",
    "VenueCode": "MGMF",
    "VenueName": "MGM Filmiplex Cinema: Dhuri"
  },
  "MIDL": {
    "AvailableFormats": "2D",
    "City": "Madurai",
    "Latitude": "9.93085",
    "Longitude": "78.0907",
    "RegionCode": "MADU",
    "State": "Tamil Nadu",
    "SubRegionCode": "MADU",
    "VenueAddress": "116/2, Sammattipuram Main Road, Opposite to Big Bazaar, Madurai, Tamil Nadu 625016, India",
    "VenueCode": "MIDL",
    "VenueName": "Midlaand Cinemas A/C 4K Dolby Digital 7.1: Madurai"
  },
  "MJCS": {
    "AvailableFormats": "3D|2D",
    "City": "Akola",
    "Latitude": "20.6983",
    "Longitude": "77.0168",
    "RegionCode": "AKOL",
    "State": "Maharashtra",
    "SubRegionCode": "AKOL",
    "VenueAddress": "Murtizapur Road, Kirti Nagar, Near TVS Showroom, Akola, Maharashtra 444005, India",
    "VenueCode": "MJCS",
    "VenueName": "Miraj Cinemas: Radha Krishna, Akola"
  },
  "MKLJ": {
    "AvailableFormats": "2D|3D",
    "City": "Gurugram (Gurgaon)",
    "Latitude": "28.3907",
    "Longitude": "76.975",
    "RegionCode": "NCR",
    "State": "NCR",
    "SubRegionCode": "GURG",
    "VenueAddress": "KLJ Square Mall, 3rd Floor, NH 8, Sector 83, Gurugram (Gurgaon), NCR 122004, India",
    "VenueCode": "MKLJ",
    "VenueName": "Miraj Cinemas: KLJ Square, Gurugram"
  },
  "MLDP": {
    "AvailableFormats": "",
    "City": "Dehradun",
    "Latitude": "30.289",
    "Longitude": "77.9991",
    "RegionCode": "DEH",
    "State": "Uttarakhand",
    "SubRegionCode": "DEH",
    "VenueAddress": "The City Junction, 2nd Floor, Adjoining ISBT Dehradun, Haridwar Byepass Road, Dehradun, Uttarakhand 248001, India",
    "VenueCode": "MLDP",
    "VenueName": "Microcineplex Cinema: Dehradun"
  },
  "MMCJ": {
    "AvailableFormats": "2D",
    "City": "Jasdan",
    "Latitude": "22.0243",
    "Longitude": "71.1793",
    "RegionCode": "JASD",
    "State": "Gujarat",
    "SubRegionCode": "JASD",
    "VenueAddress": "Ring Road, Atkot Road, Aanand Nagar, Jasdan, Gujarat 360050, India",
    "VenueCode": "MMCJ",
    "VenueName": "Miraj Cinemas: Citypride Multiplex, Jasdan"
  },
  "MMKC": {
    "AvailableFormats": "2D",
    "City": "Chennai",
    "Latitude": "12.9198",
    "Longitude": "80.1957",
    "RegionCode": "CHEN",
    "State": "Tamil Nadu",
    "SubRegionCode": "CHEN",
    "VenueAddress": "No. 4/347 Velachery Main Road, Medavakkam, Chennai, Tamil Nadu 600100, India",
    "VenueCode": "MMKC",
    "VenueName": "Medavakkam Kumaran Cinemas RGB LASER Dolby Atmos"
  },
  "MMPR": {
    "AvailableFormats": "",
    "City": "Chennai",
    "Latitude": "13.1017",
    "Longitude": "80.2747",
    "RegionCode": "CHEN",
    "State": "Tamil Nadu",
    "SubRegionCode": "CHEN",
    "VenueAddress": "PR MAll, Prince Ratnapuri Garden residency, New No. 29, Old No. 16, Wall Tax Road, Kondithope, George Town, Chennai, Tamil Nadu 600001, India",
    "VenueCode": "MMPR",
    "VenueName": "MovieMax: PR Mall, Wall Tax Road, Chennai"
  },
  "MMXI": {
    "AvailableFormats": "2D",
    "City": "Indore",
    "Latitude": "22.7481",
    "Longitude": "75.8905",
    "RegionCode": "IND",
    "State": "Madhya Pradesh",
    "SubRegionCode": "IND",
    "VenueAddress": "Gravity Mall Ware House Road Bhamor, Vijay Nagar, Indore, Madhya Pradesh 452010, India",
    "VenueCode": "MMXI",
    "VenueName": "Manmandir Miniplex: Indore"
  },
  "MNKH": {
    "AvailableFormats": "2D",
    "City": "Madurai",
    "Latitude": "9.82126",
    "Longitude": "77.9865",
    "RegionCode": "MADU",
    "State": "Tamil Nadu",
    "SubRegionCode": "MADU",
    "VenueAddress": "26, Virudhunagar Road, Madurai, Tamil Nadu 625706, India",
    "VenueCode": "MNKH",
    "VenueName": "Meenakshi theatre A/C 7.1 Surround: Thirumangalam"
  },
  "MRAA": {
    "AvailableFormats": "2D|3D",
    "City": "Hyderabad",
    "Latitude": "17.4824",
    "Longitude": "78.4487",
    "RegionCode": "HYD",
    "State": "Telangana",
    "SubRegionCode": "HYD",
    "VenueAddress": "A2A Central Mall, 4th Floor, Adarsh Nagar, Hyderabad, Telangana 500037, India",
    "VenueCode": "MRAA",
    "VenueName": "Miraj Cinemas: A2A Central Mall, Balanagar"
  },
  "MRHT": {
    "AvailableFormats": "",
    "City": "Kothagudem",
    "Latitude": "17.5638",
    "Longitude": "80.623",
    "RegionCode": "KTGM",
    "State": "Telangana",
    "SubRegionCode": "KTGM",
    "VenueAddress": "9-60 Behind Rajya Laxmi Motors Laxmidevipally, Srinagar, Laxmidevipalle Rural, Near Axis Bank, Kothagudem, Telangana 507101, India",
    "VenueCode": "MRHT",
    "VenueName": "Maheshwari 2K Dolby Atmos: Kothagudem"
  },
  "MSCA": {
    "AvailableFormats": "",
    "City": "Amroha",
    "Latitude": "28.897",
    "Longitude": "78.4729",
    "RegionCode": "AMRO",
    "State": "Uttar Pradesh",
    "SubRegionCode": "AMRO",
    "VenueAddress": "2nd Floor, Madho Multiplex, Station Road, Azad Road,JP Nagar, Amroha, Uttar Pradesh 244221, India",
    "VenueCode": "MSCA",
    "VenueName": "Madho Starworld Cinemas: Amroha"
  },
  "MSNL": {
    "AvailableFormats": "2D",
    "City": "Lucknow",
    "Latitude": "26.8819",
    "Longitude": "80.9466",
    "RegionCode": "LUCK",
    "State": "Uttar Pradesh",
    "SubRegionCode": "LUCK",
    "VenueAddress": "Kapoorthalla Commercial Complex, 4, Aliganj, Behind Sahara Towers, Lucknow, Uttar Pradesh 226020, India",
    "VenueCode": "MSNL",
    "VenueName": "Novelty Dolby Atmos 4K: Aliganj"
  },
  "MTDK": {
    "AvailableFormats": "2D|3D",
    "City": "Davanagere",
    "Latitude": "14.4551",
    "Longitude": "75.9056",
    "RegionCode": "DAVA",
    "State": "Karnataka",
    "SubRegionCode": "DAVA",
    "VenueAddress": "3rd Floor, SS Gardenia Mall, SS Layout, A Block, Shamanur Road, Near Lakshmi Flour Mill, Davanagere, Karnataka 577004, India",
    "VenueCode": "MTDK",
    "VenueName": "Movietime Cinemas: Davanagere"
  },
  "MTLM": {
    "AvailableFormats": "2D",
    "City": "Chennai",
    "Latitude": "13.2795",
    "Longitude": "80.2606",
    "RegionCode": "CHEN",
    "State": "Tamil Nadu",
    "SubRegionCode": "CHEN",
    "VenueAddress": "27,Thiruvottiyur High Road, Minjur, Tiruvallur, Chennai, Tamil Nadu 601203, India",
    "VenueCode": "MTLM",
    "VenueName": "Mani Talkies 2K RGB Laser ATMOS: Minjur"
  },
  "MTRB": {
    "AvailableFormats": "2D|3D",
    "City": "Ahmedabad",
    "Latitude": "23.0303",
    "Longitude": "72.4713",
    "RegionCode": "AHD",
    "State": "Gujarat",
    "SubRegionCode": "AHD",
    "VenueAddress": "5th floor, Block A, The Retail Park (TRP), Near Rajyash City, Central Bopal, Ahmedabad, Gujarat 380058, India",
    "VenueCode": "MTRB",
    "VenueName": "Mukta A2 Cinemas: The Retail Park (TRP) Bopal"
  },
  "MUPX": {
    "AvailableFormats": "2D",
    "City": "Mahalingpur",
    "Latitude": "16.3903",
    "Longitude": "75.1067",
    "RegionCode": "MAGP",
    "State": "Karnataka",
    "SubRegionCode": "MAGP",
    "VenueAddress": "CMC No:880/1, Near Neelakanteshwara Temple, Mahalingpur, Karnataka 587312, India",
    "VenueCode": "MUPX",
    "VenueName": "Smart Moviz (Maruthi Cineplex): Mahalingpur"
  },
  "MWSS": {
    "AvailableFormats": "2D",
    "City": "Ghaziabad",
    "Latitude": "28.6828",
    "Longitude": "77.4287",
    "RegionCode": "NCR",
    "State": "NCR",
    "SubRegionCode": "GHAZ",
    "VenueAddress": "1st Floor, Plot No. A-1/1-7,8, 9, 13, 14, 15, 16 and 17, Site-III, Sihani Chungi, Meerut Road, Ghaziabad, NCR 201003, India",
    "VenueCode": "MWSS",
    "VenueName": "US Cinemas: Movie World, Sihani Chungi, Ghaziabad"
  },
  "MYAN": {
    "AvailableFormats": "2D|3D",
    "City": "Ahilyanagar (Ahmednagar)",
    "Latitude": "19.1313",
    "Longitude": "74.7301",
    "RegionCode": "AHMED",
    "State": "Maharashtra",
    "SubRegionCode": "AHMED",
    "VenueAddress": "Pipeline Road, Savedi, Ahilyanagar (Ahmednagar), Maharashtra 414003, India",
    "VenueCode": "MYAN",
    "VenueName": "MY Cinema: Ahilya Nagar"
  },
  "MYHJ": {
    "AvailableFormats": "2D",
    "City": "Karunagapally",
    "Latitude": "9.04943",
    "Longitude": "76.5355",
    "RegionCode": "KARG",
    "State": "Kerala",
    "SubRegionCode": "KARG",
    "VenueAddress": "Level 3, H and J Complex Mall, Lalaji Junction, Kollam, Near Municipal Office, Karunagapally, Kerala 690518, India",
    "VenueCode": "MYHJ",
    "VenueName": "MY Cinemas, H&J Complex: Karunagapally"
  },
  "NAGO": {
    "AvailableFormats": "2D",
    "City": "Nagaur",
    "Latitude": "27.1957",
    "Longitude": "73.7501",
    "RegionCode": "NAGR",
    "State": "Rajasthan",
    "SubRegionCode": "NAGR",
    "VenueAddress": "NH 65, Hanuman Bagh Colony,Bassi Mohalla, Nagaur, Rajasthan 341001, India",
    "VenueCode": "NAGO",
    "VenueName": "Laxmi Tara Cinema: Nagaur"
  },
  "NCHJ": {
    "AvailableFormats": "2D",
    "City": "Hajipur",
    "Latitude": "25.6942",
    "Longitude": "85.215",
    "RegionCode": "HAJI",
    "State": "Bihar",
    "SubRegionCode": "HAJI",
    "VenueAddress": "Ram Balak Chowk, Naveen Cinema Road, JP Colony, Yadav Nagar, Near Commmunity Hall, Hajipur, Bihar 844101, India",
    "VenueCode": "NCHJ",
    "VenueName": "Navin Cinema: Hajipur"
  },
  "NCSQ": {
    "AvailableFormats": "3D|2D",
    "City": "Guwahati",
    "Latitude": "26.1584",
    "Longitude": "91.6804",
    "RegionCode": "GUW",
    "State": "Assam",
    "SubRegionCode": "GUW",
    "VenueAddress": "PVR Limited, NCS Square Mall, A.T Road, Adabari, Guwahati, Assam 781012, India",
    "VenueCode": "NCSQ",
    "VenueName": "INOX: NCS Square, Guwahati"
  },
  "NEWS": {
    "AvailableFormats": "2D",
    "City": "Bhawanipatna",
    "Latitude": "19.9265",
    "Longitude": "83.1518",
    "RegionCode": "BHAW",
    "State": "Odisha",
    "SubRegionCode": "BHAW",
    "VenueAddress": "Bhawanipatna - Raipur Highway, Parmanandapur, Opposite of OMFED Dairy, Bhawanipatna, Odisha 766002, India",
    "VenueCode": "NEWS",
    "VenueName": "New Star Cineplex: Bhawanipatna"
  },
  "NLTC": {
    "AvailableFormats": "2D",
    "City": "Chennai",
    "Latitude": "12.9291",
    "Longitude": "80.1147",
    "RegionCode": "CHEN",
    "State": "Tamil Nadu",
    "SubRegionCode": "CHEN",
    "VenueAddress": "Rajaji Road, West Tambaram, Near Lenovo Store, Chennai, Tamil Nadu 600045, India",
    "VenueCode": "NLTC",
    "VenueName": "National Theatre 4K Dolby Atmos: Tambaram"
  },
  "NNNX": {
    "AvailableFormats": "2D",
    "City": "Thane",
    "Latitude": "19.3042",
    "Longitude": "73.0581",
    "RegionCode": "MUMBAI",
    "State": "Maharashtra",
    "SubRegionCode": "THNE",
    "VenueAddress": "267, Bazaar Peth Road, Nazarana Compound, Gokul Nagar, Bhiwandi, Thane, Maharashtra 421302, India",
    "VenueCode": "NNNX",
    "VenueName": "Nazrana Cinema: Bhiwandi"
  },
  "NSBR": {
    "AvailableFormats": "2D|3D",
    "City": "Bengaluru",
    "Latitude": "13.0183",
    "Longitude": "77.7625",
    "RegionCode": "HOKT",
    "State": "Karnataka",
    "SubRegionCode": "HOKT",
    "VenueAddress": "Inox Leisure Ltd., Leisure Ltd., 2nd Floor, SBR Horizon, Seegehalli, Whitefield-Hoskote Road, Bengaluru, Karnataka 560067, India",
    "VenueCode": "NSBR",
    "VenueName": "INOX:SBR Horizon, Seegehalli Whitefield-Hoskote Rd"
  },
  "NTCR": {
    "AvailableFormats": "2D",
    "City": "Malda",
    "Latitude": "25.0147",
    "Longitude": "88.1494",
    "RegionCode": "MALD",
    "State": "West Bengal",
    "SubRegionCode": "MALD",
    "VenueAddress": "Mangal Bari, Vivekananda Ave Road, Malda, West Bengal 732142, India",
    "VenueCode": "NTCR",
    "VenueName": "Nataraj Cinema: Malda"
  },
  "NUCD": {
    "AvailableFormats": "2D",
    "City": "Vikasnagar",
    "Latitude": "30.4674",
    "Longitude": "77.7766",
    "RegionCode": "VKNG",
    "State": "Uttarakhand",
    "SubRegionCode": "VKNG",
    "VenueAddress": "Kotwali Bypass Road, Punjabi Colony, Vikasnagar, Uttarakhand 248198, India",
    "VenueCode": "NUCD",
    "VenueName": "New Upasna Cinema: Vikasnagar, Dehradun"
  },
  "NWCB": {
    "AvailableFormats": "2D",
    "City": "Cooch Behar",
    "Latitude": "26.3159",
    "Longitude": "89.4491",
    "RegionCode": "COBE",
    "State": "West Bengal",
    "SubRegionCode": "COBE",
    "VenueAddress": "Bang Chatra Road, New Town, Near Bangchatra Sub Post Office, Cooch Behar, West Bengal 736101, India",
    "VenueCode": "NWCB",
    "VenueName": "New Cinema: Cooch Behar"
  },
  "NYCG": {
    "AvailableFormats": "",
    "City": "Gurugram (Gurgaon)",
    "Latitude": "28.3922",
    "Longitude": "77.0304",
    "RegionCode": "NCR",
    "State": "NCR",
    "SubRegionCode": "GURG",
    "VenueAddress": "3rd floor Elan Epic Mall, Tulip Chowk, Sector 70, Opposite Tulip Violet society, Gurugram (Gurgaon), NCR 122101, India",
    "VenueCode": "NYCG",
    "VenueName": "Devgn CineX: Elan Epic, Gurugram"
  },
  "NYST": {
    "AvailableFormats": "",
    "City": "Gandhinagar",
    "Latitude": "23.189",
    "Longitude": "72.6096",
    "RegionCode": "AHD",
    "State": "Gujarat",
    "SubRegionCode": "AHD",
    "VenueAddress": "3 Floor, Swagat Holiday Mall, Opposite Swagat Flamingo, Sargasan, Gandhinagar, Gujarat 382421, India",
    "VenueCode": "NYST",
    "VenueName": "Devgn CineX: Swagat Mall, Gandhinagar"
  },
  "OMCS": {
    "AvailableFormats": "3D|2D",
    "City": "Mumbai",
    "Latitude": "19.081",
    "Longitude": "72.8445",
    "RegionCode": "MUMBAI",
    "State": "Maharashtra",
    "SubRegionCode": "MWEST",
    "VenueAddress": "Nehru Road, Madhuvan Society, Sen Nagar, Santacruz East, Mumbai, Maharashtra 400055, India",
    "VenueCode": "OMCS",
    "VenueName": "Mukta A2 Cinemas Orion: Santacruz"
  },
  "OTNC": {
    "AvailableFormats": "2D",
    "City": "Chinturu",
    "Latitude": "17.7448",
    "Longitude": "81.3929",
    "RegionCode": "CHTN",
    "State": "Andhra Pradesh",
    "SubRegionCode": "CHTN",
    "VenueAddress": "Main Road, Near Saibaba Temple, Chinturu, Andhra Pradesh 507113, India",
    "VenueCode": "OTNC",
    "VenueName": "Om Navayuga Talkies: Chinturu"
  },
  "PAEG": {
    "AvailableFormats": "2D|ICE 3D|ICE|3D|IMAX 2D|4DX",
    "City": "Gurugram (Gurgaon)",
    "Latitude": "28.5043",
    "Longitude": "77.0974",
    "RegionCode": "NCR",
    "State": "NCR",
    "SubRegionCode": "GURG",
    "VenueAddress": "3rd Floor, Ambience Mall, NH-8, Near Toll Plaza, Gurugram (Gurgaon), NCR 122001, India",
    "VenueCode": "PAEG",
    "VenueName": "Gurugram Pepsi PVR Ambience"
  },
  "PBLK": {
    "AvailableFormats": "2D",
    "City": "Kushinagar",
    "Latitude": "26.7283",
    "Longitude": "84.2375",
    "RegionCode": "KUSH",
    "State": "Uttar Pradesh",
    "SubRegionCode": "KUSH",
    "VenueAddress": "Tamkuhi Road - Thakrahan Road, Sewarhi, Turkwalia Sahabganj, Kushinagar, Uttar Pradesh 274406, India",
    "VenueCode": "PBLK",
    "VenueName": "PB Cinemas: Kushinagar"
  },
  "PCAT": {
    "AvailableFormats": "2D",
    "City": "Thrissur",
    "Latitude": "10.495825",
    "Longitude": "76.257063",
    "RegionCode": "THSR",
    "State": "Kerala",
    "SubRegionCode": "THSR",
    "VenueAddress": "HiLITE Mall, Hill Gardens Housing Colony, Kuttanellur, Thrissur, Kerala 680014, India",
    "VenueCode": "PCAT",
    "VenueName": "Palaxi Cinemas HiLITE Mall: Thrissur"
  },
  "PCDA": {
    "AvailableFormats": "2D",
    "City": "Madurai",
    "Latitude": "9.92406",
    "Longitude": "78.1407",
    "RegionCode": "MADU",
    "State": "Tamil Nadu",
    "SubRegionCode": "MADU",
    "VenueAddress": "Gandhi Nagar, Shenoy Nagar, 100 Feet Road, Anna Nagar, Opposite State Bank of India, Madurai, Tamil Nadu 625020, India",
    "VenueCode": "PCDA",
    "VenueName": "Priya Complex Dolby Atmos: Madurai"
  },
  "PCLZ": {
    "AvailableFormats": "2D|3D",
    "City": "Yamunanagar",
    "Latitude": "30.1336",
    "Longitude": "77.2763",
    "RegionCode": "YAMU",
    "State": "Haryana",
    "SubRegionCode": "YAMU",
    "VenueAddress": "2nd Floor E-19, Industrial Area, Opposite Bus Stand, Yamunanagar, Haryana 135001, India",
    "VenueCode": "PCLZ",
    "VenueName": "PVR: City Mall, Yamunanagar"
  },
  "PCPL": {
    "AvailableFormats": "3D|2D",
    "City": "Delhi",
    "Latitude": "28.6351",
    "Longitude": "77.2195",
    "RegionCode": "NCR",
    "State": "NCR",
    "SubRegionCode": "DELHI",
    "VenueAddress": "Plaza Building, Block H, Outer Circle, Connaught Place, Near Standard Chartered Bank, Delhi, NCR 110001, India",
    "VenueCode": "PCPL",
    "VenueName": "PVR: Plaza-CP, Delhi"
  },
  "PCVV": {
    "AvailableFormats": "2D|3D",
    "City": "Chandigarh",
    "Latitude": "30.7068",
    "Longitude": "76.7966",
    "RegionCode": "CHD",
    "State": "Punjab",
    "SubRegionCode": "CHD",
    "VenueAddress": "177/D, Centra Mall, Industrial Phase-1, Near Tribune Chowk, Chandigarh, Punjab 160002, India",
    "VenueCode": "PCVV",
    "VenueName": "PVR: Centra, Chandigarh"
  },
  "PDDV": {
    "AvailableFormats": "2D|3D",
    "City": "Mumbai",
    "Latitude": "19.1149",
    "Longitude": "72.8273",
    "RegionCode": "MUMBAI",
    "State": "Maharashtra",
    "SubRegionCode": "MWEST",
    "VenueAddress": "5th Floor, Dynamix Mall, Near Chandan Cinema, J M Marg, Juhu, Mumbai, Maharashtra 400049, India",
    "VenueCode": "PDDV",
    "VenueName": "PVR: Dynamix, Juhu"
  },
  "PDYA": {
    "AvailableFormats": "2D",
    "City": "Bengaluru",
    "Latitude": "13.022",
    "Longitude": "77.6033",
    "RegionCode": "BANG",
    "State": "Karnataka",
    "SubRegionCode": "BANG",
    "VenueAddress": "2-Dinnur Main Road, Sultanpalya, RT Nagar Post, Near Government Medical Center, Bengaluru, Karnataka 560032, India",
    "VenueCode": "PDYA",
    "VenueName": "Pushpanjali Sultanpalya: A/C Digital 2K 3D Dolby"
  },
  "PFCM": {
    "AvailableFormats": "2D",
    "City": "Sultan Bathery",
    "Latitude": "11.6643",
    "Longitude": "76.2617",
    "RegionCode": "SULY",
    "State": "Kerala",
    "SubRegionCode": "SULY",
    "VenueAddress": "4th Floor, Mint Mall, Chungam, Near Trends, Sultan Bathery, Kerala 673592, India",
    "VenueCode": "PFCM",
    "VenueName": "Mint Cinemas A/C 2K 3D: Sulthan Bathery"
  },
  "PGMV": {
    "AvailableFormats": "2D",
    "City": "Chennai",
    "Latitude": "12.972",
    "Longitude": "80.2204",
    "RegionCode": "CHEN",
    "State": "Tamil Nadu",
    "SubRegionCode": "CHEN",
    "VenueAddress": "3rd Floor, Grand Square Mall, No.137, Tambaram Velachery Road, V.O.C Nagar, Doctor Seetaram Nagar, Chennai, Tamil Nadu 600042, India",
    "VenueCode": "PGMV",
    "VenueName": "PVR: Grand Mall, Velachery"
  },
  "PIAT": {
    "AvailableFormats": "2D",
    "City": "Madurai",
    "Latitude": "9.9075",
    "Longitude": "78.1395",
    "RegionCode": "MADU",
    "State": "Tamil Nadu",
    "SubRegionCode": "MADU",
    "VenueAddress": "Anuppanadi Road, Madurai, Near ICICI Bank, Madurai, Tamil Nadu 625009, India",
    "VenueCode": "PIAT",
    "VenueName": "Palani Arumuga Cinema A/C Laser Projector: Madurai"
  },
  "PITI": {
    "AvailableFormats": "2D|3D",
    "City": "Mumbai",
    "Latitude": "19.1387",
    "Longitude": "72.8315",
    "RegionCode": "MUMBAI",
    "State": "Maharashtra",
    "SubRegionCode": "MWEST",
    "VenueAddress": "Citi Mall, Survey No. 41, Phase D, Oshiwara, Andheri Link Road, Andheri(W), Near Bhaktivedanta Swami Mission School, Mumbai, Maharashtra 400053, India",
    "VenueCode": "PITI",
    "VenueName": "PVR: Citi Mall, Andheri (W)"
  },
  "PJRR": {
    "AvailableFormats": "2D|3D",
    "City": "Ajmer",
    "Latitude": "26.4631",
    "Longitude": "74.6337",
    "RegionCode": "AJMER",
    "State": "Rajasthan",
    "SubRegionCode": "AJMER",
    "VenueAddress": "4Th Floor, Mittal Mall, Prithviraj Marg, Hathi Bhata, Ajmer, Rajasthan 305001, India",
    "VenueCode": "PJRR",
    "VenueName": "PVR: Mittal Mall, Ajmer"
  },
  "PKVC": {
    "AvailableFormats": "2D",
    "City": "Patna",
    "Latitude": "25.6223",
    "Longitude": "85.1233",
    "RegionCode": "PATN",
    "State": "Bihar",
    "SubRegionCode": "PATN",
    "VenueAddress": "Max Building, Pushpanjali Mall, West Boring Canal Road, Patna, Bihar 800001, India",
    "VenueCode": "PKVC",
    "VenueName": "PKV Smart Cinemas, Boring Canal Road: Patna"
  },
  "PMAC": {
    "AvailableFormats": "2D",
    "City": "Kolkata",
    "Latitude": "22.6953",
    "Longitude": "88.3976",
    "RegionCode": "KOLK",
    "State": "West Bengal",
    "SubRegionCode": "KOLK",
    "VenueAddress": "Barasat Road, Sodepur, Anandalok, North 24 Paraganas, Kolkata, West Bengal 700110, India",
    "VenueCode": "PMAC",
    "VenueName": "Padma Cinema: Kolkata"
  },
  "PMDR": {
    "AvailableFormats": "2D",
    "City": "Dungarpur",
    "Latitude": "23.8267",
    "Longitude": "73.6995",
    "RegionCode": "DUNG",
    "State": "Rajasthan",
    "SubRegionCode": "DUNG",
    "VenueAddress": "Vasundra vihar, Ganesh temple road, Near sintex mill, Dungarpur, Rajasthan 314001, India",
    "VenueCode": "PMDR",
    "VenueName": "PM Cinemas: Dungarpur"
  },
  "PMPK": {
    "AvailableFormats": "2D",
    "City": "Mumbai",
    "Latitude": "19.1961",
    "Longitude": "72.8471",
    "RegionCode": "MUMBAI",
    "State": "Maharashtra",
    "SubRegionCode": "MWEST",
    "VenueAddress": "PVR Cinemas, 2nd flr, Old Milap Cinemas, S V Road, Kandivali (W), Near Reliance Digital Xpress, Mumbai, Maharashtra 400067, India",
    "VenueCode": "PMPK",
    "VenueName": "PVR: Milap, Kandivali (W)"
  },
  "PMTT": {
    "AvailableFormats": "2D",
    "City": "Budhana",
    "Latitude": "29.2771",
    "Longitude": "77.471",
    "RegionCode": "MUZ",
    "State": "Uttar Pradesh",
    "SubRegionCode": "MUZ",
    "VenueAddress": "Charan Singh Tihara, Budhana Barut Road, Budhana, Uttar Pradesh 251309, India",
    "VenueCode": "PMTT",
    "VenueName": "Tyagi Theme Park Multiplex: Budhana"
  },
  "POLM": {
    "AvailableFormats": "2D|3D",
    "City": "Mumbai",
    "Latitude": "19.0795",
    "Longitude": "72.9108",
    "RegionCode": "MUMBAI",
    "State": "Maharashtra",
    "SubRegionCode": "MCENT",
    "VenueAddress": "Plot No 194, Vallabh Baug Lane, Garodia Nagar, Near 90 Feet Road, Ghatkopar (East), Mumbai, Maharashtra 400077, India",
    "VenueCode": "POLM",
    "VenueName": "PVR: Odeon Mall, Ghatkopar"
  },
  "PPCC": {
    "AvailableFormats": "2D",
    "City": "Theni",
    "Latitude": "10.1135",
    "Longitude": "77.5464",
    "RegionCode": "THEN",
    "State": "Tamil Nadu",
    "SubRegionCode": "THEN",
    "VenueAddress": "Pavalam Theatre, Theni Highway, Periyakulam, Theni, Tamil Nadu 625601, India",
    "VenueCode": "PPCC",
    "VenueName": "Pavalam Theatre A/C 4K 7.1 Dolby 3D: Periyakulam"
  },
  "PPNT": {
    "AvailableFormats": "2D",
    "City": "Nawalgarh",
    "Latitude": "27.8504",
    "Longitude": "75.2675",
    "RegionCode": "NANA",
    "State": "Rajasthan",
    "SubRegionCode": "NANA",
    "VenueAddress": "Bank of Baroda, Near Police Station, Nawalgarh, Rajasthan 333042, India",
    "VenueCode": "PPNT",
    "VenueName": "Prem Prakash Talkies: Nawalgarh"
  },
  "PRCC": {
    "AvailableFormats": "2D",
    "City": "Alappuzha",
    "Latitude": "9.6853",
    "Longitude": "76.3357",
    "RegionCode": "CRTL",
    "State": "Kerala",
    "SubRegionCode": "CRTL",
    "VenueAddress": "Nedumbrakkad, Muttathu Church Road, Near M.A Bake Mart, Alappuzha, Kerala 688524, India",
    "VenueCode": "PRCC",
    "VenueName": "Paradise Cinema: Cherthala"
  },
  "PRFI": {
    "AvailableFormats": "2D",
    "City": "Indore",
    "Latitude": "22.7143",
    "Longitude": "75.8324",
    "RegionCode": "IND",
    "State": "Madhya Pradesh",
    "SubRegionCode": "IND",
    "VenueAddress": "265, 266, Indra Nagar, Opposite Gyan Acadmy, Indore, Madhya Pradesh 452002, India",
    "VenueCode": "PRFI",
    "VenueName": "Prafull RK Deluxe Cinema: Indore"
  },
  "PRTA": {
    "AvailableFormats": "",
    "City": "Amravati",
    "Latitude": "20.93102",
    "Longitude": "77.75546",
    "RegionCode": "AMRA",
    "State": "Maharashtra",
    "SubRegionCode": "AMRA",
    "VenueAddress": "Jaistambh Chowk, Morshi Road, Near ICICI Bank, Amravati, Maharashtra 444601, India",
    "VenueCode": "PRTA",
    "VenueName": "Priya Talkies: Amravati"
  },
  "PSCE": {
    "AvailableFormats": "2D",
    "City": "Cuddalore",
    "Latitude": "11.754",
    "Longitude": "79.7619",
    "RegionCode": "CUDD",
    "State": "Tamil Nadu",
    "SubRegionCode": "CUDD",
    "VenueAddress": "7, Bharathi Road, Manjakuppam, Cuddalore, Tamil Nadu 607001, India",
    "VenueCode": "PSCE",
    "VenueName": "PVR: V Square Mall, Cuddalore"
  },