{
  "AACS": {
    "AvailableFormats": "",
    "City": "Salem",
    "FirstTracked": "2026-07-14",
    "Latitude": "11.6699",
    "Longitude": "78.0181",
    "RegionCode": "SALM",
    "State": "Tamil Nadu",
    "SubRegionCode": "SALM",
    "VenueAddress": "Ranganathan Nagar, Alagusamudram, Salem, Tamil Nadu 636013, India",
    "VenueCode": "AACS",
    "VenueName": "Amman Arangham Cinemas A/C Dolby: Alagusamuthiram"
  },
  "AAPW": {
    "AvailableFormats": "2D",
    "City": "Warangal",
    "Latitude": "18.0077",
    "Longitude": "79.567",
    "RegionCode": "WAR",
    "State": "Telangana",
    "SubRegionCode": "WAR",
    "VenueAddress": "Ashoka A plex, Beside Warangal Hyderabad Highway, Near Govt Juniour College, Warangal, Telangana 506001, India",
    "VenueCode": "AAPW",
    "VenueName": "Asian Ashoka Air-Conditioned: Hanumakonda"
  },
  "ABCR": {
    "AvailableFormats": "",
    "City": "Vijayawada",
    "FirstTracked": "2026-07-14",
    "Latitude": "16.4859",
    "Longitude": "80.6828",
    "RegionCode": "VIJA",
    "State": "Andhra Pradesh",
    "SubRegionCode": "VIJA",
    "VenueAddress": "Elevate Mall, Pune-Machilipatnam Highway, Kanuru, Vijayawada, Andhra Pradesh 520007, India",
    "VenueCode": "ABCR",
    "VenueName": "ABR Cinemas Neo Screen X:  Kanuru, Vijayawada"
  },
  "ABTK": {
    "AvailableFormats": "",
    "City": "Kottayam",
    "Latitude": "9.58599",
    "Longitude": "76.5244",
    "RegionCode": "ETTU",
    "State": "Kerala",
    "SubRegionCode": "ETTU",
    "VenueAddress": "M.C Road, Opp Kalyan Jewellery, Near Asha Theatre, Kottayam, Kerala 686001, India",
    "VenueCode": "ABTK",
    "VenueName": "Abhilash Theatre 4K RGB Laser 3D: Kottayam"
  },
  "ACCD": {
    "AvailableFormats": "2D",
    "City": "Deoria",
    "Latitude": "26.2107",
    "Longitude": "83.9653",
    "RegionCode": "DEEO",
    "State": "Uttar Pradesh",
    "SubRegionCode": "DEEO",
    "VenueAddress": "Mod, Beside Union Bank Of India, Lakhu, Lar, Deoria, Uttar Pradesh 274502, India",
    "VenueCode": "ACCD",
    "VenueName": "Aura Cineplex: Lar, Deoria"
  },
  "ACHV": {
    "AvailableFormats": "2D",
    "City": "Vijayawada",
    "Latitude": "16.5133",
    "Longitude": "80.6259",
    "RegionCode": "VIJA",
    "State": "Andhra Pradesh",
    "SubRegionCode": "VIJA",
    "VenueAddress": "Governor Peta, Eluru Road, Opposite Swarna Mutiplex, Vijayawada, Andhra Pradesh 520002, India",
    "VenueCode": "ACHV",
    "VenueName": "Apsara Cinema House: Vijayawada"
  },
  "ACKR": {
    "AvailableFormats": "2D",
    "City": "Karukachal",
    "Latitude": "9.50297",
    "Longitude": "76.64363",
    "RegionCode": "KAKC",
    "State": "Kerala",
    "SubRegionCode": "KAKC",
    "VenueAddress": "Karukachal Manimala Road, Neriyani Poika, Karukachal, Kerala 686540, India",
    "VenueCode": "ACKR",
    "VenueName": "Anchani Cinemas 4k RGB LASER ATMOS: Karukachal"
  },
  "ACNL": {
    "AvailableFormats": "2D",
    "City": "Nilanga",
    "Latitude": "18.1276",
    "Longitude": "76.7493",
    "RegionCode": "NLNG",
    "State": "Maharashtra",
    "SubRegionCode": "NLNG",
    "VenueAddress": "Nilanga Main Road, Opposite Nilanga Bus Stop, Nilanga, Maharashtra 413521, India",
    "VenueCode": "ACNL",
    "VenueName": "Ajanta Cineplex: Nilanga, Latur"
  },
  "ACSK": {
    "AvailableFormats": "2D",
    "City": "Shindkheda",
    "Latitude": "21.2726",
    "Longitude": "74.7454",
    "RegionCode": "SHDK",
    "State": "Maharashtra",
    "SubRegionCode": "SHDK",
    "VenueAddress": "Station Road, Near Bus Stand, Shindkheda, Maharashtra 425406, India",
    "VenueCode": "ACSK",
    "VenueName": "Ashok Chitramandir: Shindkheda"
  },
  "ACXB": {
    "AvailableFormats": "2D",
    "City": "Bhandara",
    "Latitude": "21.1761",
    "Longitude": "79.6388",
    "RegionCode": "BHAA",
    "State": "Maharashtra",
    "SubRegionCode": "BHAA",
    "VenueAddress": "Aswale Park, Samruddhi Nagar, Bhandara, Maharashtra 441906, India",
    "VenueCode": "ACXB",
    "VenueName": "AR Cineplex: Bhandara"
  },
  "ADGC": {
    "AvailableFormats": "2D",
    "City": "Narayanpur (CH)",
    "Latitude": "19.7218",
    "Longitude": "81.2415",
    "RegionCode": "NRYA",
    "State": "Chhattisgarh",
    "SubRegionCode": "NRYA",
    "VenueAddress": "Collectorate Road, Near Sports Ground, Narayanpur (CH), Chhattisgarh 494661, India",
    "VenueCode": "ADGC",
    "VenueName": "Adeshwar Global Cinemas: Narayanpur"
  },
  "AFST": {
    "AvailableFormats": "2D",
    "City": "Siddhpur",
    "Latitude": "23.9425",
    "Longitude": "72.3653",
    "RegionCode": "SIDD",
    "State": "Gujarat",
    "SubRegionCode": "SIDD",
    "VenueAddress": "Gokul Highway Food Mall, Highway Road, Near Sujanpur Patia, Siddhpur, Gujarat 384151, India",
    "VenueCode": "AFST",
    "VenueName": "Ajayshree Films (Gokul Theater): Siddhpur"
  },
  "AICP": {
    "AvailableFormats": "2D",
    "City": "Pallickathodu",
    "Latitude": "9.60499",
    "Longitude": "76.681",
    "RegionCode": "PKTU",
    "State": "Kerala",
    "SubRegionCode": "PKTU",
    "VenueAddress": "Kodungoor Road, Mutholy Pallickathodu, Near Federal Bank Pallikathodu, Pallickathodu, Kerala 686503, India",
    "VenueCode": "AICP",
    "VenueName": "Anchani Cinemas 4K Dolby Atmos: Pallickathodu"
  },
  "AKRF": {
    "AvailableFormats": "2D",
    "City": "Faridabad",
    "Latitude": "28.4553",
    "Longitude": "77.316",
    "RegionCode": "NCR",
    "State": "NCR",
    "SubRegionCode": "FARI",
    "VenueAddress": "SLF Mall St, Indraprastha Colony, Sector 32, Faridabad, NCR 121003, India",
    "VenueCode": "AKRF",
    "VenueName": "AKR Cinemas: SLF Mall, Faridabad"
  },
  "ALCI": {
    "AvailableFormats": "2D",
    "City": "Vadodara",
    "Latitude": "22.2859",
    "Longitude": "73.2092",
    "RegionCode": "VAD",
    "State": "Gujarat",
    "SubRegionCode": "VAD",
    "VenueAddress": "Navapura, Bhatia Chawl, Pratap Nagar Road, Moghul Wada, Vadodara, Gujarat 390001, India",
    "VenueCode": "ALCI",
    "VenueName": "Alpana Cinema: Vadodara"
  },
  "AMBC": {
    "AvailableFormats": "",
    "City": "Eluru",
    "FirstTracked": "2026-07-14",
    "Latitude": "16.707937",
    "Longitude": "81.10276",
    "RegionCode": "ELRU",
    "State": "Andhra Pradesh",
    "SubRegionCode": "ELRU",
    "VenueAddress": "Dongala Mandapam Road, Southen Street, Agraharam, Eluru, Andhra Pradesh 534001, India",
    "VenueCode": "AMBC",
    "VenueName": "Ambica Delux (Screen 1): Eluru"
  },
  "AMDE": {
    "AvailableFormats": "2D",
    "City": "Thiruthuraipoondi",
    "Latitude": "10.5366",
    "Longitude": "79.6368",
    "RegionCode": "THND",
    "State": "Tamil Nadu",
    "SubRegionCode": "THND",
    "VenueAddress": "SH 63,Railway Station Rd, Thiruthuraipoondi, Near Seematti Readymade Silks, Thiruthuraipoondi, Tamil Nadu 614713, India",
    "VenueCode": "AMDE",
    "VenueName": "AM Deluxe Theatre A/C: Thiruthuraipoondi"
  },
  "AMMT": {
    "AvailableFormats": "2D",
    "City": "Srikakulam",
    "Latitude": "18.2907",
    "Longitude": "83.897",
    "RegionCode": "SRKL",
    "State": "Andhra Pradesh",
    "SubRegionCode": "SRKL",
    "VenueAddress": "12-09-13/1, Mandala Street, Zilla Parishad Road, SBI Colony, L.B.S Colony, Srikakulam, Andhra Pradesh 532001, India",
    "VenueCode": "AMMT",
    "VenueName": "Maruthi Movie Max A/C Dts: Srikakulam"
  },
  "AMTT": {
    "AvailableFormats": "2D",
    "City": "Chennai",
    "Latitude": "12.7314",
    "Longitude": "80.1875",
    "RegionCode": "CHEN",
    "State": "Tamil Nadu",
    "SubRegionCode": "CHEN",
    "VenueAddress": "Kannagapattu, Thiruporur, Chennai, Tamil Nadu 603105, India",
    "VenueCode": "AMTT",
    "VenueName": "Arul Muruga Theatre 4K: Thiruporur"
  },
  "ANCN": {
    "AvailableFormats": "2D",
    "City": "Khategaon",
    "Latitude": "22.5896",
    "Longitude": "76.9259",
    "RegionCode": "KTEG",
    "State": "Madhya Pradesh",
    "SubRegionCode": "KTEG",
    "VenueAddress": "Hotel Shri Sundaram and Marriage Garden, Anjana Cinema Parisar, Nemawar Road, In Front of Petrol Pump, Khategaon, Madhya Pradesh 455336, India",
    "VenueCode": "ANCN",
    "VenueName": "Anjana Cinema: Khategaon"
  },
  "ANPT": {
    "AvailableFormats": "2D",
    "City": "Pithapuram",
    "Latitude": "17.1142",
    "Longitude": "82.2588",
    "RegionCode": "PITA",
    "State": "Andhra Pradesh",
    "SubRegionCode": "PITA",
    "VenueAddress": "Uppada - Pithapuram Road, Madhava Nagar, Pithapuram, Andhra Pradesh 533450, India",
    "VenueCode": "ANPT",
    "VenueName": "Sri Annapoorna Theatre 2K A/C DTS: Pithapuram"
  },
  "ANTT": {
    "AvailableFormats": "",
    "City": "Hyderabad",
    "FirstTracked": "2026-07-14",
    "Latitude": "17.437613",
    "Longitude": "78.49311",
    "RegionCode": "AUSH",
    "State": "Telangana",
    "SubRegionCode": "AUSH",
    "VenueAddress": "Somasundaram Street, Kalasiguda, General Bazaar, Secunderabad, Hyderabad, Telangana 500003, India",
    "VenueCode": "ANTT",
    "VenueName": "Anjali Movie Max: Secunderabad"
  },
  "APCY": {
    "AvailableFormats": "2D|3D",
    "City": "Karimnagar",
    "Latitude": "18.4409",
    "Longitude": "79.1323",
    "RegionCode": "KARIM",
    "State": "Telangana",
    "SubRegionCode": "KARIM",
    "VenueAddress": "C4RJ+9WW, Sharma Nagar, Karimnagar, Telangana 505001, India",
    "VenueCode": "APCY",
    "VenueName": "Asian Paradise Cinemas: Karimnagar"
  },
  "APRK": {
    "AvailableFormats": "2D",
    "City": "Kamareddy",
    "Latitude": "18.3256",
    "Longitude": "78.3327",
    "RegionCode": "KMRD",
    "State": "Telangana",
    "SubRegionCode": "KMRD",
    "VenueAddress": "Vivekananda Colony, Ashok Nagar, Kamareddy, Telangana 503111, India",
    "VenueCode": "APRK",
    "VenueName": "Asian Priya Cineplex: Kamareddy"
  },
  "ARAN": {
    "AvailableFormats": "2D",
    "City": "Mundra",
    "Latitude": "22.839",
    "Longitude": "69.7051",
    "RegionCode": "MUDA",
    "State": "Gujarat",
    "SubRegionCode": "MUDA",
    "VenueAddress": "1St Floor, P.No.4/2562, Om Orbit Shopping Mall, Vill.Nana Kapaya, Tal.Mundra, Kutch, Mundra, Gujarat 370421, India",
    "VenueCode": "ARAN",
    "VenueName": "Aradhaya Nova Cinemaz: Mundra"
  },
  "ARJU": {
    "AvailableFormats": "2D",
    "City": "Hyderabad",
    "Latitude": "17.4968",
    "Longitude": "78.397",
    "RegionCode": "HYD",
    "State": "Telangana",
    "SubRegionCode": "HYD",
    "VenueAddress": "Plot No 2, Sr 178, National Highway 9, Kukatpally, Near KPHB Road, KPHB Phase III, Hyderabad, Telangana 500072, India",
    "VenueCode": "ARJU",
    "VenueName": "Arjun 70MM: Kukatpally"
  },
  "ARVB": {
    "AvailableFormats": "2D",
    "City": "Bhadrachalam",
    "Latitude": "17.6734",
    "Longitude": "80.8894",
    "RegionCode": "BHDR",
    "State": "Telangana",
    "SubRegionCode": "BHDR",
    "VenueAddress": "Bhadrachalam Road, Ashok Nagar Colony, Bhadrachalam, Telangana 507111, India",
    "VenueCode": "ARVB",
    "VenueName": "AMR Vijay Bhaskar: Bhadrachalam"
  },
  "ASGM": {
    "AvailableFormats": "2D",
    "City": "Warangal",
    "Latitude": "17.9879",
    "Longitude": "79.5927",
    "RegionCode": "WAR",
    "State": "Telangana",
    "SubRegionCode": "WAR",
    "VenueAddress": "SVN Road, Mattewada, Phatak Mohalla, Warangal, Telangana 506002, India",
    "VenueCode": "ASGM",
    "VenueName": "Asian Gemini Theatre: Warangal"
  },
  "ASLC": {
    "AvailableFormats": "2D",
    "City": "Trivandrum",
    "Latitude": "8.48853",
    "Longitude": "76.9461",
    "RegionCode": "VKAL",
    "State": "Kerala",
    "SubRegionCode": "VKAL",
    "VenueAddress": "Sahodara Samajam Road, near OverBridge, Thampanoor, Thiruvananthapuram, Trivandrum, Kerala 695035, India",
    "VenueCode": "ASLC",
    "VenueName": "Ariesplex SL Cinemas Cinionic Dolby Atmos"
  },
  "ASRG": {
    "AvailableFormats": "2D",
    "City": "Patna",
    "Latitude": "25.6186",
    "Longitude": "85.0469",
    "RegionCode": "PATN",
    "State": "Bihar",
    "SubRegionCode": "PATN",
    "VenueAddress": "6th Floor, Ambition Business Park, Bailey Road, Saguna More, Patna, Bihar 801503, India",
    "VenueCode": "ASRG",
    "VenueName": "ASR Cinemas, RPS More: Patna"
  },
  "ASTB": {
    "AvailableFormats": "2D",
    "City": "Bengaluru",
    "Latitude": "13.0807",
    "Longitude": "77.5011",
    "RegionCode": "HOKT",
    "State": "Karnataka",
    "SubRegionCode": "HOKT",
    "VenueAddress": "23, Chikkabanavara, Hesarghatta Main Rd, Near Chikkabanavara Circle, Bengaluru, Karnataka 560090, India",
    "VenueCode": "ASTB",
    "VenueName": "Ashoka Cinemas - Dolby Laser: Chikkabanavara"
  },
  "ATAM": {
    "AvailableFormats": "",
    "City": "Batlagundu",
    "FirstTracked": "2026-07-14",
    "Latitude": "10.2275",
    "Longitude": "77.7483",
    "RegionCode": "BTGD",
    "State": "Tamil Nadu",
    "SubRegionCode": "BTGD",
    "VenueAddress": "Ayyampalayam, Dindugal Road, Near State Bank of India, Batlagundu, Tamil Nadu 624204, India",
    "VenueCode": "ATAM",
    "VenueName": "Alagesan Theatre: Ayyampalayam"
  },
  "ATJA": {
    "AvailableFormats": "2D|3D",
    "City": "Kolkata",
    "Latitude": "22.5081",
    "Longitude": "88.3203",
    "RegionCode": "BARR",
    "State": "West Bengal",
    "SubRegionCode": "BARR",
    "VenueAddress": "No.30, Diamond Harbour Road, Barabagan, Naskarpur, Behala, Kolkata, West Bengal 700038, India",
    "VenueCode": "ATJA",
    "VenueName": "SSR Ajanta Cinema: Behala"
  },
  "ATRT": {
    "AvailableFormats": "2D",
    "City": "Rayagada",
    "Latitude": "19.1759",
    "Longitude": "83.4137",
    "RegionCode": "RADA",
    "State": "Odisha",
    "SubRegionCode": "RADA",
    "VenueAddress": "College Road, Gandhi Nagar, Rayagada, Odisha 765001, India",
    "VenueCode": "ATRT",
    "VenueName": "Ashok Talkies: Rayagada"
  },
  "AUCS": {
    "AvailableFormats": "",
    "City": "Sangli",
    "FirstTracked": "2026-07-14",
    "Latitude": "16.843864",
    "Longitude": "74.60997",
    "RegionCode": "ASMA",
    "State": "Maharashtra",
    "SubRegionCode": "ASMA",
    "VenueAddress": "Center-1, Vijaynagar Chowk, Near SBI, Vijaynagar and Aroma Premium Cafe, Sangli, Maharashtra 416416, India",
    "VenueCode": "AUCS",
    "VenueName": "Aurum Cinemas: Centre 1 Mall, Sangli"
  },
  "AVPS": {
    "AvailableFormats": "2D",
    "City": "Pathanapuram",
    "Latitude": "9.09231",
    "Longitude": "76.8557",
    "RegionCode": "PTPM",
    "State": "Kerala",
    "SubRegionCode": "PTPM",
    "VenueAddress": "3rd Floor,Town Center Mall, Near KSRTC Bus Stand, Pathanapuram, Kerala 689695, India",
    "VenueCode": "AVPS",
    "VenueName": "Aashirvad Cineplexx: Pathanapuram"
  },
  "AYAA": {
    "AvailableFormats": "2D",
    "City": "Solan",
    "Latitude": "30.9058",
    "Longitude": "77.1071",
    "RegionCode": "SCO",
    "State": "Himachal Pradesh",
    "SubRegionCode": "SCO",
    "VenueAddress": "2nd Floor, G Square Mall, Kotla Nala, Solan, Himachal Pradesh 173212, India",
    "VenueCode": "AYAA",
    "VenueName": "Ayaan Cinemas: Solan (G Square Mall)"
  },
  "BAKM": {
    "AvailableFormats": "2D",
    "City": "Mulugu",
    "Latitude": "18.1934",
    "Longitude": "79.9478",
    "RegionCode": "KMLA",
    "State": "Telangana",
    "SubRegionCode": "KMLA",
    "VenueAddress": "Theatre Road, Ambedkar Colony, Near Borra Honda, Mulugu, Telangana 506343, India",
    "VenueCode": "BAKM",
    "VenueName": "Balaji Air Conditioned: Mulugu"
  },
  "BBCL": {
    "AvailableFormats": "3D|2D",
    "City": "Solapur",
    "Latitude": "17.677",
    "Longitude": "75.8986",
    "RegionCode": "SOLA",
    "State": "Maharashtra",
    "SubRegionCode": "SOLA",
    "VenueAddress": "Bhagwat Kala Chaya 8, Old Police Line, Murarji Peth, Solapur, Maharashtra 413001, India",
    "VenueCode": "BBCL",
    "VenueName": "Bhagwat Cinemas (A.C): Solapur"
  },
  "BCCR": {
    "AvailableFormats": "3D|2D",
    "City": "Cooch Behar",
    "Latitude": "26.3296",
    "Longitude": "89.4426",
    "RegionCode": "COBE",
    "State": "West Bengal",
    "SubRegionCode": "COBE",
    "VenueAddress": "Bhavani Cinema, Keshav Road, Cooch Behar, West Bengal 736101, India",
    "VenueCode": "BCCR",
    "VenueName": "Bhavani Cinema: Cooch Behar"
  },
  "BGGM": {
    "AvailableFormats": "2D",
    "City": "Asansol",
    "Latitude": "23.6847",
    "Longitude": "86.9416",
    "RegionCode": "ASANSOL",
    "State": "West Bengal",
    "SubRegionCode": "ASANSOL",
    "VenueAddress": "Burnpur Road, Chitra More, Mouja  Santa, P.O  Hirapur, District  West Burdwan, Asansol, West Bengal 713325, India",
    "VenueCode": "BGGM",
    "VenueName": "Bioscope: Galaxy Mall, Asansol"
  },
  "BHTT": {
    "AvailableFormats": "",
    "City": "Thanipadi",
    "FirstTracked": "2026-07-14",
    "Latitude": "12.106016",
    "Longitude": "78.83783",
    "RegionCode": "THPD",
    "State": "Tamil Nadu",
    "SubRegionCode": "THPD",
    "VenueAddress": "Pilliyarkovil Street, Thandrampattu, Thanipadi, Tamil Nadu 606708, India",
    "VenueCode": "BHTT",
    "VenueName": "Bharath Theatre: Thanipadi"
  },
  "BJLC": {
    "AvailableFormats": "2D",
    "City": "Kolkata",
    "Latitude": "22.5269",
    "Longitude": "88.3459",
    "RegionCode": "KOLK",
    "State": "West Bengal",
    "SubRegionCode": "KOLK",
    "VenueAddress": "No.39, Shyama Prasad Mukherjee Road, Jatin Das Park, Patuapara, Bhawanipur, Kolkata, West Bengal 700025, India",
    "VenueCode": "BJLC",
    "VenueName": "Bijoli Cinema: Kolkata"
  },
  "BLBR": {
    "AvailableFormats": "2D",
    "City": "Burhar",
    "Latitude": "23.202",
    "Longitude": "81.535",
    "RegionCode": "BRHR",
    "State": "Madhya Pradesh",
    "SubRegionCode": "BRHR",
    "VenueAddress": "Shree Shraja Mall, Shree Shraja Mall, Burhar, Madhya Pradesh 484110, India",
    "VenueCode": "BLBR",
    "VenueName": "Bliss Multiplex: Burhar"
  },
  "BMCA": {
    "AvailableFormats": "",
    "City": "Ajmer",
    "FirstTracked": "2026-07-14",
    "Latitude": "26.48096",
    "Longitude": "74.6313",
    "RegionCode": "AJMER",
    "State": "Rajasthan",
    "SubRegionCode": "AJMER",
    "VenueAddress": "CineMall Soni Colony, ASC Road, Near Ana Sagar Lake, Ajmer, Rajasthan 305001, India",
    "VenueCode": "BMCA",
    "VenueName": "Miraj Bioscope Cinemas: Ajmer"
  },
  "BOCK": {
    "AvailableFormats": "2D",
    "City": "Kuravilangad",
    "Latitude": "9.75721",
    "Longitude": "76.561",
    "RegionCode": "KURA",
    "State": "Kerala",
    "SubRegionCode": "KURA",
    "VenueAddress": "State Highway 1, Kurishupally, Kuravilangad, Near Global Collections, Kuravilangad, Kerala 686633, India",
    "VenueCode": "BOCK",
    "VenueName": "Bosco Cinemas: Kuravilangad"
  },
  "BRVP": {
    "AvailableFormats": "2D",
    "City": "Mumbai",
    "Latitude": "19.109",
    "Longitude": "72.8532",
    "RegionCode": "MUMBAI",
    "State": "Maharashtra",
    "SubRegionCode": "MWEST",
    "VenueAddress": "Wallace Towers, 139-140/B/1, Western Express Highway, Vile Parle (E), Mumbai, Maharashtra 400057, India",
    "VenueCode": "BRVP",
    "VenueName": "Bahar Cinema: Vile Parle (E)"
  },
  "BTBJ": {
    "AvailableFormats": "",
    "City": "Jajpur Town (Odisha)",
    "FirstTracked": "2026-07-14",
    "Latitude": "20.849524",
    "Longitude": "86.33777",
    "RegionCode": "JTTT",
    "State": "Odisha",
    "SubRegionCode": "JTTT",
    "VenueAddress": "Jajpur Singhpur Road, Near Hotel Kapila, Jajpur Town (Odisha), Odisha 755001, India",
    "VenueCode": "BTBJ",
    "VenueName": "Biraja Talkies: Jajpur Town, Odisha"
  },
  "BTMV": {
    "AvailableFormats": "2D",
    "City": "Vadodara",
    "Latitude": "22.267",
    "Longitude": "73.2227",
    "RegionCode": "VAD",
    "State": "Gujarat",
    "SubRegionCode": "VAD",
    "VenueAddress": "Amar Shraddha Society, Danteshwar, Tarsali, Vadodara, Gujarat 390004, India",
    "VenueCode": "BTMV",
    "VenueName": "Bansal Movieplex: Tarsali, Vadodara"
  },
  "CACP": {
    "AvailableFormats": "",
    "City": "Pulwama",
    "FirstTracked": "2026-07-14",
    "Latitude": "33.860493",
    "Longitude": "74.89726",
    "RegionCode": "PULW",
    "State": "Jammu and Kashmir",
    "SubRegionCode": "PULW",
    "VenueAddress": "District Employment, Counselling Centre, Pulwama, Jammu and Kashmir 192303, India",
    "VenueCode": "CACP",
    "VenueName": "Citara Cinemas: Pulwama"
  },
  "CBSM": {
    "AvailableFormats": "2D|3D",
    "City": "Chandigarh",
    "Latitude": "30.6734",
    "Longitude": "76.7398",
    "RegionCode": "CHD",
    "State": "Punjab",
    "SubRegionCode": "CHD",
    "VenueAddress": "Bestech Square Mall, Sector 66, Sahibzada Ajit Singh Nagar (Mohali), Chandigarh, Punjab 160062, India",
    "VenueCode": "CBSM",
    "VenueName": "Cinepolis: Bestech Square, Mohali"
  },
  "CCBZ": {
    "AvailableFormats": "",
    "City": "Bathinda",
    "FirstTracked": "2026-07-14",
    "Latitude": "30.2049",
    "Longitude": "74.95",
    "RegionCode": "BHAT",
    "State": "Punjab",
    "SubRegionCode": "BHAT",
    "VenueAddress": "3rd Floor, City Center Mall, Opposite Children Park, Civil Lines, Bathinda, Punjab 151001, India",
    "VenueCode": "CCBZ",
    "VenueName": "Cinemore Cinemas: DREAMz City Centre, Bathinda"
  },
  "CCJD": {
    "AvailableFormats": "2D",
    "City": "Jind",
    "Latitude": "29.3152",
    "Longitude": "76.3186",
    "RegionCode": "JIND",
    "State": "Haryana",
    "SubRegionCode": "JIND",
    "VenueAddress": "CSR Cinemas, CSR Mall, Near Rani Talab, Jind, Haryana 126110, India",
    "VenueCode": "CCJD",
    "VenueName": "CSR Cinemas: Jind"
  },
  "CCMH": {
    "AvailableFormats": "2D",
    "City": "Bettiah",
    "Latitude": "26.7985",
    "Longitude": "84.5065",
    "RegionCode": "BETA",
    "State": "Bihar",
    "SubRegionCode": "BETA",
    "VenueAddress": "Citi Centre Mall, 4th Floor, Town Hall Road, Meena Bazar, Bettiah, Bihar 845438, India",
    "VenueCode": "CCMH",
    "VenueName": "Mukta A2 Cinemas: Citi Centre, Bettiah"
  },
  "CCPC": {
    "AvailableFormats": "2D",
    "City": "Raisinghnagar",
    "Latitude": "29.5374",
    "Longitude": "73.4503",
    "RegionCode": "RSNG",
    "State": "Rajasthan",
    "SubRegionCode": "RSNG",
    "VenueAddress": "22 PS Road, Near - Raisingnagar railway station, Raisinghnagar, Rajasthan 335051, India",
    "VenueCode": "CCPC",
    "VenueName": "Cosmo Palace Cinema: Raisinghnagar"
  },
  "CCSH": {
    "AvailableFormats": "",
    "City": "Sarangarh",
    "FirstTracked": "2026-07-14",
    "Latitude": "21.58825",
    "Longitude": "83.08008",
    "RegionCode": "SARH",
    "State": "Chhattisgarh",
    "SubRegionCode": "SARH",
    "VenueAddress": "Behind Turki Talab, Near Durga Mandir, Sarangarh, Chhattisgarh 496445, India",
    "VenueCode": "CCSH",
    "VenueName": "City Cinema: Sarangarh"
  },
  "CDCA": {
    "AvailableFormats": "2D",
    "City": "Prayagraj (Allahabad)",
    "Latitude": "25.438",
    "Longitude": "81.8442",
    "RegionCode": "ALLH",
    "State": "Uttar Pradesh",
    "SubRegionCode": "ALLH",
    "VenueAddress": "26, Sammelan Marg, Prayagraj, Uttar Pradesh 211003, India",
    "VenueCode": "CDCA",
    "VenueName": "Chandralok Cineplex: Prayagraj"
  },
  "CECM": {
    "AvailableFormats": "2D",
    "City": "Mandi Dabwali",
    "Latitude": "29.9724",
    "Longitude": "74.7246",
    "RegionCode": "DABW",
    "State": "Haryana",
    "SubRegionCode": "DABW",
    "VenueAddress": "NH 54, Doomwali, Mandi Dabwali, Haryana 125104, India",
    "VenueCode": "CECM",
    "VenueName": "Century City Cinema: Mandi Dabwali"
  },
  "CGAR": {
    "AvailableFormats": "2D",
    "City": "Ahmedabad",
    "Latitude": "23.0319",
    "Longitude": "72.5699",
    "RegionCode": "AHD",
    "State": "Gujarat",
    "SubRegionCode": "AHD",
    "VenueAddress": "Ellis Bridge,Muslim Society, Ashram Road,Navrangpura, Near Dena Bank, Ahmedabad, Gujarat 380009, India",
    "VenueCode": "CGAR",
    "VenueName": "City Gold: Ashram Road"
  },
  "CGKD": {
    "AvailableFormats": "2D",
    "City": "Kadi",
    "Latitude": "23.2914",
    "Longitude": "72.3363",
    "RegionCode": "KADI",
    "State": "Gujarat",
    "SubRegionCode": "KADI",
    "VenueAddress": "City Park Road, Bhaupura, Near Kadi Fire Station, Kadi, Gujarat 382715, India",
    "VenueCode": "CGKD",
    "VenueName": "City Gold: Kadi"
  },
  "CHAL": {
    "AvailableFormats": "",
    "City": "Tadepalligudem",
    "Latitude": "16.8128",
    "Longitude": "81.5303",
    "RegionCode": "TANK",
    "State": "Andhra Pradesh",
    "SubRegionCode": "TANK",
    "VenueAddress": "Sheshamahal Road, Karri Satyavathi Nagar, Tadepalligudem, Andhra Pradesh 534101, India",
    "VenueCode": "CHAL",
    "VenueName": "Star Cinemas Chalapathi Theatre: Tadepalligudem"
  },
  "CHTL": {
    "AvailableFormats": "2D",
    "City": "Loni",
    "Latitude": "19.5775",
    "Longitude": "74.471",
    "RegionCode": "LONI",
    "State": "Maharashtra",
    "SubRegionCode": "LONI",
    "VenueAddress": "Rahuri, Sangmner Road, Near HP petrol Pump, Loni, Maharashtra 413713, India",
    "VenueCode": "CHTL",
    "VenueName": "Chitralay Cinema: Loni (Newly Renovated)"
  },
  "CIJA": {
    "AvailableFormats": "2D|3D",
    "City": "Delhi",
    "Latitude": "28.6109",
    "Longitude": "77.0938",
    "RegionCode": "NCR",
    "State": "NCR",
    "SubRegionCode": "DELHI",
    "VenueAddress": "Pankha Road, Block C 6A, Janakpuri, Delhi, NCR 110058, India",
    "VenueCode": "CIJA",
    "VenueName": "Cinepolis: Janak Cinema, New Delhi"
  },
  "CIXH": {
    "AvailableFormats": "",
    "City": "Ahmedabad",
    "FirstTracked": "2026-07-14",
    "Latitude": "23.0902",
    "Longitude": "72.5297",
    "RegionCode": "AHD",
    "State": "Gujarat",
    "SubRegionCode": "AHD",
    "VenueAddress": "310/11/12 Silver Radiance 4, Near Silver Oak College SG Highway, Gota, Ahmedabad, Gujarat 382481, India",
    "VenueCode": "CIXH",
    "VenueName": "CINELUX Cinema:Sola SG Highway (Newly Premium JBL)"
  },
  "CLCF": {
    "AvailableFormats": "",
    "City": "Narayanpur (Assam)",
    "FirstTracked": "2026-07-14",
    "Latitude": "26.948164",
    "Longitude": "93.85002",
    "RegionCode": "NSAZ",
    "State": "Assam",
    "SubRegionCode": "NSAZ",
    "VenueAddress": "Crazy Movie 0, Ward No.2, Narayanpur, National Highway 15, Narayanpur (Assam), Assam 784164, India",
    "VenueCode": "CLCF",
    "VenueName": "Chhotu Maharaj CineCafe: Narayanpur, Assam"
  },
  "CLLP": {
    "AvailableFormats": "2D",
    "City": "Varachha",
    "Latitude": "21.2387",
    "Longitude": "72.8794",
    "RegionCode": "SURT",
    "State": "Gujarat",
    "SubRegionCode": "VACH",
    "VenueAddress": "Atlanta Mall, Sudama chowk, Mota Varachha Main Road, Varachha, Gujarat 394101, India",
    "VenueCode": "CLLP",
    "VenueName": "The Friday Cinema: Mota Varaccha, Surat"
  },
  "CMBS": {
    "AvailableFormats": "",
    "City": "Bihar Sharif",
    "FirstTracked": "2026-07-14",
    "Latitude": "25.2034",
    "Longitude": "85.5006",
    "RegionCode": "BIHS",
    "State": "Bihar",
    "SubRegionCode": "BIHS",
    "VenueAddress": "Bardi Pahardi To Biyawani Road, Near Bardi Pahardi, Bihar Sharif, Bihar 803118, India",
    "VenueCode": "CMBS",
    "VenueName": "Chhotu Maharaj Cine Cafe: Bihar Sharif"
  },
  "CMKR": {
    "AvailableFormats": "2D",
    "City": "Sikar",
    "Latitude": "27.6219",
    "Longitude": "75.1464",
    "RegionCode": "SIKR",
    "State": "Rajasthan",
    "SubRegionCode": "SIKR",
    "VenueAddress": "04th Floor, Shiv Mandir Cinemall, Fatehpur Road, Sikar, Rajasthan 332001, India",
    "VenueCode": "CMKR",
    "VenueName": "Cine Square Cinemas: Sikar"
  },
  "CMMS": {
    "AvailableFormats": "2D",
    "City": "Sahibganj",
    "Latitude": "25.2343",
    "Longitude": "87.6339",
    "RegionCode": "SBBB",
    "State": "Jharkhand",
    "SubRegionCode": "SBBB",
    "VenueAddress": "Celebration Palace Chhotu Maharaj, Bus stand, Stadium Road, Sahibganj, Jharkhand 816109, India",
    "VenueCode": "CMMS",
    "VenueName": "Chhotu Maharaj Cine Cafe : Sahibganj, Jharkhand"
  },
  "CMTU": {
    "AvailableFormats": "2D",
    "City": "Khatima",
    "Latitude": "28.924",
    "Longitude": "79.9753",
    "RegionCode": "KHTM",
    "State": "Uttarakhand",
    "SubRegionCode": "KHTM",
    "VenueAddress": "Mj Market, Tankapur Road, Opposite -  Prayas Hospital, Khatima, Uttarakhand 262308, India",
    "VenueCode": "CMTU",
    "VenueName": "Chhotu Maharaj Cine Cafe: Khatima,Uttarakhand"
  },
  "CMXN": {
    "AvailableFormats": "2D",
    "City": "Nimbahera",
    "Latitude": "24.6251",
    "Longitude": "74.6928",
    "RegionCode": "NIPA",
    "State": "Rajasthan",
    "SubRegionCode": "NIPA",
    "VenueAddress": "Chittorgarh Road, Mahesh Nagar, Kamdhaz Nagar, Nimbahera, Rajasthan 312601, India",
    "VenueCode": "CMXN",
    "VenueName": "Crazy Multiplex: Nimbahera"
  },
  "CNCY": {
    "AvailableFormats": "2D",
    "City": "Sagar",
    "Latitude": "23.8526",
    "Longitude": "78.7808",
    "RegionCode": "SAMP",
    "State": "Madhya Pradesh",
    "SubRegionCode": "SAMP",
    "VenueAddress": "National Highway No 26, Jhansi Road, Makronia Camp, Above Parinay Banquet Hall, Sagar, Madhya Pradesh 470004, India",
    "VenueCode": "CNCY",
    "VenueName": "Cine City: Sagar"
  },
  "CNPD": {
    "AvailableFormats": "2D",
    "City": "Chintalapudi",
    "Latitude": "17.0655",
    "Longitude": "80.983",
    "RegionCode": "CHPD",
    "State": "Andhra Pradesh",
    "SubRegionCode": "CHPD",
    "VenueAddress": "Chintalapudi - Eluru Road, Near Old Bus Stand, Chintalapudi, Andhra Pradesh 534460, India",
    "VenueCode": "CNPD",
    "VenueName": "Sarada Mini A/C Theatre: Chintalapudi"
  },
  "CNTC": {
    "AvailableFormats": "",
    "City": "Coimbatore",
    "FirstTracked": "2026-07-14",
    "Latitude": "10.993464",
    "Longitude": "76.96422",
    "RegionCode": "COIM",
    "State": "Tamil Nadu",
    "SubRegionCode": "COIM",
    "VenueAddress": "191, Big Bazar Street, Town Hall, Near Railway Station, Near Koniammam Temple, Coimbatore, Tamil Nadu 641001, India",
    "VenueCode": "CNTC",
    "VenueName": "Carnatic Cinema: Coimbatore"
  },
  "COLV": {
    "AvailableFormats": "2D|3D",
    "City": "Vadodara",
    "Latitude": "22.3108",
    "Longitude": "73.1688",
    "RegionCode": "VAD",
    "State": "Gujarat",
    "SubRegionCode": "VAD",
    "VenueAddress": "Kanha Center, 2nd Floor, RC Dutt Road, Alkapuri, Opposite Hotel Express Ardhana Society, Vadodara, Gujarat 390020, India",
    "VenueCode": "COLV",
    "VenueName": "Connplex Cinemas (Luxuriance): Vadodara"
  },
  "CPAO": {
    "AvailableFormats": "3D|2D",
    "City": "Ahmedabad",
    "Latitude": "23.0378",
    "Longitude": "72.5283",
    "RegionCode": "AHD",
    "State": "Gujarat",
    "SubRegionCode": "AHD",
    "VenueAddress": "3rd Floor, Alpha One Mall, Opp Vastrapur Lake, Ahmedabad, Gujarat 380015, India",
    "VenueCode": "CPAO",
    "VenueName": "Cinepolis: Nexus Ahmedabad One"
  },
  "CPEC": {
    "AvailableFormats": "2D",
    "City": "Ahmedabad",
    "Latitude": "23.0464",
    "Longitude": "72.6737",
    "RegionCode": "AHD",
    "State": "Gujarat",
    "SubRegionCode": "AHD",
    "VenueAddress": "4th Floor, Hiltown Square, MG Road, Ahmedabad, Gujarat 382350, India",
    "VenueCode": "CPEC",
    "VenueName": "Cineprime Cinema: Nikol"
  },
  "CPKC": {
    "AvailableFormats": "2D|3D",
    "City": "Vapi",
    "Latitude": "20.3954",
    "Longitude": "72.8928",
    "RegionCode": "VAPI",
    "State": "Gujarat",
    "SubRegionCode": "VAPI",
    "VenueAddress": "Fortune Square-1, 4th Floor, Vapi -Daman Road, Chala, Vapi, Gujarat 396191, India",
    "VenueCode": "CPKC",
    "VenueName": "Cine Park: Chala, Vapi"
  },
  "CPMH": {
    "AvailableFormats": "2D|3D",
    "City": "Hyderabad",
    "Latitude": "17.4901",
    "Longitude": "78.3933",
    "RegionCode": "HYD",
    "State": "Telangana",
    "SubRegionCode": "HYD",
    "VenueAddress": "3rd Floor, Survey No.1050, KPBH Colony Phase-3, LuLu Mall,Opposite - JNTU Hi-Tech Road, Kukatpally, Kukatpally, Hyderabad, Telangana 500072, India",
    "VenueCode": "CPMH",
    "VenueName": "Cinepolis: Lulu Mall, Hyderabad"
  },
  "CPOV": {
    "AvailableFormats": "2D|3D",
    "City": "Vijayawada",
    "Latitude": "16.4888",
    "Longitude": "80.6752",
    "RegionCode": "KADU",
    "State": "Andhra Pradesh",
    "SubRegionCode": "KADU",
    "VenueAddress": "Cinepolis India Pvt Ltd, 3rd Floor, Power One Mall, Survery no -220/4 Kanuru gram, Bunder Road, District- Krishna, Vijayawada, Andhra Pradesh 520007, India",
    "VenueCode": "CPOV",
    "VenueName": "Cinepolis: Power One Mall, Vijayawada"
  },
  "CPSM": {
    "AvailableFormats": "2D",
    "City": "Ahmedabad",
    "Latitude": "23.1045",
    "Longitude": "72.5494",
    "RegionCode": "AHD",
    "State": "Gujarat",
    "SubRegionCode": "AHD",
    "VenueAddress": "Savvy Sawaraj Sports Club, 5th Floor, Vandematram Road, Near Godrej Garden City Road, Ahmedabad, Gujarat 382481, India",
    "VenueCode": "CPSM",
    "VenueName": "Savvy Swaraaj Miniplex: Gota, Ahmedabad"
  },
  "CRGM": {
    "AvailableFormats": "3D|2D",
    "City": "Gurugram (Gurgaon)",
    "Latitude": "28.3833",
    "Longitude": "77.0522",
    "RegionCode": "NCR",
    "State": "NCR",
    "SubRegionCode": "GURG",
    "VenueAddress": "Reach Airia Mall, 3rd Floor Sohna Road, Sector 68, Gurugram (Gurgaon), NCR 122103, India",
    "VenueCode": "CRGM",
    "VenueName": "Cinepolis: Airia Mall, Sohna Road, Gurgaon"
  },
  "CSCI": {
    "AvailableFormats": "2D",
    "City": "Indore",
    "Latitude": "22.7229",
    "Longitude": "75.8304",
    "RegionCode": "IND",
    "State": "Madhya Pradesh",
    "SubRegionCode": "IND",
    "VenueAddress": "2nd Floor, Space Tower, Airport Road, Above Croma, Near Surjeet Hyundai Showroom, Indore, Madhya Pradesh 452005, India",
    "VenueCode": "CSCI",
    "VenueName": "Cine Square Cinemas: Airport Road, Indore"
  },
  "CSMP": {
    "AvailableFormats": "2D",
    "City": "Ahmedabad",
    "Latitude": "23.0116",
    "Longitude": "72.5078",
    "RegionCode": "AHD",
    "State": "Gujarat",
    "SubRegionCode": "AHD",
    "VenueAddress": "2, 3, 4th Floor, Campus Corner 2, 100 Feet Road, Prahlad Nagar Garden, Ahmedabad, Gujarat 380015, India",
    "VenueCode": "CSMP",
    "VenueName": "Connplex Cinemas: Prahladnagar"
  },
  "CSTL": {
    "AvailableFormats": "2D|3D",
    "City": "Nawada",
    "Latitude": "24.8877",
    "Longitude": "85.5392",
    "RegionCode": "NAWD",
    "State": "Bihar",
    "SubRegionCode": "NAWD",
    "VenueAddress": "Natraj Picture Palace, New Area, Nawada, Nawada, Bihar 805110, India",
    "VenueCode": "CSTL",
    "VenueName": "Connplex Cinemas (Natraj): Nawada"
  },
  "CTCT": {
    "AvailableFormats": "",
    "City": "Gorantla",
    "FirstTracked": "2026-07-14",
    "Latitude": "13.984417",
    "Longitude": "77.767624",
    "RegionCode": "GORA",
    "State": "Andhra Pradesh",
    "SubRegionCode": "GORA",
    "VenueAddress": "Hindupur - Kadiri Highway, Near Sri Vinayaka Swamy Temple, Gorantla, Andhra Pradesh 515231, India",
    "VenueCode": "CTCT",
    "VenueName": "CTC Theatre: Gorantla"
  },
  "CTMP": {
    "AvailableFormats": "2D|3D",
    "City": "Pune",
    "Latitude": "18.5247",
    "Longitude": "73.8546",
    "RegionCode": "PUNE",
    "State": "Maharashtra",
    "SubRegionCode": "PUNE",
    "VenueAddress": "111, Behind Pune Muncipal Corporation Building, Shivaji Road, Shivaji Nagar, Pune, Maharashtra 411005, India",
    "VenueCode": "CTMP",
    "VenueName": "City Pride: Mangala Cinema"
  },
  "CTSR": {
    "AvailableFormats": "2D|3D",
    "City": "Pune",
    "Latitude": "18.4887",
    "Longitude": "73.8579",
    "RegionCode": "PUNE",
    "State": "Maharashtra",
    "SubRegionCode": "PUNE",
    "VenueAddress": "Market Yard, Pune Satara Road, Pune, Maharashtra 411037, India",
    "VenueCode": "CTSR",
    "VenueName": "City Pride: Satara Road"
  },
  "CVLG": {
    "AvailableFormats": "2D",
    "City": "Bengaluru",
    "Latitude": "12.9817",
    "Longitude": "77.5638",
    "RegionCode": "BANG",
    "State": "Karnataka",
    "SubRegionCode": "BANG",
    "VenueAddress": "3rd Floor, Lulu Mall, Rajajinagar, Bengaluru, Karnataka 560023, India",
    "VenueCode": "CVLG",
    "VenueName": "Cinepolis VIP: Lulu Mall, Bengaluru"
  },
  "CWTK": {
    "AvailableFormats": "2D",
    "City": "Kozhinjampara",
    "Latitude": "10.7368",
    "Longitude": "76.8327",
    "RegionCode": "PLKK",
    "State": "Kerala",
    "SubRegionCode": "PLKK",
    "VenueAddress": "Chittur Road, Near Bus Stand, Kozhinjampara, Kerala 678555, India",
    "VenueCode": "CWTK",
    "VenueName": "Cowmalya Theatre: Kozhinjampara"
  },
  "CXTE": {
    "AvailableFormats": "2D",
    "City": "Umerkote",
    "Latitude": "19.6555",
    "Longitude": "82.2213",
    "RegionCode": "UMEK",
    "State": "Odisha",
    "SubRegionCode": "UMEK",
    "VenueAddress": "JK Plaza, Infront of Reliance Trends, Dongriguda Road, Shanti Nagar, Umerkote, Odisha 764073, India",
    "VenueCode": "CXTE",
    "VenueName": "Connplex Cinemas: Umerkote"
  },
  "DBJR": {
    "AvailableFormats": "2D",
    "City": "Kalady",
    "Latitude": "10.1687",
    "Longitude": "76.443",
    "RegionCode": "KLDY",
    "State": "Kerala",
    "SubRegionCode": "KLDY",
    "VenueAddress": "Kalady Malayattoor Road, Thalayattumpilli, Kalady, Kerala 683574, India",
    "VenueCode": "DBJR",
    "VenueName": "Dreambig Jawahar CInemas: Kalady"
  },
  "DCCU": {
    "AvailableFormats": "2D",
    "City": "Thodupuzha",
    "Latitude": "9.90082",
    "Longitude": "76.7134",
    "RegionCode": "THOD",
    "State": "Kerala",
    "SubRegionCode": "THOD",
    "VenueAddress": "4th Floor, Dream Mall, Mt Sinai Road, Near Reliance Trends, Thodupuzha, Kerala 685584, India",
    "VenueCode": "DCCU",
    "VenueName": "DREAM MALL NAXA CINEMAS DOLBY 7.1"
  },
  "DCMV": {
    "AvailableFormats": "3D|2D",
    "City": "Noida",
    "Latitude": "28.5673",
    "Longitude": "77.3213",
    "RegionCode": "NCR",
    "State": "NCR",
    "SubRegionCode": "NOIDA",
    "VenueAddress": "5th Floor, DLF Mall of India, Plot No M03, A602/A701B, Sector 18, Noida, NCR 201301, India",
    "VenueCode": "DCMV",
    "VenueName": "PVR Directors Cut, DLF Mall Of India: Noida"
  },
  "DDJP": {
    "AvailableFormats": "2D",
    "City": "Jaipur",
    "Latitude": "26.8024",
    "Longitude": "75.857",
    "RegionCode": "JAIP",
    "State": "Rajasthan",
    "SubRegionCode": "JAIP",
    "VenueAddress": "DD Cinemas, 5th Floor, Viva City Mall, C-3, Mahal Road, Near Akshay Patra Temple, Mahal Yojana, Jagatpura, Shri Kishanpura, Jaipur, Rajasthan 302022, India",
    "VenueCode": "DDJP",
    "VenueName": "DD Cinemas: Vivacity Mall, Jaipur"
  },
  "DESB": {
    "AvailableFormats": "2D",
    "City": "Dhanbad",
    "Latitude": "23.7401",
    "Longitude": "86.4183",
    "RegionCode": "DHAN",
    "State": "Jharkhand",
    "SubRegionCode": "DHAN",
    "VenueAddress": "Nai Duniya Mohlla, Main Road, Jharia, Dhanbad, Jharkhand 828111, India",
    "VenueCode": "DESB",
    "VenueName": "Deshbandhu Cinema: Jharia, Dhanbad"
  },
  "DHCL": {
    "AvailableFormats": "2D",
    "City": "Badaun",
    "Latitude": "28.0319",
    "Longitude": "79.125",
    "RegionCode": "BADN",
    "State": "Uttar Pradesh",
    "SubRegionCode": "BADN",
    "VenueAddress": "Dhishoom Cinemas, 3rd floor City Mall, Labela Road, Badaun, Uttar Pradesh 243601, India",
    "VenueCode": "DHCL",
    "VenueName": "Dhishoom Cinemas, City Mall: Budaun"
  },
  "DLCN": {
    "AvailableFormats": "2D",
    "City": "Nenmara",
    "Latitude": "10.5908",
    "Longitude": "76.5954",
    "RegionCode": "NENM",
    "State": "Kerala",
    "SubRegionCode": "NENM",
    "VenueAddress": "State Highway 58, MG Road, Nenmara, Kerala 678508, India",
    "VenueCode": "DLCN",
    "VenueName": "Dhanalakshmi Cinemas: Nenmara"
  },
  "DMKT": {
    "AvailableFormats": "2D",
    "City": "Nagapattinam",
    "Latitude": "10.7691",
    "Longitude": "79.8414",
    "RegionCode": "NGPT",
    "State": "Tamil Nadu",
    "SubRegionCode": "NGPT",
    "VenueAddress": "Public Office Road, ASN Colony, Elancheran Nagar, Nagapattinam, Tamil Nadu 611001, India",
    "VenueCode": "DMKT",
    "VenueName": "Devi Cinemas (Karthik Cinemas) A/C Dolby Atmos"
  },
  "DOMY": {
    "AvailableFormats": "3D|2D",
    "City": "Ayodhya",
    "Latitude": "26.784",
    "Longitude": "82.1443",
    "RegionCode": "FAZA",
    "State": "Uttar Pradesh",
    "SubRegionCode": "FAZA",
    "VenueAddress": "3rd Floor, Mall of Avadh, Ram Path, Ayodhya, Uttar Pradesh 224001, India",
    "VenueCode": "DOMY",
    "VenueName": "Dhishoom Cinemas: Ayodhya"
  },
  "DRMY": {
    "AvailableFormats": "2D|3D",
    "City": "Mysuru (Mysore)",
    "Latitude": "12.3221",
    "Longitude": "76.6208",
    "RegionCode": "MYS",
    "State": "Karnataka",
    "SubRegionCode": "MYS",
    "VenueAddress": "Gokulam Road, Jayalakshmipuram, Behind BM Hospital, Mysuru (Mysore), Karnataka 570012, India",
    "VenueCode": "DRMY",
    "VenueName": "DRC Cinemas: BM Habitat Mall"
  },
  "DTPD": {
    "AvailableFormats": "2D",
    "City": "Pendra",
    "Latitude": "22.7551",
    "Longitude": "81.9028",
    "RegionCode": "PEND",
    "State": "Chhattisgarh",
    "SubRegionCode": "PEND",
    "VenueAddress": "Gaurella, Pendra Road, Opposite Shivam Mithai, Pendra, Chhattisgarh 495117, India",
    "VenueCode": "DTPD",
    "VenueName": "Durgesh Talkies: Pendra"
  },
  "DVCF": {
    "AvailableFormats": "2D",
    "City": "Ramjibanpur",
    "Latitude": "22.8259",
    "Longitude": "87.6007",
    "RegionCode": "PUUR",
    "State": "West Bengal",
    "SubRegionCode": "PUUR",
    "VenueAddress": "Devleen Cinema, Near Sandipa Jewellers, Pashchim Medinipur, Ramjibanpur, West Bengal 721242, India",
    "VenueCode": "DVCF",
    "VenueName": "Devleen Cinema: Ramjibanpur"
  },
  "EBCA": {
    "AvailableFormats": "",
    "City": "Kundli",
    "Latitude": "28.9099",
    "Longitude": "77.1097",
    "RegionCode": "NCR",
    "State": "NCR",
    "SubRegionCode": "KUND",
    "VenueAddress": "Parker Mall Sector 62, National Highway 1, Kundli, NCR 131028, India",
    "VenueCode": "EBCA",
    "VenueName": "eBox Cinema: Parker Mall, Kundli"
  },
  "EDMP": {
    "AvailableFormats": "2D|3D",
    "City": "Ghaziabad",
    "Latitude": "28.6412",
    "Longitude": "77.317",
    "RegionCode": "MRDG",
    "State": "NCR",
    "SubRegionCode": "MRDG",
    "VenueAddress": "East Delhi Mall, Opp Anand Vihar, Kaushambi, Near Big Bazaar, Ghaziabad, NCR 201010, India",
    "VenueCode": "EDMP",
    "VenueName": "PVR: EDM, Ghaziabad"
  },
  "ELYE": {
    "AvailableFormats": "2D|3D",
    "City": "Jorhat",
    "Latitude": "26.7568",
    "Longitude": "94.2151",
    "RegionCode": "JORT",
    "State": "Assam",
    "SubRegionCode": "JORT",
    "VenueAddress": "Gar Ali Road, Babupatty, Jorhat, Assam 785001, India",
    "VenueCode": "ELYE",
    "VenueName": "Eleye Multiplex: Jorhat"
  },
  "EOSE": {
    "AvailableFormats": "2D|3D",
    "City": "Shahdol",
    "Latitude": "23.2961",
    "Longitude": "81.3732",
    "RegionCode": "SHAH",
    "State": "Madhya Pradesh",
    "SubRegionCode": "SHAH",
    "VenueAddress": "K Square Mall, MP SH 9A, Bhatnagar, Budhar Main Road, Shahdol, Madhya Pradesh 484001, India",
    "VenueCode": "EOSE",
    "VenueName": "K-Square Cinemas: Shahdol"
  },
  "ESEM": {
    "AvailableFormats": "2D|3D",
    "City": "Pune",
    "Latitude": "18.5927",
    "Longitude": "73.7453",
    "RegionCode": "PUNE",
    "State": "Maharashtra",
    "SubRegionCode": "PUNE",
    "VenueAddress": "1st Floor, XION Mall, Hinjawadi Road, Wakad, Pune, Maharashtra 411057, India",
    "VenueCode": "ESEM",
    "VenueName": "E-SQUARE: Xion Mall, Hinjawadi"
  },
  "ETPB": {
    "AvailableFormats": "2D",
    "City": "Bhavnagar",
    "Latitude": "21.7716",
    "Longitude": "72.1462",
    "RegionCode": "BHNG",
    "State": "Gujarat",
    "SubRegionCode": "BHNG",
    "VenueAddress": "Shiva Blessing 2, Shilpi Nagar, Opposite Bhavnagar Municipal Corporation, Bhavnagar, Gujarat 364001, India",
    "VenueCode": "ETPB",
    "VenueName": "The Entertainment Park: Bhavnagar"
  },
  "EYHZ": {
    "AvailableFormats": "2D",
    "City": "Hazaribagh",
    "Latitude": "23.9914",
    "Longitude": "85.3541",
    "RegionCode": "HAZA",
    "State": "Jharkhand",
    "SubRegionCode": "HAZA",
    "VenueAddress": "Indralok Tower, 4th floor, Main Road Gwal Toli Chowk, Azad Mahalla, Hazaribagh, Jharkhand 825301, India",
    "VenueCode": "EYHZ",
    "VenueName": "Eylex Cinema: Hazaribagh"
  },
  "FCMG": {
    "AvailableFormats": "2D",
    "City": "Nipani",
    "Latitude": "16.4083",
    "Longitude": "74.4892",
    "RegionCode": "NIPN",
    "State": "Karnataka",
    "SubRegionCode": "NIPN",
    "VenueAddress": "Mall Road, Next to Nipani Bus Stand, Chikodi Road, Nipani, Karnataka 591237, India",
    "VenueCode": "FCMG",
    "VenueName": "Magnum Fun Cinemas: Nipani"
  },
  "FLMB": {
    "AvailableFormats": "2D|3D",
    "City": "Ranchi",
    "Latitude": "23.3331",
    "Longitude": "85.3171",
    "RegionCode": "RANC",
    "State": "Jharkhand",
    "SubRegionCode": "RANC",
    "VenueAddress": "Spring City Mall, Hinoo Main Road, Beside Hinoo Bridge, Ranchi, Jharkhand 834002, India",
    "VenueCode": "FLMB",
    "VenueName": "Fun Cinemas: Springcity, Ranchi"
  },
  "FMLB": {
    "AvailableFormats": "2D",
    "City": "Bengaluru",
    "Latitude": "12.9732",
    "Longitude": "77.6213",
    "RegionCode": "HOKT",
    "State": "Karnataka",
    "SubRegionCode": "HOKT",
    "VenueAddress": "2nd Floor - Lido Mall, Swamy Vivekananda Road, Halasuru, Next to Hyatt Hotel, Bengaluru, Karnataka 560008, India",
    "VenueCode": "FMLB",
    "VenueName": "INOX Lido: Off MG Road, Ulsoor"
  },
  "FNAS": {
    "AvailableFormats": "2D|3D",
    "City": "Amritsar",
    "Latitude": "31.62",
    "Longitude": "74.9068",
    "RegionCode": "AMRI",
    "State": "Punjab",
    "SubRegionCode": "AMRI",
    "VenueAddress": "Alpha One, Level-2, G.T. Road, Maqbool Pura, Amritsar, Punjab 143006, India",
    "VenueCode": "FNAS",
    "VenueName": "Cinepolis: Nexus Amritsar"
  },
  "FNJJ": {
    "AvailableFormats": "2D|3D",
    "City": "Jaipur",
    "Latitude": "26.9422",
    "Longitude": "75.771",
    "RegionCode": "JAIP",
    "State": "Rajasthan",
    "SubRegionCode": "JAIP",
    "VenueAddress": "Jhotwara Road, Plot No: 1/1, Triton Mega Mall, Jaipur, Rajasthan 302012, India",
    "VenueCode": "FNJJ",
    "VenueName": "Cinepolis: Triton Mega Mall, Jaipur"
  },
  "FQSA": {
    "AvailableFormats": "2D",
    "City": "Navi Mumbai",
    "Latitude": "19.066",
    "Longitude": "73.0083",
    "RegionCode": "MUMBAI",
    "State": "Maharashtra",
    "SubRegionCode": "THAN",
    "VenueAddress": "Sector 3, Sanpada, Navi Mumbai, Maharashtra 400705, India",
    "VenueCode": "FQSA",
    "VenueName": "Fun Square Cinema: Sanpada"
  },
  "FSTD": {
    "AvailableFormats": "2D",
    "City": "Jaipur",
    "Latitude": "26.9606",
    "Longitude": "75.7786",
    "RegionCode": "JAIP",
    "State": "Rajasthan",
    "SubRegionCode": "JAIP",
    "VenueAddress": "Vidyadhar Nagar, Times square Mall, Jaipur, Rajasthan 302039, India",
    "VenueCode": "FSTD",
    "VenueName": "Funstar Cinemas: Vidhyadhar Nagar, Jaipur"
  },
  "GAGC": {
    "AvailableFormats": "2D",
    "City": "Delhi",
    "Latitude": "28.6964",
    "Longitude": "77.3149",
    "RegionCode": "NCR",
    "State": "NCR",
    "SubRegionCode": "DELHI",
    "VenueAddress": "Main Road Nand Nagari, Kanchipuram, Community Centre, Village Mandoli, Delhi, NCR 110093, India",
    "VenueCode": "GAGC",
    "VenueName": "Gagan Theatre: Nand Nagri, Delhi"
  },
  "GATP": {
    "AvailableFormats": "2D",
    "City": "Palakollu",
    "Latitude": "16.5176",
    "Longitude": "81.7184",
    "RegionCode": "PLKL",
    "State": "Andhra Pradesh",
    "SubRegionCode": "PLKL",
    "VenueAddress": "PP Road, Near Krishna Bhavani Hospital, Palakollu, Andhra Pradesh 534260, India",
    "VenueCode": "GATP",
    "VenueName": "Geetha Annapurna Theatre: Palakollu"
  },
  "GCBA": {
    "AvailableFormats": "2D",
    "City": "Barnala",
    "Latitude": "30.2621",
    "Longitude": "75.2356",
    "RegionCode": "BAR",
    "State": "Punjab",
    "SubRegionCode": "BAR",
    "VenueAddress": "Bathinda Road, Near T-Point, Barnala, Punjab 148101, India",
    "VenueCode": "GCBA",
    "VenueName": "GE Cinemas: Barnala"
  },
  "GCDT": {
    "AvailableFormats": "2D",
    "City": "Thrissur",
    "Latitude": "10.5091",
    "Longitude": "76.2374",
    "RegionCode": "MANR",
    "State": "Kerala",
    "SubRegionCode": "MANR",
    "VenueAddress": "Valarkavu, Nehru Nagar, Kuriachira P.O, Thrissur, Kerala 680006, India",
    "VenueCode": "GCDT",
    "VenueName": "Ganam Cinemas 4K RGB Laser Dolby Atmos: Thrissur"
  },
  "GCKG": {
    "AvailableFormats": "2D",
    "City": "Kokrajhar",
    "Latitude": "26.4275",
    "Longitude": "90.2815",
    "RegionCode": "KKJR",
    "State": "Assam",
    "SubRegionCode": "KKJR",
    "VenueAddress": "Dimalgaon, Near Jwngma Hotel, Kokrajhar, Assam 783370, India",
    "VenueCode": "GCKG",
    "VenueName": "Gold Cinema: Kokrajhar"
  },
  "GCMM": {
    "AvailableFormats": "2D",
    "City": "Madurai",
    "Latitude": "9.93746",
    "Longitude": "78.1219",
    "RegionCode": "MADU",
    "State": "Tamil Nadu",
    "SubRegionCode": "MADU",
    "VenueAddress": "50 Feet Road, Sellur, Madurai, Tamil Nadu 625002, India",
    "VenueCode": "GCMM",
    "VenueName": "Gopuram Cinemas ATMOS and Laser Projector: Madurai"
  },
  "GCTA": {
    "AvailableFormats": "2D",
    "City": "Alwar",
    "Latitude": "27.5611",
    "Longitude": "76.6048",
    "RegionCode": "ALWR",
    "State": "Rajasthan",
    "SubRegionCode": "ALWR",
    "VenueAddress": "3rd Floor, Capital Galleria Plot No 4, Manumarg Kabir Colony, Alwar, Rajasthan 301001, India",
    "VenueCode": "GCTA",
    "VenueName": "Gold Cinema: Alwar CG, Manu Marg"
  },
  "GDBW": {
    "AvailableFormats": "2D",
    "City": "Bhiwadi",
    "Latitude": "28.2131",
    "Longitude": "76.8545",
    "RegionCode": "BHWD",
    "State": "Rajasthan",
    "SubRegionCode": "BHWD",
    "VenueAddress": "Capital Mall, H.C. Buildcon Pvt. Ltd. 812 C.P. 4 Riico Industrial Area, Bhiwadi, Rajasthan 301019, India",
    "VenueCode": "GDBW",
    "VenueName": "Gold Cinema: Bhiwadi"
  },
  "GDKA": {
    "AvailableFormats": "2D",
    "City": "Kota",
    "Latitude": "25.1683",
    "Longitude": "75.8532",
    "RegionCode": "KOTA",
    "State": "Rajasthan",
    "SubRegionCode": "KOTA",
    "VenueAddress": "Aakash Multiplex, Aerodrome Circle, New Grain Mandi,Kota, Rajasthan 324007, India",
    "VenueCode": "GDKA",
    "VenueName": "Gold Cinema: Kota"
  },
  "GEKR": {
    "AvailableFormats": "2D",
    "City": "Tumakuru (Tumkur)",
    "Latitude": "13.3375",
    "Longitude": "77.1039",
    "RegionCode": "TUMK",
    "State": "Karnataka",
    "SubRegionCode": "TUMK",
    "VenueAddress": "B.H. Road, CSI Layout, Near Shiva Agencies, Tumakuru (Tumkur), Karnataka 572101, India",
    "VenueCode": "GEKR",
    "VenueName": "Gayatri Theater 2K Digital A/C Dolby: Tumakuru"
  },
  "GGGZ": {
    "AvailableFormats": "2D",
    "City": "Jalore",
    "Latitude": "25.339",
    "Longitude": "72.6284",
    "RegionCode": "LALO",
    "State": "Rajasthan",
    "SubRegionCode": "LALO",
    "VenueAddress": "RSS Entertainments, Graveet Tower, Bhinmal by Pass Road, Jalore, Rajasthan 343001, India",
    "VenueCode": "GGGZ",
    "VenueName": "Glitz Cinemas: Jalore"
  },
  "GKCC": {
    "AvailableFormats": "2D",
    "City": "Coimbatore",
    "Latitude": "10.9543",
    "Longitude": "76.7892",
    "RegionCode": "COIM",
    "State": "Tamil Nadu",
    "SubRegionCode": "COIM",
    "VenueAddress": "Siruvani Road, Alandurai, Near Canara Bank, Coimbatore, Tamil Nadu 641010, India",
    "VenueCode": "GKCC",
    "VenueName": "Gokulam Cinemas A/C 2K: Coimbatore"
  },
  "GLDC": {
    "AvailableFormats": "2D",
    "City": "Chaygaon",
    "Latitude": "26.0476",
    "Longitude": "91.3844",
    "RegionCode": "CHOG",
    "State": "Assam",
    "SubRegionCode": "CHOG",
    "VenueAddress": "Goalpara - Guwahati Road, Near Bank Of Baroda, Chaygaon, Assam 781124, India",
    "VenueCode": "GLDC",
    "VenueName": "Gold Cinema: Chaygaon"
  },
  "GNDS": {
    "AvailableFormats": "2D",
    "City": "Shikrapur",
    "Latitude": "18.703",
    "Longitude": "74.1389",
    "RegionCode": "SKHR",
    "State": "Maharashtra",
    "SubRegionCode": "SKHR",
    "VenueAddress": "Besides Nandini Villa, Hiware Road, Shikrapur, Maharashtra 412208, India",
    "VenueCode": "GNDS",
    "VenueName": "Gunjan Dijeplex: Shikrapur"
  },
  "GPAM": {
    "AvailableFormats": "2D",
    "City": "Bengaluru",
    "Latitude": "12.9359",
    "Longitude": "77.5176",
    "RegionCode": "HOKT",
    "State": "Karnataka",
    "SubRegionCode": "HOKT",
    "VenueAddress": "Arcade Mall, Rajarajeshwari Nagar, Opposite The Club Mysore Road, Bengaluru, Karnataka 560098, India",
    "VenueCode": "GPAM",
    "VenueName": "Gopalan Cinemas: Arcade Mall, Mysore Road"
  },
  "GPRH": {
    "AvailableFormats": "2D|3D",
    "City": "Hyderabad",
    "Latitude": "17.4993",
    "Longitude": "78.3907",
    "RegionCode": "HYD",
    "State": "Telangana",
    "SubRegionCode": "HYD",
    "VenueAddress": "Nizampet X Roads, Kukatpally, Hyderabad, Telangana 500072, India",
    "VenueCode": "GPRH",
    "VenueName": "GPR Multiplex: Nizampet, Hyderabad"
  },
  "GRNT": {
    "AvailableFormats": "",
    "City": "Ongole",
    "FirstTracked": "2026-07-14",
    "Latitude": "15.51021",
    "Longitude": "80.05091",
    "RegionCode": "ADKI",
    "State": "Andhra Pradesh",
    "SubRegionCode": "ADKI",
    "VenueAddress": "Cumbu, Gopal Nagar, Near Andhra Bank, Ongole, Andhra Pradesh 523001, India",
    "VenueCode": "GRNT",
    "VenueName": "Gorantla Cinemas: Ongole"
  },
  "GTCK": {
    "AvailableFormats": "2D",
    "City": "Trivandrum",
    "Latitude": "8.60425",
    "Longitude": "76.8156",
    "RegionCode": "VKAL",
    "State": "Kerala",
    "SubRegionCode": "VKAL",
    "VenueAddress": "Puthukurichy (P.O), Kaniyapuram, Near V Tracks Cinemas, Trivandrum, Kerala 695303, India",
    "VenueCode": "GTCK",
    "VenueName": "GTracks Screen 2 Sony 4K: Kadinamkulam"
  },
  "GTNA": {
    "AvailableFormats": "2D",
    "City": "Nidadavolu",
    "Latitude": "16.9054",
    "Longitude": "81.6714",
    "RegionCode": "NDVD",
    "State": "Andhra Pradesh",
    "SubRegionCode": "NDVD",
    "VenueAddress": "Nidadavole Road, West Godavari, Opposite Ratna Nursing Home, Nidadavolu, Andhra Pradesh 534301, India",
    "VenueCode": "GTNA",
    "VenueName": "Ganapathi Theatre A/C Dts: Nidadavolu"
  },
  "GTWH": {
    "AvailableFormats": "2D|3D",
    "City": "Wardha",
    "Latitude": "20.7372",
    "Longitude": "78.6028",
    "RegionCode": "WARD",
    "State": "Maharashtra",
    "SubRegionCode": "WARD",
    "VenueAddress": "Sevagram Road, Mahadevpura, Near District General Hospital, Wardha, Maharashtra 442001, India",
    "VenueCode": "GTWH",
    "VenueName": "Ganesh Talkies: Wardha"
  },
  "HAMC": {
    "AvailableFormats": "2D",
    "City": "Shikarpur",
    "Latitude": "28.2792",
    "Longitude": "78.0104",
    "RegionCode": "SHIP",
    "State": "Uttar Pradesh",
    "SubRegionCode": "SHIP",
    "VenueAddress": "HEM Palace Cinema, 100 Kot Shar Khan, Bulandshahr, Shikarpur, Uttar Pradesh 203129, India",
    "VenueCode": "HAMC",
    "VenueName": "Hem Cineplex: Shikarpur"
  },
  "HCKI": {
    "AvailableFormats": "2D",
    "City": "Kotputli",
    "Latitude": "27.7087",
    "Longitude": "76.1956",
    "RegionCode": "KPLI",
    "State": "Rajasthan",
    "SubRegionCode": "KPLI",
    "VenueAddress": "NH 8, Near Patel Oil Company, Kotputli, Rajasthan 303108, India",
    "VenueCode": "HCKI",
    "VenueName": "Heeramoti Cinema: Kotputli"
  },
  "HHCG": {
    "AvailableFormats": "2D",
    "City": "Guntur",
    "Latitude": "16.3097",
    "Longitude": "80.4342",
    "RegionCode": "GUNT",
    "State": "Andhra Pradesh",
    "SubRegionCode": "GUNT",
    "VenueAddress": "Opp LVR Club, Road Lakshmipuram, Koritepadu Road, Guntur, Andhra Pradesh 522007, India",
    "VenueCode": "HHCG",
    "VenueName": "Harihar Cinemas: Guntur"
  },
  "HOUT": {
    "AvailableFormats": "2D",
    "City": "Moranhat",
    "Latitude": "27.1869",
    "Longitude": "94.9144",
    "RegionCode": "MORH",
    "State": "Assam",
    "SubRegionCode": "MORH",
    "VenueAddress": "Peoli Nagar, AT Road, Near State Bank Of India, Moranhat, Assam 785670, India",
    "VenueCode": "HOUT",
    "VenueName": "Houseful Talkies: Moranhat"
  },
  "HVCD": {
    "AvailableFormats": "",
    "City": "Gurugram (Gurgaon)",
    "Latitude": "28.403",
    "Longitude": "76.9739",
    "RegionCode": "NCR",
    "State": "NCR",
    "SubRegionCode": "GURG",
    "VenueAddress": "SVH Metro Street, 2nd Floor, Sector 83, Gurugram (Gurgaon), NCR 122012, India",
    "VenueCode": "HVCD",
    "VenueName": "Cineport Cinemas: SVH Metro Street, Sector 83"
  },
  "IDRM": {
    "AvailableFormats": "2D|3D",
    "City": "Bhubaneswar",
    "Latitude": "20.241",
    "Longitude": "85.7585",
    "RegionCode": "JATN",
    "State": "Odisha",
    "SubRegionCode": "JATN",
    "VenueAddress": "2nd Floor, DN Regalia Mall, IDCO Plot No 1/A, Bhagabanpur Industrial Estate, Patrapada, Bhubaneswar, Odisha 751019, India",
    "VenueCode": "IDRM",
    "VenueName": "INOX: DN Regalia Mall"
  },
  "ILKS": {
    "AvailableFormats": "2D",
    "City": "Hyderabad",
    "Latitude": "17.477071",
    "Longitude": "78.422257",
    "RegionCode": "HYD",
    "State": "Telangana",
    "SubRegionCode": "HYD",
    "VenueAddress": "2nd Floor, Lake Shore Mall, IDA Kukatpally, Hyderabad, Telangana 500072, India",
    "VenueCode": "ILKS",
    "VenueName": "PVR Lakeshore PXL 4K Laser ATMOS DTS-X Y Junction"
  },
  "IMKN": {
    "AvailableFormats": "2D|3D",
    "City": "Kolkata",
    "Latitude": "22.7032",
    "Longitude": "88.4718",
    "RegionCode": "KOLK",
    "State": "West Bengal",
    "SubRegionCode": "KOLK",
    "VenueAddress": "3rd Floor, Star Mall, 74/Mall/1 Jessore Road (North), Sisir Kunja,Madhyamgram, Kolkata, West Bengal 700129, India",
    "VenueCode": "IMKN",
    "VenueName": "INOX: Star Mall, Madhyamgram"
  },
  "INAG": {
    "AvailableFormats": "3D|2D",
    "City": "Guwahati",
    "Latitude": "26.1495",
    "Longitude": "91.7858",
    "RegionCode": "GUW",
    "State": "Assam",
    "SubRegionCode": "GUW",
    "VenueAddress": "Aurus Mall, 5th Floor, G.S. Road, Dispur, Guwahati, Assam 781006, India",
    "VenueCode": "INAG",
    "VenueName": "INOX: Aurus, Guwahati"
  },
  "INBM": {
    "AvailableFormats": "2D|3D",
    "City": "Bengaluru",
    "Latitude": "12.966",
    "Longitude": "77.7179",
    "RegionCode": "HOKT",
    "State": "Karnataka",
    "SubRegionCode": "HOKT",
    "VenueAddress": "INOX Leisure Ltd, 4th Floor, Brookefield Mall, Kundalahalli Main Road, Bengaluru, Karnataka 560037, India",
    "VenueCode": "INBM",
    "VenueName": "INOX: Brookefield Mall"
  },
  "INEL": {
    "AvailableFormats": "2D|3D",
    "City": "Lucknow",
    "Latitude": "26.788",
    "Longitude": "80.9105",
    "RegionCode": "LUCK",
    "State": "Uttar Pradesh",
    "SubRegionCode": "LUCK",
    "VenueAddress": "3rd Floor, Emerald Mall, CP 138, Sector D1, LDA Colony, Ashiyana, Lucknow, Uttar Pradesh 226012, India",
    "VenueCode": "INEL",
    "VenueName": "INOX: Megaplex Emerald, Lucknow"
  },
  "INHD": {
    "AvailableFormats": "2D",
    "City": "Kolkata",
    "Latitude": "22.5649",
    "Longitude": "88.3592",
    "RegionCode": "KOLK",
    "State": "West Bengal",
    "SubRegionCode": "KOLK",
    "VenueAddress": "76, Ganesh Chandra Avenue, Bow Bazaar, Dharmatala, Near Chandni Chowk Metro Station, Kolkata, West Bengal 700013, India",
    "VenueCode": "INHD",
    "VenueName": "Hind INOX: Kolkata"
  },
  "INMB": {
    "AvailableFormats": "2D|IMAX 2D|3D",
    "City": "Bengaluru",
    "Latitude": "12.9922",
    "Longitude": "77.5703",
    "RegionCode": "HOKT",
    "State": "Karnataka",
    "SubRegionCode": "HOKT",
    "VenueAddress": "Mantri Square Mall, Sampige Road, Malleswaram, Bengaluru, Karnataka 560052, India",
    "VenueCode": "INMB",
    "VenueName": "INOX: Mantri Square, Malleshwaram"
  },
  "INOG": {
    "AvailableFormats": "2D|3D",
    "City": "Kalaburagi (Gulbarga)",
    "Latitude": "17.3287",
    "Longitude": "76.8337",
    "RegionCode": "GULB",
    "State": "Karnataka",
    "SubRegionCode": "GULB",
    "VenueAddress": "Mahaveer Nagar, Khuba Plot, Brhampur, Kalaburagi (Gulbarga), Karnataka 585105, India",
    "VenueCode": "INOG",
    "VenueName": "INOX: Orchid Mall, Kalaburagi"
  },
  "INPT": {
    "AvailableFormats": "2D|3D",
    "City": "Coimbatore",
    "Latitude": "11.0548",
    "Longitude": "76.9943",
    "RegionCode": "COIM",
    "State": "Tamil Nadu",
    "SubRegionCode": "COIM",
    "VenueAddress": "S.F. No. 201, Sathy Main Road, Coimbatore, Tamil Nadu 641035, India",
    "VenueCode": "INPT",
    "VenueName": "INOX: Prozone Mall, Coimbatore"
  },
  "INRZ": {
    "AvailableFormats": "IMAX 2D|2D",
    "City": "Bengaluru",
    "Latitude": "13.0943",
    "Longitude": "77.5956",
    "RegionCode": "HOKT",
    "State": "Karnataka",
    "SubRegionCode": "HOKT",
    "VenueAddress": "INOX Leisure Ltd.,2nd Floor, Galleria Mall, Ambedkar Colony, Yelahanka, Bengaluru, Karnataka 560064, India",
    "VenueCode": "INRZ",
    "VenueName": "INOX: Galleria Mall, Yelahanka"
  },
  "INTM": {
    "AvailableFormats": "3D|2D",
    "City": "Nagpur",
    "Latitude": "21.173",
    "Longitude": "79.1004",
    "RegionCode": "NAGP",
    "State": "Maharashtra",
    "SubRegionCode": "NAGP",
    "VenueAddress": "1st floor, Jaswant Tuli Mall, Indora Square, Kamptee Road, Near Indora Chowk, Nagpur, Maharashtra 440017, India",
    "VenueCode": "INTM",
    "VenueName": "INOX: Jaswant Tuli Mall, Kamptee Road"
  },
  "INVM": {
    "AvailableFormats": "2D|3D|IMAX 2D",
    "City": "Delhi",
    "Latitude": "28.6508",
    "Longitude": "77.1206",
    "RegionCode": "NCR",
    "State": "NCR",
    "SubRegionCode": "DELHI",
    "VenueAddress": "1st Floor, Vishal Cinema Complex, Plot No 1, District Center Rajouri Garden, Delhi, NCR 110027, India",
    "VenueCode": "INVM",
    "VenueName": "INOX: Vishal Mall, Rajouri Garden"
  },
  "INZS": {
    "AvailableFormats": "2D|3D",
    "City": "Kanpur",
    "Latitude": "26.473",
    "Longitude": "80.353",
    "RegionCode": "KANP",
    "State": "Uttar Pradesh",
    "SubRegionCode": "KANP",
    "VenueAddress": "3rd Floor, Z Square Mall, Bada Chauraha, Mahatma Gandhi Road, Mall Road, Downtown, Kanpur, Uttar Pradesh 208001, India",
    "VenueCode": "INZS",
    "VenueName": "INOX: Z Square, Bada Chauraha"
  },
  "IPCM": {
    "AvailableFormats": "2D",
    "City": "Varanasi",
    "Latitude": "25.2975",
    "Longitude": "83.0012",
    "RegionCode": "VAR",
    "State": "Uttar Pradesh",
    "SubRegionCode": "VAR",
    "VenueAddress": "Vijaya Mall, Bhelupur Crossing, Durgakund Road, Varanasi, Uttar Pradesh 221010, India",
    "VenueCode": "IPCM",
    "VenueName": "IP Cinemas: IP Vijaya Mall, Varanasi"
  },
  "IRMM": {
    "AvailableFormats": "2D|3D",
    "City": "Vadodara",
    "Latitude": "22.2851",
    "Longitude": "73.1641",
    "RegionCode": "VAD",
    "State": "Gujarat",
    "SubRegionCode": "VAD",
    "VenueAddress": "Reliance Mega Mall, Old Padra Road, Muj Mahuda, Vadodara, Gujarat 390020, India",
    "VenueCode": "IRMM",
    "VenueName": "INOX: Reliance Mega Mall, Vadodara"
  },
  "ISTN": {
    "AvailableFormats": "2D|3D",
    "City": "Hyderabad",
    "Latitude": "17.4237",
    "Longitude": "78.4951",
    "RegionCode": "HYD",
    "State": "Telangana",
    "SubRegionCode": "HYD",
    "VenueAddress": "INOX Leisure Ltd, 4th Floor, Sattva Necklace Mall, Kavadiguda Main Road, Secunderabad, Hyderabad, Telangana 500080, India",
    "VenueCode": "ISTN",
    "VenueName": "INOX: Sattva Necklace Mall, Kavadiguda"
  },
  "JACS": {
    "AvailableFormats": "2D",
    "City": "Madurai",
    "Latitude": "9.92872",
    "Longitude": "78.1488",
    "RegionCode": "MADU",
    "State": "Tamil Nadu",
    "SubRegionCode": "MADU",
    "VenueAddress": "5, 80 Feet Road, Deputy Collector Colony, k.k.Nagar, Madurai, Tamil Nadu 625020, India",
    "VenueCode": "JACS",
    "VenueName": "Jazz And Arsh Cinemas A/C Sony 4K: Madurai"
  },
  "JCCB": {
    "AvailableFormats": "2D|3D",
    "City": "Cooch Behar",
    "Latitude": "26.3451",
    "Longitude": "89.4559",
    "RegionCode": "COBE",
    "State": "West Bengal",
    "SubRegionCode": "COBE",
    "VenueAddress": "City Mall, Near 133 KVA Electric Substation, East Khagrabari, New Cooch Behar Road, Cooch Behar, West Bengal 736179, India",
    "VenueCode": "JCCB",
    "VenueName": "Jaya Cinemas, City Mall: Cooch Behar"
  },
  "JCRJ": {
    "AvailableFormats": "2D",
    "City": "Jamnagar",
    "Latitude": "22.4451",
    "Longitude": "70.1166",
    "RegionCode": "JAM",
    "State": "Gujarat",
    "SubRegionCode": "JAM",
    "VenueAddress": "JCR Drive-In Cinema, Theba Chokdi, Jamnagar-Dwarka Bypass Road, Jamnagar, Gujarat 361120, India",
    "VenueCode": "JCRJ",
    "VenueName": "JCR Drive-In Cinema: Jamnagar, Gujarat"
  },
  "JGTK": {
    "AvailableFormats": "2D",
    "City": "Jayamkondacholapuram",
    "Latitude": "11.2136",
    "Longitude": "79.3569",
    "RegionCode": "JYAM",
    "State": "Tamil Nadu",
    "SubRegionCode": "JYAM",
    "VenueAddress": "National Highway 227, Jayankondam, Near Mangalam mahal, Jayamkondacholapuram, Tamil Nadu 621802, India",
    "VenueCode": "JGTK",
    "VenueName": "JANAGAR CINEMAS A/C DOLBY 7.1"
  },
  "JKCM": {
    "AvailableFormats": "2D",
    "City": "Irinjalakuda",
    "Latitude": "10.3651",
    "Longitude": "76.1944",
    "RegionCode": "IRNK",
    "State": "Kerala",
    "SubRegionCode": "IRNK",
    "VenueAddress": "Kizhuthani, Irinjalakuda Kattoor Road, Near JK Theatres, Irinjalakuda, Kerala 680125, India",
    "VenueCode": "JKCM",
    "VenueName": "JK Cinemas 4K Dolby Atmos: Kizhuthani"
  },
  "JMJR": {
    "AvailableFormats": "2D|3D",
    "City": "Kolkata",
    "Latitude": "22.7127",
    "Longitude": "88.4753",
    "RegionCode": "BSRT",
    "State": "West Bengal",
    "SubRegionCode": "BSRT",
    "VenueAddress": "1/3 Jessore Road, Barasat, Near Duck Banglow More, Kolkata, West Bengal 700124, India",
    "VenueCode": "JMJR",
    "VenueName": "Jaya Cinemas: City Mall, Barasat"
  },
  "JRCR": {
    "AvailableFormats": "2D",
    "City": "Raghopur",
    "Latitude": "26.3047",
    "Longitude": "86.8414",
    "RegionCode": "RAHO",
    "State": "Bihar",
    "SubRegionCode": "RAHO",
    "VenueAddress": "Raghopur Police Station, Piprahi, National Highway 106, Near Ganesh Electronics, Raghopur, Bihar 852111, India",
    "VenueCode": "JRCR",
    "VenueName": "Jai Rajan Cinema: Raghopur"
  },
  "JTBL": {
    "AvailableFormats": "2D",
    "City": "Vizag (Visakhapatnam)",
    "Latitude": "17.7217",
    "Longitude": "83.2032",
    "RegionCode": "SABB",
    "State": "Andhra Pradesh",
    "SubRegionCode": "SABB",
    "VenueAddress": "No.6-175/20, Sheela Nagar, Beside Ayyapa Swamy Temple, Vizag, Andhra Pradesh 530012, India",
    "VenueCode": "JTBL",
    "VenueName": "STBL Cine World, Sheelanagar: Vizag"
  },
  "JTKZ": {
    "AvailableFormats": "2D",
    "City": "Kozhikode",
    "Latitude": "11.1781",
    "Longitude": "75.8658",
    "RegionCode": "KOZH",
    "State": "Kerala",
    "SubRegionCode": "KOZH",
    "VenueAddress": "3rd Floor, Surabhi Mall, Kozhikode-Palakkad Highway, Ramanattukara, Kozhikode, Kerala 673633, India",
    "VenueCode": "JTKZ",
    "VenueName": "Surabhi Cinemas 4K Dolby Atmos: Kozhikode"
  },
  "JTNM": {
    "AvailableFormats": "2D",
    "City": "Martur",
    "Latitude": "15.9869",
    "Longitude": "80.1031",
    "RegionCode": "MART",
    "State": "Andhra Pradesh",
    "SubRegionCode": "MART",
    "VenueAddress": "Konidena Road, Near Andhra Pragati Grameena Bank, Martur, Andhra Pradesh 523301, India",
    "VenueCode": "JTNM",
    "VenueName": "NR Cinemas A/C Dts: Martur"
  },
  "JTSA": {
    "AvailableFormats": "",
    "City": "Sathupally",
    "FirstTracked": "2026-07-14",
    "Latitude": "17.209696",
    "Longitude": "80.83479",
    "RegionCode": "SATH",
    "State": "Telangana",
    "SubRegionCode": "SATH",
    "VenueAddress": "Aswaraopeta, Srinivasa Theatre Road, Sathupally, Telangana 507303, India",
    "VenueCode": "JTSA",
    "VenueName": "Srinivasa Picture Palace: Sathupally"
  },
  "JTTR": {
    "AvailableFormats": "2D",
    "City": "Jaisalmer",
    "Latitude": "26.9178",
    "Longitude": "70.9136",
    "RegionCode": "JSMR",
    "State": "Rajasthan",
    "SubRegionCode": "JSMR",
    "VenueAddress": "Patwon Ki Haveliyan Road,Amar Sagar Pol,Jaisalmer, Rajasthan 345001, India",
    "VenueCode": "JTTR",
    "VenueName": "Ramesh Talkies: Jaisalmer"
  },
  "JVRM": {
    "AvailableFormats": "2D",
    "City": "Pondicherry",
    "Latitude": "11.9371",
    "Longitude": "79.8226",
    "RegionCode": "AURV",
    "State": "Tamil Nadu",
    "SubRegionCode": "AURV",
    "VenueAddress": "No. 65, Kamaraj Salai, Opposite Hotel Jayaram, Near Punjab National Bank, Pondicherry, Tamil Nadu 605011, India",
    "VenueCode": "JVRM",
    "VenueName": "Jeeva Rukmani Cinemas 4K RGB ATMOS: Pondicherry"
  },
  "KACC": {
    "AvailableFormats": "2D",
    "City": "Coimbatore",
    "Latitude": "10.8806",
    "Longitude": "76.9057",
    "RegionCode": "COIM",
    "State": "Tamil Nadu",
    "SubRegionCode": "COIM",
    "VenueAddress": "K.G.Chavadi Bypass Road, Kandhe Gounden Chavadi, Coimbatore, Tamil Nadu 641105, India",
    "VenueCode": "KACC",
    "VenueName": "Kavitha Cinemas 4K Dolby Atmos: K.G. Chavadi"
  },
  "KARP": {
    "AvailableFormats": "2D",
    "City": "Coimbatore",
    "Latitude": "11.0194",
    "Longitude": "76.9638",
    "RegionCode": "COIM",
    "State": "Tamil Nadu",
    "SubRegionCode": "COIM",
    "VenueAddress": "No-161, 100 Feet Road, Gandhi Puram, Opposite Bharath Electronics, Coimbatore, Tamil Nadu 641012, India",
    "VenueCode": "KARP",
    "VenueName": "Karpagam Theatres 4K Dolby Atmos: Coimbatore"
  },
  "KBTT": {
    "AvailableFormats": "2D",
    "City": "Trivandrum",
    "Latitude": "8.49955",
    "Longitude": "76.958",
    "RegionCode": "VKAL",
    "State": "Kerala",
    "SubRegionCode": "VKAL",
    "VenueAddress": "Womens College Road, Chalachitra Kalabhavan CV Raman Pillai Road, Near Dianby Kids World, Trivandrum, Kerala 695014, India",
    "VenueCode": "KBTT",
    "VenueName": "Kalabhavan Theatre Triple Beam 3D: Trivandrum"
  },
  "KCKN": {
    "AvailableFormats": "2D",
    "City": "Kondagaon",
    "Latitude": "19.5952",
    "Longitude": "81.6674",
    "RegionCode": "KNGN",
    "State": "Chhattisgarh",
    "SubRegionCode": "KNGN",
    "VenueAddress": "Bazar para, Near Sahu Communication, Kondagaon, Chhattisgarh 494226, India",
    "VenueCode": "KCKN",
    "VenueName": "Kishore Cineplex: Kondagaon"
  },
  "KCSN": {
    "AvailableFormats": "",
    "City": "Namakkal",
    "FirstTracked": "2026-07-14",
    "Latitude": "11.22639",
    "Longitude": "78.16373",
    "RegionCode": "NMKL",
    "State": "Tamil Nadu",
    "SubRegionCode": "NMKL",
    "VenueAddress": "49, R.P Pudur, Salem - Namakkal Road, Namakkal, Tamil Nadu 637001, India",
    "VenueCode": "KCSN",
    "VenueName": "KS Cineplex Screen 2 by DNC Theatres: Namakkal"
  },
  "KDCU": {
    "AvailableFormats": "",
    "City": "Surat",
    "FirstTracked": "2026-07-14",
    "Latitude": "21.179148",
    "Longitude": "72.962944",
    "RegionCode": "SURT",
    "State": "Gujarat",
    "SubRegionCode": "SURT",
    "VenueAddress": "Chhatrala City Centre Near NH8, Mc Donalds Kadodara At - Umbhel, Kamrej, Surat, Gujarat 394325, India",
    "VenueCode": "KDCU",
    "VenueName": "K.D. Cinema: Chhatrala Mall, Kadodara-Surat"
  },
  "KHNN": {
    "AvailableFormats": "",
    "City": "Khanna",
    "FirstTracked": "2026-07-14",
    "Latitude": "30.68618",
    "Longitude": "76.25217",
    "RegionCode": "KHAN",
    "State": "Punjab",
    "SubRegionCode": "KHAN",
    "VenueAddress": "The Celebration Bazaar, 15, Near PVR, Khanna, Punjab 141401, India",
    "VenueCode": "KHNN",
    "VenueName": "12D Cinema: Khanna"
  },
  "KKMB": {
    "AvailableFormats": "2D",
    "City": "Navi Mumbai",
    "Latitude": "19.101",
    "Longitude": "73.0102",
    "RegionCode": "MUMBAI",
    "State": "Maharashtra",
    "SubRegionCode": "THAN",
    "VenueAddress": "Bonkode Road, Near Railway Station,Sector 8, RS Regency Road, Kopar Khairane, Navi Mumbai, Maharashtra 400709, India",
    "VenueCode": "KKMB",
    "VenueName": "BMX Cinemas (Balaji Movieplex): Koparkhairane"
  },
  "KLPA": {
    "AvailableFormats": "2D",
    "City": "Udupi",
    "Latitude": "13.3362",
    "Longitude": "74.7505",
    "RegionCode": "MANI",
    "State": "Karnataka",
    "SubRegionCode": "MANI",
    "VenueAddress": "Kadekoppala, Chitpady, Udupi, Karnataka 576101, India",
    "VenueCode": "KLPA",
    "VenueName": "Kalpana Theatre: Udupi"
  },
  "KMPV": {
    "AvailableFormats": "",
    "City": "Vizag (Visakhapatnam)",
    "FirstTracked": "2026-07-14",
    "Latitude": "17.808105",
    "Longitude": "83.388985",
    "RegionCode": "VIZA",
    "State": "Andhra Pradesh",
    "SubRegionCode": "VIZA",
    "VenueAddress": "Infosys lane, Beside Area 51 Coffee Shop, Rushikonda, Near IT Sez, Hill no. 2, Vizag (Visakhapatnam), Andhra Pradesh 530045, India",
    "VenueCode": "KMPV",
    "VenueName": "Krishna Miniplex 2K Dolby, IT Sez: Madhurawada"
  },
  "KPGN": {
    "AvailableFormats": "",
    "City": "Guntakal",
    "FirstTracked": "2026-07-14",
    "Latitude": "15.1665",
    "Longitude": "77.3779",
    "RegionCode": "GUNL",
    "State": "Andhra Pradesh",
    "SubRegionCode": "GUNL",
    "VenueAddress": "Tilak Nagar, Near Hotel Ashok Paradise, Guntakal, Andhra Pradesh 515801, India",
    "VenueCode": "KPGN",
    "VenueName": "KPS Movie: Guntakal"
  },
  "KRIC": {
    "AvailableFormats": "2D",
    "City": "Songadh",
    "Latitude": "21.1669",
    "Longitude": "73.5642",
    "RegionCode": "SONG",
    "State": "Gujarat",
    "SubRegionCode": "SONG",
    "VenueAddress": "3rd and 4th Floor Krishna Mall, SBI Road, Navagam Fort Songadh Tapi, Near Vijaya Bank, Songadh, Gujarat 394670, India",
    "VenueCode": "KRIC",
    "VenueName": "Sanskruti Krishna Multiplex: Songadh"
  },
  "KRTT": {
    "AvailableFormats": "3D",
    "City": "Tirupati",
    "Latitude": "13.6303",
    "Longitude": "79.4239",
    "RegionCode": "TIRU",
    "State": "Andhra Pradesh",
    "SubRegionCode": "TIRU",
    "VenueAddress": "Jayasam Road, Tata Nagar, Tirupati, Andhra Pradesh 517501, India",
    "VenueCode": "KRTT",
    "VenueName": "KrishnaTeja A/C 4K Dolby(Newly Renovated):Tirupati"
  },
  "KSNP": {
    "AvailableFormats": "2D",
    "City": "Kochi",
    "Latitude": "10.1449",
    "Longitude": "76.2355",
    "RegionCode": "PALY",
    "State": "Kerala",
    "SubRegionCode": "PALY",
    "VenueAddress": "North Paravur, Pullomkulam, Near Dr Ambedkar Park, Kochi, Kerala 683513, India",
    "VenueCode": "KSNP",
    "VenueName": "Kairali Sree Theater: North Parvur"
  },
  "KSTT": {
    "AvailableFormats": "2D",
    "City": "Thrissur",
    "Latitude": "10.5281",
    "Longitude": "76.2141",
    "RegionCode": "MANR",
    "State": "Kerala",
    "SubRegionCode": "MANR",
    "VenueAddress": "Karunakaran Nambiar Road, Round North, Patturaikkal, Near Bini Bakers, Thrissur, Kerala 680001, India",
    "VenueCode": "KSTT",
    "VenueName": "Kairali Sree RGB Laser 4K Dolby Atmos: Thrissur"
  },
  "KTKT": {
    "AvailableFormats": "",
    "City": "Hyderabad",
    "FirstTracked": "2026-07-14",
    "Latitude": "17.3888",
    "Longitude": "78.4962",
    "RegionCode": "HYD",
    "State": "Telangana",
    "SubRegionCode": "HYD",
    "VenueAddress": "3-2-1/1, Kachiguda Main Road, Mahalaxmi Nilayam, Kachiguda, Hyderabad, Telangana 500027, India",
    "VenueCode": "KTKT",
    "VenueName": "Kumar Theatre: Kachiguda"
  },
  "KVSW": {
    "AvailableFormats": "2D",
    "City": "Chhatrapati Sambhajinagar (Aurangabad)",
    "Latitude": "19.8379",
    "Longitude": "75.2524",
    "RegionCode": "AURA",
    "State": "Maharashtra",
    "SubRegionCode": "AURA",
    "VenueAddress": "Khinvasara Business centre lot No. X-310/1 MIDC Waluj, More Chawk, Beside Police station, Chhatrapati Sambhaji Nagar, Chhatrapati Sambhajinagar (Aurangabad), Maharashtra 431136, India",
    "VenueCode": "KVSW",
    "VenueName": "Khinvasara Cineplex: Waluj"
  },
  "LAKC": {
    "AvailableFormats": "",
    "City": "Perambalur",
    "FirstTracked": "2026-07-14",
    "Latitude": "11.23471",
    "Longitude": "78.8724",
    "RegionCode": "ARIY",
    "State": "Tamil Nadu",
    "SubRegionCode": "ARIY",
    "VenueAddress": "No 145, Perambalur Road, Venkatesapuram, Sungu Pettai, Near Vasan Medicals Care, Perambalur, Tamil Nadu 621212, India",
    "VenueCode": "LAKC",
    "VenueName": "LA Krishna Cinemas: Perambalur"
  },
  "LBDL": {
    "AvailableFormats": "2D",
    "City": "Delhi",
    "Latitude": "28.6592",
    "Longitude": "77.1897",
    "RegionCode": "NCR",
    "State": "NCR",
    "SubRegionCode": "DELHI",
    "VenueAddress": "19-B, New Rohtak Road Karol Bagh, Near Indian Oil Petrol Pump, Delhi, NCR 110005, India",
    "VenueCode": "LBDL",
    "VenueName": "Liberty Cinema: Karol Bagh"
  },
  "LCSH": {
    "AvailableFormats": "2D|3D",
    "City": "Surat",
    "Latitude": "21.1529",
    "Longitude": "72.7761",
    "RegionCode": "SURT",
    "State": "Gujarat",
    "SubRegionCode": "SURT",
    "VenueAddress": "Second floor, Homeland City, Sai Kutir Society, Piplod, Surat, Gujarat 395007, India",
    "VenueCode": "LCSH",
    "VenueName": "Loop Cinemas Homeland City: Vesu"
  },
  "LHDF": {
    "AvailableFormats": "2D",
    "City": "Ahmedabad",
    "Latitude": "23.1245",
    "Longitude": "72.5837",
    "RegionCode": "GNAGAR",
    "State": "Gujarat",
    "SubRegionCode": "GNAGAR",
    "VenueAddress": "5th Floor,Sai Sapphire Square, BRTS Zundal Chandkheda, Opposite Indian Oil Petrol Pump, Ahmedabad, Gujarat 382424, India",
    "VenueCode": "LHDF",
    "VenueName": "LHD Cinemas: Chandkheda"
  },
  "LKOP": {
    "AvailableFormats": "2D",
    "City": "Chennai",
    "Latitude": "12.6806",
    "Longitude": "79.9805",
    "RegionCode": "CHEN",
    "State": "Tamil Nadu",
    "SubRegionCode": "CHEN",
    "VenueAddress": "56, Alagesan Nagar, Varadharaja Nagar, Chennai, Tamil Nadu 603031, India",
    "VenueCode": "LKOP",
    "VenueName": "Lathaa Cinemas A/C Atmos 2K 3D: Chengalpattu"
  },
  "LMCI": {
    "AvailableFormats": "2D",
    "City": "Ichchapuram",
    "Latitude": "19.1297",
    "Longitude": "84.6921",
    "RegionCode": "ICPR",
    "State": "Andhra Pradesh",
    "SubRegionCode": "ICPR",
    "VenueAddress": "Amin Sahib Peta, Oppsite NECC Office, Ichchapuram, Andhra Pradesh 532312, India",
    "VenueCode": "LMCI",
    "VenueName": "L Max Cinemas AC (2K JBL Dolby Digital 7.1)"
  },
  "LPTY": {
    "AvailableFormats": "2D",
    "City": "Thalassery",
    "Latitude": "11.7463",
    "Longitude": "75.4954",
    "RegionCode": "THAY",
    "State": "Kerala",
    "SubRegionCode": "THAY",
    "VenueAddress": "AVK Nair Road, Pilakool, Thalassery, Kerala 670103, India",
    "VenueCode": "LPTY",
    "VenueName": "Liberty Paradise: Thalassery"
  },
  "LTTR": {
    "AvailableFormats": "2D",
    "City": "Tiptur",
    "Latitude": "13.254",
    "Longitude": "76.4778",
    "RegionCode": "TIPT",
    "State": "Karnataka",
    "SubRegionCode": "TIPT",
    "VenueAddress": "Keragodi Road, Chamundeshwari, Tiptur, Karnataka 572201, India",
    "VenueCode": "LTTR",
    "VenueName": "Lakshmi Talkies: Tiptur"
  },
  "LYMS": {
    "AvailableFormats": "2D",
    "City": "Mysuru (Mysore)",
    "Latitude": "12.3088",
    "Longitude": "76.6595",
    "RegionCode": "MYS",
    "State": "Karnataka",
    "SubRegionCode": "MYS",
    "VenueAddress": "Mandi Mohalla, Bangalore Nilgiri Road, Mysuru (Mysore), Karnataka 570001, India",
    "VenueCode": "LYMS",
    "VenueName": "Lido Theatre: Mysuru"
  },
  "MACD": {
    "AvailableFormats": "",
    "City": "Dehradun",
    "FirstTracked": "2026-07-14",
    "Latitude": "30.327717",
    "Longitude": "78.06602",
    "RegionCode": "DEH",
    "State": "Uttarakhand",
    "SubRegionCode": "DEH",
    "VenueAddress": "Times Square Mall, Sahastradhara Road, Near The Host Restaurant, Dehradun, Uttarakhand 248001, India",
    "VenueCode": "MACD",
    "VenueName": "Mukta A2 Cinemas: Times Square Mall, Dehradun"
  },
  "MAGH": {
    "AvailableFormats": "2D",
    "City": "Station Ghanpur",
    "Latitude": "17.8528",
    "Longitude": "79.3762",
    "RegionCode": "STGH",
    "State": "Telangana",
    "SubRegionCode": "STGH",
    "VenueAddress": "Palakurthy Road, Uppugal - Ghanpur Road, Station Ghanpur, Telangana 506144, India",
    "VenueCode": "MAGH",
    "VenueName": "Mahalaxmi Cinemas: Station Ghanpur"
  },
  "MALB": {
    "AvailableFormats": "",
    "City": "Bhopal",
    "Latitude": "23.2745",
    "Longitude": "77.3703",
    "RegionCode": "BHOP",
    "State": "Madhya Pradesh",
    "SubRegionCode": "BHOP",
    "VenueAddress": "Miraj Cinemas, 4th Floor, Alark Square, Lalghati, Bhopal, Madhya Pradesh 462030, India",
    "VenueCode": "MALB",
    "VenueName": "Miraj Cinemas: Alark Square, Bhopal"
  },
  "MASA": {
    "AvailableFormats": "2D",
    "City": "Ahmedabad",
    "Latitude": "23.0317",
    "Longitude": "72.5705",
    "RegionCode": "AHD",
    "State": "Gujarat",
    "SubRegionCode": "AHD",
    "VenueAddress": "Opposite City Gold Cinema, Ashram Road, Near Kotak Mahindra Bank, Ahmedabad, Gujarat 380009, India",
    "VenueCode": "MASA",
    "VenueName": "Mukta A2 Shiv Cinema: Ahmedabad"
  },
  "MAYJ": {
    "AvailableFormats": "2D|3D",
    "City": "Chennai",
    "Latitude": "12.848",
    "Longitude": "80.2401",
    "RegionCode": "CHEN",
    "State": "Tamil Nadu",
    "SubRegionCode": "CHEN",
    "VenueAddress": "No. 34/1, East Coast Road, Kanathur, Near Toll Plaza, Chennai, Tamil Nadu 603112, India",
    "VenueCode": "MAYJ",
    "VenueName": "MAYAJAAL Multiplex: ECR, Chennai"
  },
  "MBSJ": {
    "AvailableFormats": "2D",
    "City": "Vizag (Visakhapatnam)",
    "Latitude": "17.7266",
    "Longitude": "83.2994",
    "RegionCode": "VIZA",
    "State": "Andhra Pradesh",
    "SubRegionCode": "VIZA",
    "VenueAddress": "Bupathi Surya Central Mall, 5th Floor, 43-29-53 Dondaparthy, Vizag (Visakhapatnam), Andhra Pradesh 530016, India",
    "VenueCode": "MBSJ",
    "VenueName": "Miraj Cinemas: Bupathi Surya Central, Dondaparthy"
  },
  "MCBH": {
    "AvailableFormats": "2D",
    "City": "Hyderabad",
    "Latitude": "17.3559",
    "Longitude": "78.4537",
    "RegionCode": "HYD",
    "State": "Telangana",
    "SubRegionCode": "HYD",
    "VenueAddress": "Bahadurpura, Near Zoo Park Road, Hyderabad, Telangana 500064, India",
    "VenueCode": "MCBH",
    "VenueName": "Metro Cinema: Bahadurpura"
  },
  "MCDE": {
    "AvailableFormats": "",
    "City": "Delhi",
    "Latitude": "28.6384",
    "Longitude": "77.107",
    "RegionCode": "NCR",
    "State": "NCR",
    "SubRegionCode": "DELHI",
    "VenueAddress": "Plot No. S-26, Ajay Enclave, Meenakshi Garden, Subhash Nagar, New Delhi, Delhi, NCR 110018, India",
    "VenueCode": "MCDE",
    "VenueName": "Miraj Cinemas: Ivory Tower, Subhash Nagar"
  },
  "MCGP": {
    "AvailableFormats": "2D|3D",
    "City": "Kanpur",
    "Latitude": "26.4907",
    "Longitude": "80.2847",
    "RegionCode": "KANP",
    "State": "Uttar Pradesh",
    "SubRegionCode": "KANP",
    "VenueAddress": "Gurdev Palace Complex, 181-184, Lakhanpur, G. T. Road, Kanpur, Uttar Pradesh 208024, India",
    "VenueCode": "MCGP",
    "VenueName": "Miraj Cinemas: Gurdev Pammi, Kanpur"
  },
  "MCIW": {
    "AvailableFormats": "2D|IMAX 2D|3D",
    "City": "Mumbai",
    "Latitude": "19.0316",
    "Longitude": "72.8809",
    "RegionCode": "MUMBAI",
    "State": "Maharashtra",
    "SubRegionCode": "MCENT",
    "VenueAddress": "Ajmera I-Land Road, Bhakti Park, Wadala East, Mumbai, Maharashtra 400037, India",
    "VenueCode": "MCIW",
    "VenueName": "Miraj Cinemas: IMAX, Wadala"
  },
  "MCMA": {
    "AvailableFormats": "",
    "City": "Ahmedabad",
    "Latitude": "23.0147",
    "Longitude": "72.5965",
    "RegionCode": "AHD",
    "State": "Gujarat",
    "SubRegionCode": "AHD",
    "VenueAddress": "10, Acer Mall, Kankaria Road, Raipur, Opposite Big Bazaar, Ahmedabad, Gujarat 380001, India",
    "VenueCode": "MCMA",
    "VenueName": "Miraj Cinemas: City Pulse, Ahmedabad"
  },
  "MCNR": {
    "AvailableFormats": "",
    "City": "Raipur",
    "Latitude": "21.1704",
    "Longitude": "81.7708",
    "RegionCode": "RAIPUR",
    "State": "Chhattisgarh",
    "SubRegionCode": "RAIPUR",
    "VenueAddress": "GS Entertainment, 4th Floor, Block E9-B, Retail Complex, Central Business District, Sector - 21, Nava Raipur Atal Nagar, Raipur, Chhattisgarh 492101, India",
    "VenueCode": "MCNR",
    "VenueName": "Miraj Cinemas: CBD, Nava Raipur"
  },
  "MCSD": {
    "AvailableFormats": "2D",
    "City": "Tumakuru (Tumkur)",
    "Latitude": "13.3435",
    "Longitude": "77.0943",
    "RegionCode": "TUMK",
    "State": "Karnataka",
    "SubRegionCode": "TUMK",
    "VenueAddress": "B.H.Main Road, Mandipet, Near Gubbi Gate, Near T H S Super Speciality Hospital, Tumakuru (Tumkur), Karnataka 572101, India",
    "VenueCode": "MCSD",
    "VenueName": "Maruthi Digital 4K Cinemas: B.H.Road Tumakuru"
  },
  "MCTD": {
    "AvailableFormats": "2D",
    "City": "Trivandrum",
    "Latitude": "8.61849",
    "Longitude": "76.8985",
    "RegionCode": "ATTI",
    "State": "Kerala",
    "SubRegionCode": "ATTI",
    "VenueAddress": "Pothencode Junction, Pothencode, Thiruvananthapuram, Near State Bank Of India, Trivandrum, Kerala 695584, India",
    "VenueCode": "MCTD",
    "VenueName": "MT Cineplex 4K DOLBY ATMOS: Pothencode"
  },
  "MCXF": {
    "AvailableFormats": "",
    "City": "Chennai",
    "FirstTracked": "2026-07-14",
    "Latitude": "13.1206",
    "Longitude": "80.0979",
    "RegionCode": "CHEN",
    "State": "Tamil Nadu",
    "SubRegionCode": "CHEN",
    "VenueAddress": "OCF Main Road, Avadi, Next to TNEB Office, Chennai, Tamil Nadu 600054, India",
    "VenueCode": "MCXF",
    "VenueName": "Meenakshi Cinemas (Rakki) 4K Dolby Atmos: Avadi"
  },
  "MDLB": {
    "AvailableFormats": "",
    "City": "Lakhisarai",
    "FirstTracked": "2026-07-14",
    "Latitude": "25.17434",
    "Longitude": "86.09349",
    "RegionCode": "LASK",
    "State": "Bihar",
    "SubRegionCode": "LASK",
    "VenueAddress": "Purani Bazzar, Near - Lakhisarai Station, Lakhisarai, Bihar 811311, India",
    "VenueCode": "MDLB",
    "VenueName": "Mahadev Talkies: Lakhisarai, Bihar"
  },
  "MEML": {
    "AvailableFormats": "2D",
    "City": "Hoshangabad",
    "Latitude": "22.7521",
    "Longitude": "77.7293",
    "RegionCode": "HSGB",
    "State": "Madhya Pradesh",
    "SubRegionCode": "HSGB",
    "VenueAddress": "Meenakshi Chowk, Narmadapuram, Hoshangabad, Madhya Pradesh 461001, India",
    "VenueCode": "MEML",
    "VenueName": "Meenakshi Cineplex (Screen 1 & 2): Hoshangabad"
  },
  "MGGG": {
    "AvailableFormats": "2D",
    "City": "Vijayawada",
    "Latitude": "16.5172",
    "Longitude": "80.6288",
    "RegionCode": "VIJA",
    "State": "Andhra Pradesh",
    "SubRegionCode": "VIJA",
    "VenueAddress": "Andhra Ratna Road, Gandhi Nagar, Vijayawada, Andhra Pradesh 520003, India",
    "VenueCode": "MGGG",
    "VenueName": "G3 Theatres: Raj Yuvraj, Vijayawada"
  },
  "MHNU": {
    "AvailableFormats": "3D|2D",
    "City": "Ghaziabad",
    "Latitude": "28.6453",
    "Longitude": "77.336",
    "RegionCode": "NCR",
    "State": "NCR",
    "SubRegionCode": "GHAZ",
    "VenueAddress": "Mahagun Metro Mall, Sector-3, Vaishali, Vaishali Sector 3, Ghaziabad, NCR 201012, India",
    "VenueCode": "MHNU",
    "VenueName": "PVR: Mahagun, Ghaziabad"
  },
  "MISC": {
    "AvailableFormats": "2D",
    "City": "Hooghly",
    "Latitude": "22.7766",
    "Longitude": "88.3252",
    "RegionCode": "CHDD",
    "State": "West Bengal",
    "SubRegionCode": "CHDD",
    "VenueAddress": "Grand Trunk Road, Sheoraphuli, Near St. John`s Academy, Hooghly, West Bengal 712223, India",
    "VenueCode": "MISC",
    "VenueName": "Mini Sushama Cinema: Sheoraphuli"
  },
  "MJWI": {
    "AvailableFormats": "",
    "City": "Chandigarh",
    "FirstTracked": "2026-07-14",
    "Latitude": "30.692394",
    "Longitude": "76.71335",
    "RegionCode": "CHD",
    "State": "Punjab",
    "SubRegionCode": "CHD",
    "VenueAddress": "Unit no 4 to 9, Third Floor, Jubilee Walk, Opposite SOHANA GURUDWARA, Sector 70, Chandigarh, Punjab 160071, India",
    "VenueCode": "MJWI",
    "VenueName": "7D Masti: Jubilee Walk, Mohali"
  },
  "MKSK": {
    "AvailableFormats": "",
    "City": "Shivamogga",
    "FirstTracked": "2026-07-14",
    "Latitude": "13.934454",
    "Longitude": "75.57287",
    "RegionCode": "SHIA",
    "State": "Karnataka",
    "SubRegionCode": "SHIA",
    "VenueAddress": "Tilak Nagar, Durgigudi, Nehru Road, Near Karnataka Bank, Shivamogga, Karnataka 577201, India",
    "VenueCode": "MKSK",
    "VenueName": "Mallikarjuna Theatre: Shivamogga"
  },
  "MLPG": {
    "AvailableFormats": "3D|2D",
    "City": "Porbandar",
    "Latitude": "21.6684",
    "Longitude": "69.6175",
    "RegionCode": "PORB",
    "State": "Gujarat",
    "SubRegionCode": "PORB",
    "VenueAddress": "Ground Floor Part, Survey No 407, First floor and Mezzanine Floor, Old survey no. 141/6 paiki 9/ paiki 1, Khapat, Porbandar, Gujarat 360579, India",
    "VenueCode": "MLPG",
    "VenueName": "Meridian Multiplex: Porbandar"
  },
  "MMDJ": {
    "AvailableFormats": "7D",
    "City": "Jaipur",
    "Latitude": "26.8552",
    "Longitude": "75.808",
    "RegionCode": "JAIP",
    "State": "Rajasthan",
    "SubRegionCode": "JAIP",
    "VenueAddress": "3rd Floor, GT Central, Plot No.4, Indra Place, Malviya Nagar, Jaipur, Rajasthan 302017, India",
    "VenueCode": "MMDJ",
    "VenueName": "7D Masti: Gaurav Tower Central"
  },
  "MMMC": {
    "AvailableFormats": "2D",
    "City": "Mumbai",
    "Latitude": "18.9712",
    "Longitude": "72.8221",
    "RegionCode": "MUMBAI",
    "State": "Maharashtra",
    "SubRegionCode": "MCENT",
    "VenueAddress": "22, Maratha Mandir Marg, Agripada, Opp. Nayar Dental Hospital, Near Mumbai Central ST Depot, Mumbai, Maharashtra 400008, India",
    "VenueCode": "MMMC",
    "VenueName": "Maratha Mandir: Mumbai Central"
  },
  "MMPS": {
    "AvailableFormats": "",
    "City": "Surendranagar",
    "FirstTracked": "2026-07-14",
    "Latitude": "22.719229",
    "Longitude": "71.65531",
    "RegionCode": "SRDN",
    "State": "Gujarat",
    "SubRegionCode": "SRDN",
    "VenueAddress": "Millenium Plaza, Upasana Circle, Taluka Wadhwan, Surendranagar, Gujarat 363030, India",
    "VenueCode": "MMPS",
    "VenueName": "NY Cinemas: 1 Millenium Plaza, Surendranagar"
  },
  "MMWM": {
    "AvailableFormats": "2D",
    "City": "Thane",
    "Latitude": "19.2211",
    "Longitude": "72.977",
    "RegionCode": "MUMBAI",
    "State": "Maharashtra",
    "SubRegionCode": "THNE",
    "VenueAddress": "MovieMax, Diversion from Vidyapeeth Signal, Opposite Bank Of Baroda, Ghodbunder Road, Kapur Bawadi Naka, Near Safe Way Motors, Thane, Maharashtra 400601, India",
    "VenueCode": "MMWM",
    "VenueName": "MovieMax: Wonder Mall, Thane"
  },
  "MNCV": {
    "AvailableFormats": "2D",
    "City": "Chevella",
    "Latitude": "17.3116",
    "Longitude": "78.138",
    "RegionCode": "CHEV",
    "State": "Telangana",
    "SubRegionCode": "CHEV",
    "VenueAddress": "Survey No.5/3 Part, Main Road, Near Aloor Chevella Vegetable Market, Chevella, Telangana 501503, India",
    "VenueCode": "MNCV",
    "VenueName": "Manikanta Theatre 70mm AC Dolby Atmos 2K: Chevella"
  },
  "MOON": {
    "AvailableFormats": "2D",
    "City": "Kathua",
    "Latitude": "32.3675",
    "Longitude": "75.5236",
    "RegionCode": "KATH",
    "State": "Jammu and Kashmir",
    "SubRegionCode": "KATH",
    "VenueAddress": "Main Bazaar, Urliwand, ITI Road, Kathua HO, Near Adidas showroom, Kathua, Jammu and Kashmir 184101, India",
    "VenueCode": "MOON",
    "VenueName": "Moonlight Cinema: Kathua"
  },
  "MRCB": {
    "AvailableFormats": "",
    "City": "Bharatpur",
    "Latitude": "27.1961",
    "Longitude": "77.5237",
    "RegionCode": "BHRT",
    "State": "Rajasthan",
    "SubRegionCode": "BHRT",
    "VenueAddress": "National Highway 21, Jatoli Ghana, Agra Road, Opposite Surya city Township, Bharatpur, Rajasthan 321001, India",
    "VenueCode": "MRCB",
    "VenueName": "Miraj Cinemas: RDB Multiplex, Bharatpur"
  },
  "MRJH": {
    "AvailableFormats": "3D|2D",
    "City": "Howrah",
    "Latitude": "22.6017",
    "Longitude": "88.3452",
    "RegionCode": "HWRH",
    "State": "West Bengal",
    "SubRegionCode": "HWRH",
    "VenueAddress": "Aurobino Mall,3rd Floor, Sri Arabinda Road, Babudanga, Bandhaghat, Howrah, West Bengal 711106, India",
    "VenueCode": "MRJH",
    "VenueName": "Miraj Cinemas: Howrah"
  },
  "MSAA": {
    "AvailableFormats": "",
    "City": "Amravati",
    "FirstTracked": "2026-07-14",
    "Latitude": "20.899939",
    "Longitude": "77.748405",
    "RegionCode": "AMRA",
    "State": "Maharashtra",
    "SubRegionCode": "AMRA",
    "VenueAddress": "Gopal Nagar Square, Badnera Road, Amravati, Maharashtra 444607, India",
    "VenueCode": "MSAA",
    "VenueName": "7D Masti: Tapadia City Center, Amravati"
  },
  "MSMC": {
    "AvailableFormats": "2D",
    "City": "Biaora",
    "Latitude": "23.927",
    "Longitude": "76.9134",
    "RegionCode": "BIAR",
    "State": "Madhya Pradesh",
    "SubRegionCode": "BIAR",
    "VenueAddress": "NH2, Old AB Road, Krishna Puram Colony, Biaora, Madhya Pradesh 465674, India",
    "VenueCode": "MSMC",
    "VenueName": "MSM Cineplex: Biaora"
  },
  "MTBO": {
    "AvailableFormats": "2D",
    "City": "Berhampore",
    "Latitude": "24.0903",
    "Longitude": "88.2503",
    "RegionCode": "BEHA",
    "State": "West Bengal",
    "SubRegionCode": "BEHA",
    "VenueAddress": "22 Sahid Surya Sen Road, Murshidabad, Berhampore, West Bengal 742101, India",
    "VenueCode": "MTBO",
    "VenueName": "Mohan Talkies: Berhampore"
  },
  "MTGG": {
    "AvailableFormats": "2D",
    "City": "Gangavati",
    "Latitude": "15.4327",
    "Longitude": "76.528",
    "RegionCode": "GAVT",
    "State": "Karnataka",
    "SubRegionCode": "GAVT",
    "VenueAddress": "Gandhi Chowk, Vidya Nagar, M.G. Road, Gangavati, Karnataka 583227, India",
    "VenueCode": "MTGG",
    "VenueName": "Mohiuddin Talkies: Gangavati"
  },
  "MTMA": {
    "AvailableFormats": "3D|2D",
    "City": "Mumbai",
    "Latitude": "19.1892",
    "Longitude": "72.8349",
    "RegionCode": "MUMBAI",
    "State": "Maharashtra",
    "SubRegionCode": "MWEST",
    "VenueAddress": "Jagdamba Commercial Complex, Besides Sai Palace Grand, Link Road, Evershine Nagar, Malad West, Mumbai, Maharashtra 400064, India",
    "VenueCode": "MTMA",
    "VenueName": "MOVIETIME: MALAD (WEST)"
  },
  "MTSC": {
    "AvailableFormats": "3D|2D",
    "City": "Mumbai",
    "Latitude": "19.0283",
    "Longitude": "72.8442",
    "RegionCode": "MUMBAI",
    "State": "Maharashtra",
    "SubRegionCode": "MCENT",
    "VenueAddress": "Bijlee Barkha Complex, Junction of Manmala Tank Road, Taikalwadi Road, Matunga(W), Near Maharashtra Municipal School, Mumbai, Maharashtra 400016, India",
    "VenueCode": "MTSC",
    "VenueName": "Movietime Star City: Matunga (W)"
  },
  "MUPX": {
    "AvailableFormats": "2D",
    "City": "Mahalingpur",
    "Latitude": "16.3903",
    "Longitude": "75.1067",
    "RegionCode": "MAGP",
    "State": "Karnataka",
    "SubRegionCode": "MAGP",
    "VenueAddress": "CMC No:880/1, Near Neelakanteshwara Temple, Mahalingpur, Karnataka 587312, India",
    "VenueCode": "MUPX",
    "VenueName": "Smart Moviz (Maruthi Cineplex): Mahalingpur"
  },
  "MVSK": {
    "AvailableFormats": "",
    "City": "Ahmedabad",
    "Latitude": "22.9926",
    "Longitude": "72.3694",
    "RegionCode": "AHD",
    "State": "Gujarat",
    "SubRegionCode": "AHD",
    "VenueAddress": "Vardhman Square, 3rd Floor, Sanand, Ahmedabad, Gujarat 382110, India",
    "VenueCode": "MVSK",
    "VenueName": "Miraj Cinemas: Vardhman Square, Sanand"
  },
  "MXGN": {
    "AvailableFormats": "2D",
    "City": "Noida",
    "Latitude": "28.5085",
    "Longitude": "77.3871",
    "RegionCode": "NCR",
    "State": "NCR",
    "SubRegionCode": "NOIDA",
    "VenueAddress": "MovieMax Gulshan One 29 Mall C-3, Sector 129, Noida, NCR 201301, India",
    "VenueCode": "MXGN",
    "VenueName": "MovieMax Laserplex: Gulshan One 29 Mall, Noida"
  },
  "MYDC": {
    "AvailableFormats": "2D",
    "City": "Doimukh",
    "Latitude": "27.1454",
    "Longitude": "93.7539",
    "RegionCode": "MDHK",
    "State": "Arunachal Pradesh",
    "SubRegionCode": "MDHK",
    "VenueAddress": "M.Y. Digital Cinema Hall, Opposite - Main Market, Doimukh, Arunachal Pradesh 791112, India",
    "VenueCode": "MYDC",
    "VenueName": "MY Digital Cinema: Doimukh"
  },
  "NACM": {
    "AvailableFormats": "",
    "City": "Mullanpur",
    "FirstTracked": "2026-07-14",
    "Latitude": "30.844576",
    "Longitude": "75.67572",
    "RegionCode": "MULL",
    "State": "Punjab",
    "SubRegionCode": "MULL",
    "VenueAddress": "On Cinema Road,opposite Harjindra Cinema, Mandi Mullanpur, Mullanpur, Punjab 141101, India",
    "VenueCode": "NACM",
    "VenueName": "4G Nova Cinemaz: Mullanpur"
  },
  "NCAM": {
    "AvailableFormats": "",
    "City": "Ratlam",
    "FirstTracked": "2026-07-14",
    "Latitude": "23.332882",
    "Longitude": "75.05844",
    "RegionCode": "RATL",
    "State": "Madhya Pradesh",
    "SubRegionCode": "RATL",
    "VenueAddress": "Anand Big Mall, Dmart Road, Bypass Road, Near Midtown Township, Ratlam, Madhya Pradesh 457001, India",
    "VenueCode": "NCAM",
    "VenueName": "NY Cinemas: Anand Big Mall, Ratlam"
  },
  "NCJN": {
    "AvailableFormats": "2D",
    "City": "Jalna",
    "Latitude": "19.8446",
    "Longitude": "75.8953",
    "RegionCode": "JALN",
    "State": "Maharashtra",
    "SubRegionCode": "JALN",
    "VenueAddress": "Lokhandi Pool Road, Sangram Nagar, Rahman Ganj, Jalna, Maharashtra 431203, India",
    "VenueCode": "NCJN",
    "VenueName": "Natraj Cinema: Jalna"
  },
  "NCUK": {
    "AvailableFormats": "2D",
    "City": "Kanpur",
    "Latitude": "26.4647",
    "Longitude": "80.3463",
    "RegionCode": "KANP",
    "State": "Uttar Pradesh",
    "SubRegionCode": "KANP",
    "VenueAddress": "77/151, Latouche Road, Khoya Bazar, Mulganj, Kanpur, Uttar Pradesh 208001, India",
    "VenueCode": "NCUK",
    "VenueName": "Novelty Cinema: Kanpur"
  },
  "NEWS": {
    "AvailableFormats": "2D",
    "City": "Bhawanipatna",
    "Latitude": "19.9265",
    "Longitude": "83.1518",
    "RegionCode": "BHAW",
    "State": "Odisha",
    "SubRegionCode": "BHAW",
    "VenueAddress": "Bhawanipatna - Raipur Highway, Parmanandapur, Opposite of OMFED Dairy, Bhawanipatna, Odisha 766002, India",
    "VenueCode": "NEWS",
    "VenueName": "New Star Cineplex: Bhawanipatna"
  },
  "NKCP": {
    "AvailableFormats": "2D",
    "City": "Jodhpur",
    "Latitude": "26.2772",
    "Longitude": "72.9952",
    "RegionCode": "JODH",
    "State": "Rajasthan",
    "SubRegionCode": "JODH",
    "VenueAddress": "6th Upper Chopasni Road, Akhaliya Vikas Yojana, Choraha, Jodhpur, Rajasthan 342001, India",
    "VenueCode": "NKCP",
    "VenueName": "New Kohinoor Cinema: Jodhpur"
  },
  "NMNH": {
    "AvailableFormats": "2D",
    "City": "Neemuch",
    "Latitude": "24.457",
    "Longitude": "74.8711",
    "RegionCode": "NMCH",
    "State": "Madhya Pradesh",
    "SubRegionCode": "NMCH",
    "VenueAddress": "Patel Plaza, Tagore Marg, Neemuch, Madhya Pradesh 458441, India",
    "VenueCode": "NMNH",
    "VenueName": "Neemuch Multiplex: Patel Plaza"
  },
  "NOVX": {
    "AvailableFormats": "",
    "City": "Dhaulana",
    "FirstTracked": "2026-07-14",
    "Latitude": "28.62876",
    "Longitude": "77.65731",
    "RegionCode": "DHAL",
    "State": "Uttar Pradesh",
    "SubRegionCode": "DHAL",
    "VenueAddress": "Near Nav Uday Public school, Dhaulana, Dhaulana, Uttar Pradesh 245301, India",
    "VenueCode": "NOVX",
    "VenueName": "Novaplex: Dhaulana"
  },