{
  "AACV": {
    "AvailableFormats": "2D",
    "City": "Kovvur",
    "Latitude": "17.0136",
    "Longitude": "81.7281",
    "RegionCode": "KOVU",
    "State": "Andhra Pradesh",
    "SubRegionCode": "KOVU",
    "VenueAddress": "Rama Society Road, Near State Bank of India, Kovvur, Andhra Pradesh 534350, India",
    "VenueCode": "AACV",
    "VenueName": "Ananya Cinemas: Kovvur"
  },
  "AATV": {
    "AvailableFormats": "2D",
    "City": "Vadanappally",
    "Latitude": "10.4752",
    "Longitude": "76.0784",
    "RegionCode": "VADN",
    "State": "Kerala",
    "SubRegionCode": "VADN",
    "VenueAddress": "No 66, National Highway, Vadanappally, Kerala 680619, India",
    "VenueCode": "AATV",
    "VenueName": "Ashoka Theatre: Vadanappally"
  },
  "ABMP": {
    "AvailableFormats": "2D",
    "City": "Ahmedabad",
    "Latitude": "23.025",
    "Longitude": "72.5295",
    "RegionCode": "AHD",
    "State": "Gujarat",
    "SubRegionCode": "AHD",
    "VenueAddress": "Sheetal Varsha 5, 512 A, Suryapooja Block B, Satellite Road, Ahmedabad, Gujarat 380013, India",
    "VenueCode": "ABMP",
    "VenueName": "AB Miniplex: Shivranjini Cross Road, Satellite"
  },
  "ACBD": {
    "AvailableFormats": "",
    "City": "Basantpur",
    "Latitude": "26.1698",
    "Longitude": "84.6684",
    "RegionCode": "BABA",
    "State": "Bihar",
    "SubRegionCode": "BABA",
    "VenueAddress": "Abhishek Cineplex, Basant Pur, Siwan, Basantpur, Bihar 841406, India",
    "VenueCode": "ACBD",
    "VenueName": "Abhishek Cineplex: Basantpur"
  },
  "ACHP": {
    "AvailableFormats": "2D",
    "City": "Pasighat",
    "Latitude": "28.0594",
    "Longitude": "95.3313",
    "RegionCode": "PSHG",
    "State": "Arunachal Pradesh",
    "SubRegionCode": "PSHG",
    "VenueAddress": "Aarun Tamuk Complex, Main Market Pasighat, Near Arunachal Pradesh Rural Bank,Pasighat, Arunachal Pradesh 791102, India",
    "VenueCode": "ACHP",
    "VenueName": "Abor Cinema Hall: Pasighat"
  },
  "ACKZ": {
    "AvailableFormats": "2D",
    "City": "Kozhikode",
    "Latitude": "11.2554",
    "Longitude": "75.7847",
    "RegionCode": "KOZH",
    "State": "Kerala",
    "SubRegionCode": "KOZH",
    "VenueAddress": "No 17/256, Pavamani Road, Kozhikode, Kerala 673001, India",
    "VenueCode": "ACKZ",
    "VenueName": "ARC Coronation 4K Dolby Atmos"
  },
  "ACON": {
    "AvailableFormats": "2D",
    "City": "Chennai",
    "Latitude": "12.8505",
    "Longitude": "80.2257",
    "RegionCode": "CHEN",
    "State": "Tamil Nadu",
    "SubRegionCode": "CHEN",
    "VenueAddress": "Vivira Mall, 5th Floor, Navalur, Old Mahabalipuram Road, Near ETA Techno Park Entrance, Chennai, Tamil Nadu 603103, India",
    "VenueCode": "ACON",
    "VenueName": "AGS Cinemas OMR: Navlur"
  },
  "ACTV": {
    "AvailableFormats": "2D",
    "City": "Vellore",
    "Latitude": "12.9614",
    "Longitude": "79.1366",
    "RegionCode": "RANI",
    "State": "Tamil Nadu",
    "SubRegionCode": "RANI",
    "VenueAddress": "No 372, Bharathi Nagar, Bharathi Nagar, Katpadi, Vellore, Opposite Indian Overseas Bank, Vellore, Tamil Nadu 632007, India",
    "VenueCode": "ACTV",
    "VenueName": "AASCARS CINEMAS 4K DOLBY 7.1"
  },
  "ADCR": {
    "AvailableFormats": "2D",
    "City": "Bengaluru",
    "Latitude": "13.0145",
    "Longitude": "77.516",
    "RegionCode": "HOKT",
    "State": "Karnataka",
    "SubRegionCode": "HOKT",
    "VenueAddress": "Bldg No 135/3, Rajeshwari Theatre Road, Laggere, Near Friends Circle, Bengaluru, Karnataka 560058, India",
    "VenueCode": "ADCR",
    "VenueName": "Akash Cinemas: Laggere"
  },
  "AFST": {
    "AvailableFormats": "2D",
    "City": "Siddhpur",
    "Latitude": "23.9425",
    "Longitude": "72.3653",
    "RegionCode": "SIDD",
    "State": "Gujarat",
    "SubRegionCode": "SIDD",
    "VenueAddress": "Gokul Highway Food Mall, Highway Road, Near Sujanpur Patia, Siddhpur, Gujarat 384151, India",
    "VenueCode": "AFST",
    "VenueName": "Ajayshree Films (Gokul Theater): Siddhpur"
  },
  "AJCI": {
    "AvailableFormats": "",
    "City": "Chintamani",
    "Latitude": "13.3946",
    "Longitude": "78.0505",
    "RegionCode": "CHTI",
    "State": "Karnataka",
    "SubRegionCode": "CHTI",
    "VenueAddress": "Malapally Road, Beside Old LIC Building, Gandhi Nagar, Chintamani, Karnataka 563125, India",
    "VenueCode": "AJCI",
    "VenueName": "Anjani Theatre: Chintamani"
  },
  "AKTB": {
    "AvailableFormats": "2D|3D",
    "City": "Burhanpur",
    "Latitude": "21.3031",
    "Longitude": "76.2225",
    "RegionCode": "BRHP",
    "State": "Madhya Pradesh",
    "SubRegionCode": "BRHP",
    "VenueAddress": "Amrawati Road, Near Kamal Plaza, Burhanpur, Madhya Pradesh 450331, India",
    "VenueCode": "AKTB",
    "VenueName": "Ankita Multiplex: Burhanpur"
  },
  "ALSN": {
    "AvailableFormats": "2D|3D",
    "City": "Kantabanji",
    "Latitude": "20.5061",
    "Longitude": "82.9221",
    "RegionCode": "KTBJ",
    "State": "Odisha",
    "SubRegionCode": "KTBJ",
    "VenueAddress": "Lathkend, PO - Salandi, PS - Belpada, Kantabanji, Odisha 767026, India",
    "VenueCode": "ALSN",
    "VenueName": "Alishan Central: Kantabanji"
  },
  "AMDE": {
    "AvailableFormats": "2D",
    "City": "Thiruthuraipoondi",
    "Latitude": "10.5366",
    "Longitude": "79.6368",
    "RegionCode": "THND",
    "State": "Tamil Nadu",
    "SubRegionCode": "THND",
    "VenueAddress": "SH 63,Railway Station Rd, Thiruthuraipoondi, Near Seematti Readymade Silks, Thiruthuraipoondi, Tamil Nadu 614713, India",
    "VenueCode": "AMDE",
    "VenueName": "AM Deluxe Theatre A/C: Thiruthuraipoondi"
  },
  "AMNG": {
    "AvailableFormats": "3D|2D",
    "City": "Nagpur",
    "Latitude": "21.086",
    "Longitude": "79.0911",
    "RegionCode": "NAGP",
    "State": "Maharashtra",
    "SubRegionCode": "NAGP",
    "VenueAddress": "2nd Floor, Jayanti Nagri 5 Mall, Besa Road, Above Haldirams, Nagpur, Maharashtra 440027, India",
    "VenueCode": "AMNG",
    "VenueName": "AM Cinema: Manish Nagar, Nagpur"
  },
  "AMZB": {
    "AvailableFormats": "2D",
    "City": "Zaheerabad",
    "Latitude": "17.6803",
    "Longitude": "77.6154",
    "RegionCode": "ZAGE",
    "State": "Telangana",
    "SubRegionCode": "ZAGE",
    "VenueAddress": "Main Road, Opposite to Bus Stand, Zaheerabad, Telangana 502220, India",
    "VenueCode": "AMZB",
    "VenueName": "Asian Sri Mohan: Zaheerabad"
  },
  "ANLS": {
    "AvailableFormats": "2D|3D",
    "City": "Shillong",
    "Latitude": "25.5738",
    "Longitude": "91.877",
    "RegionCode": "SHLG",
    "State": "Meghalaya",
    "SubRegionCode": "SHLG",
    "VenueAddress": "Anjalee Complex, 25 Cantonment, Shillong, Meghalaya 793001, India",
    "VenueCode": "ANLS",
    "VenueName": "Anjalee Cinema: Shillong"
  },
  "ANTM": {
    "AvailableFormats": "2D",
    "City": "Mangalagiri",
    "Latitude": "16.4263",
    "Longitude": "80.5671",
    "RegionCode": "MGLR",
    "State": "Andhra Pradesh",
    "SubRegionCode": "MGLR",
    "VenueAddress": "Trunk Road, Near - St.Francis English Medium School., Mangalagiri, Andhra Pradesh 522503, India",
    "VenueCode": "ANTM",
    "VenueName": "Annapurna Theater A/C Dts 2K: Mangalagiri"
  },
  "APCX": {
    "AvailableFormats": "2D",
    "City": "Punalur",
    "Latitude": "9.01592",
    "Longitude": "76.939",
    "RegionCode": "PUNA",
    "State": "Kerala",
    "SubRegionCode": "PUNA",
    "VenueAddress": "Kalayanad, Kollam Thirumangalam Road, Punalur, Kerala 691305, India",
    "VenueCode": "APCX",
    "VenueName": "ARIESPLEX PUNALUR RGB LASER 4K ATMOS"
  },
  "APSC": {
    "AvailableFormats": "3D|2D",
    "City": "Changanassery",
    "Latitude": "9.44915",
    "Longitude": "76.5436",
    "RegionCode": "CNSY",
    "State": "Kerala",
    "SubRegionCode": "CNSY",
    "VenueAddress": "Aramanapady, Palace Road, Near South Indian Bank, Changanassery, Kerala 686101, India",
    "VenueCode": "APSC",
    "VenueName": "Apsara Theatre Dolby 7.1: Changanassery"
  },
  "ARCC": {
    "AvailableFormats": "2D",
    "City": "Nandyal",
    "Latitude": "15.4742",
    "Longitude": "78.4866",
    "RegionCode": "NADY",
    "State": "Andhra Pradesh",
    "SubRegionCode": "NADY",
    "VenueAddress": "SBI Colony, Nandyal-Thimmanayunipeta Road, Nandyal, Andhra Pradesh 518501, India",
    "VenueCode": "ARCC",
    "VenueName": "Sri Rama Complex: Nandyal"
  },
  "ARRS": {
    "AvailableFormats": "2D|3D",
    "City": "Salem",
    "Latitude": "11.6679",
    "Longitude": "78.1342",
    "RegionCode": "SALM",
    "State": "Tamil Nadu",
    "SubRegionCode": "SALM",
    "VenueAddress": "2-94-95, Meyyanoor Bye-pass Road, Meyyanoor, Near Srivari Shopping Mall, Salem, Tamil Nadu 636701, India",
    "VenueCode": "ARRS",
    "VenueName": "ARRS Multiplex 4K Dolby Audio 7.1.2: Salem"
  },
  "ASCO": {
    "AvailableFormats": "2D",
    "City": "Chhindwara",
    "Latitude": "22.1988",
    "Longitude": "78.7585",
    "RegionCode": "CHIN",
    "State": "Madhya Pradesh",
    "SubRegionCode": "CHIN",
    "VenueAddress": "Neelkamal Mall, Ward No. 2, Bhopal Road, Parasia, Chhindwara, Madhya Pradesh 480441, India",
    "VenueCode": "ASCO",
    "VenueName": "Ascon Multiplex: Parasia"
  },
  "ASKO": {
    "AvailableFormats": "3D|2D",
    "City": "Kolkata",
    "Latitude": "22.4937",
    "Longitude": "88.3166",
    "RegionCode": "KOLK",
    "State": "West Bengal",
    "SubRegionCode": "KOLK",
    "VenueAddress": "No. 905/2, Diamond Harbour Road, Arcadia, Behala, Kolkata, West Bengal 700034, India",
    "VenueCode": "ASKO",
    "VenueName": "Asoka Cinema: Behala"
  },
  "ASRG": {
    "AvailableFormats": "2D",
    "City": "Patna",
    "Latitude": "25.6186",
    "Longitude": "85.0469",
    "RegionCode": "PATN",
    "State": "Bihar",
    "SubRegionCode": "PATN",
    "VenueAddress": "6th Floor, Ambition Business Park, Bailey Road, Saguna More, Patna, Bihar 801503, India",
    "VenueCode": "ASRG",
    "VenueName": "ASR Cinemas, RPS More: Patna"
  },
  "ASTK": {
    "AvailableFormats": "2D",
    "City": "Kottayam",
    "Latitude": "9.58609",
    "Longitude": "76.5245",
    "RegionCode": "ETTU",
    "State": "Kerala",
    "SubRegionCode": "ETTU",
    "VenueAddress": "T.B Road, Near Ksrtc Bus Stand, Near Abhilash Theater, Kottayam, Kerala 686001, India",
    "VenueCode": "ASTK",
    "VenueName": "Asha Theatre: Kottayam"
  },
  "ATCL": {
    "AvailableFormats": "2D",
    "City": "Mandapeta",
    "Latitude": "16.8707",
    "Longitude": "81.9254",
    "RegionCode": "MAND",
    "State": "Andhra Pradesh",
    "SubRegionCode": "MAND",
    "VenueAddress": "Cinema Road, Gandhi Nagar, Near Municipality Compost Yard, Mandapeta, Andhra Pradesh 533308, India",
    "VenueCode": "ATCL",
    "VenueName": "Ambica Theaters 2K A/c DTS: Mandapeta"
  },
  "ATRD": {
    "AvailableFormats": "2D",
    "City": "Erode",
    "Latitude": "11.3451",
    "Longitude": "77.7087",
    "RegionCode": "EROD",
    "State": "Tamil Nadu",
    "SubRegionCode": "EROD",
    "VenueAddress": "Manikampalayam Housing Unit, Erode, Tamil Nadu, Near SSPE Cotton Mills, Erode, Tamil Nadu 638011, India",
    "VenueCode": "ATRD",
    "VenueName": "Anna Theatre A/C: Erode"
  },
  "AVAB": {
    "AvailableFormats": "2D|3D",
    "City": "Bhimavaram",
    "Latitude": "16.5466",
    "Longitude": "81.5174",
    "RegionCode": "BHIM",
    "State": "Andhra Pradesh",
    "SubRegionCode": "BHIM",
    "VenueAddress": "Coastal City Center Mall , 3-1-74, Undi Road, Balusumoodi, Bhimavaram, Andhra Pradesh 534202, India",
    "VenueCode": "AVAB",
    "VenueName": "AVG Screens, 4K Dolby Atmos: Bhimavaram"
  },
  "AWCT": {
    "AvailableFormats": "2D",
    "City": "Thodupuzha",
    "Latitude": "9.90285",
    "Longitude": "76.7153",
    "RegionCode": "THOD",
    "State": "Kerala",
    "SubRegionCode": "THOD",
    "VenueAddress": "Silver Hills, Mount Sinai Road, Near Mount Senai Hospital, Thodupuzha, Kerala 685584, India",
    "VenueCode": "AWCT",
    "VenueName": "Silver Hills Naxa Cinemas 4K Dolby ATMOS"
  },
  "AYYA": {
    "AvailableFormats": "2D",
    "City": "Pattukkottai",
    "Latitude": "10.4238",
    "Longitude": "79.3149",
    "RegionCode": "PATU",
    "State": "Tamil Nadu",
    "SubRegionCode": "PATU",
    "VenueAddress": "54 South Kali, Amman Mobil st, Nadimuthu Nagar, Pattukkottai, Tamil Nadu 614601, India",
    "VenueCode": "AYYA",
    "VenueName": "Ayya A/C theatre 2K Dolby 7.1: Pattukkottai"
  },
  "BATG": {
    "AvailableFormats": "2D",
    "City": "Pondicherry",
    "Latitude": "11.9378",
    "Longitude": "79.8199",
    "RegionCode": "AURV",
    "State": "Tamil Nadu",
    "SubRegionCode": "AURV",
    "VenueAddress": "118,Brindavanam, Kamaraj Salai, Near Thanthai Periyar Statue, Pondicherry, Tamil Nadu 605013, India",
    "VenueCode": "BATG",
    "VenueName": "Balaji Theatre 70MM: Pondicherry"
  },
  "BCBP": {
    "AvailableFormats": "2D",
    "City": "Bhopal",
    "Latitude": "23.2601",
    "Longitude": "77.4104",
    "RegionCode": "BHOP",
    "State": "Madhya Pradesh",
    "SubRegionCode": "BHOP",
    "VenueAddress": "Near Shakir Ali Khan Hospital, Opposite Capital Hotel, Hamidia Road, Near Shakir Ali Khan Hospital, Bhopal, Madhya Pradesh 462001, India",
    "VenueCode": "BCBP",
    "VenueName": "Bharat Cineplex: Bhopal"
  },
  "BEMR": {
    "AvailableFormats": "2D",
    "City": "Malur",
    "Latitude": "13.0176",
    "Longitude": "77.938",
    "RegionCode": "MLLR",
    "State": "Karnataka",
    "SubRegionCode": "MLLR",
    "VenueAddress": "Harohalli Road, Malur Taluk, Kolar District, Malur, Karnataka 563130, India",
    "VenueCode": "BEMR",
    "VenueName": "Benaka Theatre: Malur"
  },
  "BICJ": {
    "AvailableFormats": "2D",
    "City": "Jaipur",
    "Latitude": "26.965",
    "Longitude": "75.7812",
    "RegionCode": "JAIP",
    "State": "Rajasthan",
    "SubRegionCode": "JAIP",
    "VenueAddress": "B-6, Central Spine Road, Vidyadhar Nagar, Near Delhi Public School, Jaipur, Rajasthan 302039, India",
    "VenueCode": "BICJ",
    "VenueName": "Cinestar Multiplex: Vidhyadhar Nagar"
  },
  "BJNG": {
    "AvailableFormats": "2D",
    "City": "Hyderabad",
    "Latitude": "17.5122",
    "Longitude": "78.4486",
    "RegionCode": "HYD",
    "State": "Telangana",
    "SubRegionCode": "HYD",
    "VenueAddress": "Pipe Line Road, Phase 1, Shapur Nagar, Jeedimetla, Near Ranga Theatre, Hyderabad, Telangana 500055, India",
    "VenueCode": "BJNG",
    "VenueName": "Bhujanga 70MM: Jeedimetla"
  },
  "BLMX": {
    "AvailableFormats": "2D",
    "City": "Vadodara",
    "Latitude": "22.3035",
    "Longitude": "73.1383",
    "RegionCode": "ANKV",
    "State": "Gujarat",
    "SubRegionCode": "ANKV",
    "VenueAddress": "Bansal Mall,Gotri - Bhayli Rd, Nilamber Char Rasta,Near, Saiyed Vasna, Gotri, Vadodara, Gujarat 390021, India",
    "VenueCode": "BLMX",
    "VenueName": "Bansal Movieplex Gotri-Vasna Road: Vadodara"
  },
  "BODA": {
    "AvailableFormats": "2D",
    "City": "Damoh",
    "Latitude": "23.8026",
    "Longitude": "79.4537",
    "RegionCode": "DAMO",
    "State": "Madhya Pradesh",
    "SubRegionCode": "DAMO",
    "VenueAddress": "Choupra Khurd, Jabalpur Road, Damoh, Madhya Pradesh 470661, India",
    "VenueCode": "BODA",
    "VenueName": "Bollywood Cinema: Damoh"
  },
  "BSMP": {
    "AvailableFormats": "2D",
    "City": "Ambikapur",
    "Latitude": "23.1147",
    "Longitude": "83.198",
    "RegionCode": "AMBI",
    "State": "Chhattisgarh",
    "SubRegionCode": "AMBI",
    "VenueAddress": "Kharsia Road, Beside Hotel Grand Basant, NH 78, Ambikapur, Chhattisgarh 497001, India",
    "VenueCode": "BSMP",
    "VenueName": "Basant Multiplex: Ambikapur"
  },
  "BTFD": {
    "AvailableFormats": "3D|2D",
    "City": "Delhi",
    "Latitude": "28.5615",
    "Longitude": "77.2686",
    "RegionCode": "NCR",
    "State": "NCR",
    "SubRegionCode": "DELHI",
    "VenueAddress": "Grand Mall Community Centre,1, Maulana Mohammad Ali Jauhar Marg, Friends Colony West, New Friends Colony, Delhi, NCR 110025, India",
    "VenueCode": "BTFD",
    "VenueName": "Batra Reels Cinemas: New Friends Colony"
  },
  "BXDR": {
    "AvailableFormats": "2D",
    "City": "Dharampur",
    "Latitude": "20.5308",
    "Longitude": "73.187",
    "RegionCode": "BILI",
    "State": "Gujarat",
    "SubRegionCode": "BILI",
    "VenueAddress": "2nd Floor, Tanishq complex, Dharampur Barumal Road, Bilpudi, Dharampur, Gujarat 396050, India",
    "VenueCode": "BXDR",
    "VenueName": "Balaji Cinemax: Dharampur"
  },
  "CBPB": {
    "AvailableFormats": "2D|3D",
    "City": "Bhopal",
    "Latitude": "23.2199",
    "Longitude": "77.4395",
    "RegionCode": "BHOP",
    "State": "Madhya Pradesh",
    "SubRegionCode": "BHOP",
    "VenueAddress": "4th Floor, Bansal Plaza, Rani Kamplapati Railway Station, Bhopal, Madhya Pradesh 462023, India",
    "VenueCode": "CBPB",
    "VenueName": "Cinepolis: Bansal Plaza, Bhopal"
  },
  "CCBT": {
    "AvailableFormats": "2D|3D",
    "City": "Guwahati",
    "Latitude": "26.1202",
    "Longitude": "91.7981",
    "RegionCode": "GUW",
    "State": "Assam",
    "SubRegionCode": "GUW",
    "VenueAddress": "Beltola-Basistha Road, Beltola, Opposite Shankardeva Netralaya, Lakhi Mandir,Guwahati, Assam 781028, India",
    "VenueCode": "CCBT",
    "VenueName": "Matrix Cinemas: Matrix Mall, Beltola, Guwahati"
  },
  "CCKP": {
    "AvailableFormats": "2D",
    "City": "Kalol (Panchmahal)",
    "Latitude": "22.6112",
    "Longitude": "73.4662",
    "RegionCode": "PANH",
    "State": "Gujarat",
    "SubRegionCode": "PANH",
    "VenueAddress": "Cinema City, GJ SH 87, Near Lal Darwaja, Jantral, Kalol (Panchmahal), Gujarat 389330, India",
    "VenueCode": "CCKP",
    "VenueName": "FUN Cinemas Cinema City Multiplex: Kalol"
  },
  "CCMU": {
    "AvailableFormats": "2D|3D",
    "City": "Mysuru (Mysore)",
    "Latitude": "12.3585",
    "Longitude": "76.6361",
    "RegionCode": "MYS",
    "State": "Karnataka",
    "SubRegionCode": "MYS",
    "VenueAddress": "No 119 Metagalli Industrial Area, Metagalli, Behind GRS Fantasy Park, Opposite J K Golden Embassy, Mysuru (Mysore), Karnataka 570016, India",
    "VenueCode": "CCMU",
    "VenueName": "Mysuru VISION Cinemas, Behind GRS Fantasy Park"
  },
  "CCRP": {
    "AvailableFormats": "2D",
    "City": "Raipur",
    "Latitude": "21.2173",
    "Longitude": "81.6566",
    "RegionCode": "RAIPUR",
    "State": "Chhattisgarh",
    "SubRegionCode": "RAIPUR",
    "VenueAddress": "Colors Cinema, 3rd floor, Colors Mall, Pachpedi Naka, NH 43, Raipur, Chhattisgarh 492001, India",
    "VenueCode": "CCRP",
    "VenueName": "Colors Cinemas: Colors Mall, Raipur"
  },
  "CDDP": {
    "AvailableFormats": "2D",
    "City": "Punalur",
    "Latitude": "9.02059",
    "Longitude": "76.9193",
    "RegionCode": "PUNA",
    "State": "Kerala",
    "SubRegionCode": "PUNA",
    "VenueAddress": "Market Road, Chemmanthoor, Punalur, Kerala 691305, India",
    "VenueCode": "CDDP",
    "VenueName": "Deva Carnival Cinemas: D Mall, Punalur"
  },
  "CEPO": {
    "AvailableFormats": "2D",
    "City": "Pune",
    "Latitude": "18.518",
    "Longitude": "73.8561",
    "RegionCode": "PUNE",
    "State": "Maharashtra",
    "SubRegionCode": "PUNE",
    "VenueAddress": "Near Nana Wada, Chhatrapati Shivaji Maharaj Road, Budhwar Peth, Pune, Maharashtra 411002, India",
    "VenueCode": "CEPO",
    "VenueName": "CinePRO: Vasant Cinema, Pune"
  },
  "CGGC": {
    "AvailableFormats": "2D",
    "City": "Gondal",
    "Latitude": "21.9236",
    "Longitude": "70.7546",
    "RegionCode": "GONA",
    "State": "Gujarat",
    "SubRegionCode": "GONA",
    "VenueAddress": "Survey No 744 Paikee 1, Corner of Dreamvelly, Jetpur Highway, Gangotri International School, Gondal, Gujarat 360311, India",
    "VenueCode": "CGGC",
    "VenueName": "Climax Cinema: Gondal"
  },
  "CGSM": {
    "AvailableFormats": "2D",
    "City": "Mangaluru (Mangalore)",
    "Latitude": "12.9917",
    "Longitude": "74.7989",
    "RegionCode": "MLR",
    "State": "Karnataka",
    "SubRegionCode": "MLR",
    "VenueAddress": "3rd Floor, Abish Business Centre, Maarigudi Road, Near - Chawadi Banquet Hall, Mangaluru (Mangalore), Karnataka 575014, India",
    "VenueCode": "CGSM",
    "VenueName": "Cine Galaxy: Surathkal, Mangalore"
  },
  "CHTP": {
    "AvailableFormats": "2D",
    "City": "Manawar",
    "Latitude": "22.2379",
    "Longitude": "75.0863",
    "RegionCode": "MANW",
    "State": "Madhya Pradesh",
    "SubRegionCode": "MANW",
    "VenueAddress": "Singhana Road, Near Punjab National Bank, Manawar, Madhya Pradesh 454446, India",
    "VenueCode": "CHTP",
    "VenueName": "Chaitanya Plaza: Manawar"
  },
  "CIPC": {
    "AvailableFormats": "2D",
    "City": "Mahudha",
    "Latitude": "22.8185",
    "Longitude": "72.9388",
    "RegionCode": "MAHU",
    "State": "Gujarat",
    "SubRegionCode": "MAHU",
    "VenueAddress": "A-1, Kheda Road, Near Mahudha Town Bus Stand, Mahudha, Gujarat 387335, India",
    "VenueCode": "CIPC",
    "VenueName": "City Pulse Cinema: Mahudha"
  },
  "CKUA": {
    "AvailableFormats": "2D|3D",
    "City": "Ahmedabad",
    "Latitude": "22.9998",
    "Longitude": "72.658",
    "RegionCode": "AHD",
    "State": "Gujarat",
    "SubRegionCode": "AHD",
    "VenueAddress": "3rd Floor, Near Nirant Cross Road, Metro Station Vastral, Ahmedabad, Gujarat 382418, India",
    "VenueCode": "CKUA",
    "VenueName": "Cinepolis: Kankubag, Vastral, Ahmedabad"
  },
  "CLMK": {
    "AvailableFormats": "2D|3D",
    "City": "Kolkata",
    "Latitude": "22.5167",
    "Longitude": "88.3489",
    "RegionCode": "KOLK",
    "State": "West Bengal",
    "SubRegionCode": "KOLK",
    "VenueAddress": "5th Floor Lake mall, Rash behari Avenue Road, 104- Rashbehari Avenue, Kolkata, West Bengal 700026, India",
    "VenueCode": "CLMK",
    "VenueName": "Cinepolis: Lake Mall, Kolkata"
  },
  "CMCT": {
    "AvailableFormats": "2D",
    "City": "Thamarassery",
    "Latitude": "11.4148",
    "Longitude": "75.9358",
    "RegionCode": "KOZH",
    "State": "Kerala",
    "SubRegionCode": "KOZH",
    "VenueAddress": "City Mall, Thamarassery, Kerala, Thamarassery, Kerala 673573, India",
    "VenueCode": "CMCT",
    "VenueName": "City Mall Cinemas: Thamarassery"
  },
  "CMMM": {
    "AvailableFormats": "2D",
    "City": "Madhepura",
    "Latitude": "25.927",
    "Longitude": "86.7968",
    "RegionCode": "MHEA",
    "State": "Bihar",
    "SubRegionCode": "MHEA",
    "VenueAddress": "Near Parwati Science College, Birpur-Madhepura Road, Madhepura, Bihar 852113, India",
    "VenueCode": "CMMM",
    "VenueName": "Chhotu Maharaj Cine Cafe: Madhepura, Bihar"
  },
  "CMTU": {
    "AvailableFormats": "2D",
    "City": "Khatima",
    "Latitude": "28.924",
    "Longitude": "79.9753",
    "RegionCode": "KHTM",
    "State": "Uttarakhand",
    "SubRegionCode": "KHTM",
    "VenueAddress": "Mj Market, Tankapur Road, Opposite -  Prayas Hospital, Khatima, Uttarakhand 262308, India",
    "VenueCode": "CMTU",
    "VenueName": "Chhotu Maharaj Cine Cafe: Khatima,Uttarakhand"
  },
  "CMXN": {
    "AvailableFormats": "2D",
    "City": "Nimbahera",
    "Latitude": "24.6251",
    "Longitude": "74.6928",
    "RegionCode": "NIPA",
    "State": "Rajasthan",
    "SubRegionCode": "NIPA",
    "VenueAddress": "Chittorgarh Road, Mahesh Nagar, Kamdhaz Nagar, Nimbahera, Rajasthan 312601, India",
    "VenueCode": "CMXN",
    "VenueName": "Crazy Multiplex: Nimbahera"
  },
  "CNED": {
    "AvailableFormats": "2D|3D",
    "City": "Bhubaneswar",
    "Latitude": "20.2912",
    "Longitude": "85.8558",
    "RegionCode": "JATN",
    "State": "Odisha",
    "SubRegionCode": "JATN",
    "VenueAddress": "Esplanade One, Rasulgarh Industrial Estate, Industrial Area Estate, Rasulgarh, Bhubaneswar, Odisha 751007, India",
    "VenueCode": "CNED",
    "VenueName": "Cinepolis: Nexus Esplanade, Bhubaneswar"
  },
  "CNPR": {
    "AvailableFormats": "2D",
    "City": "Guntur",
    "Latitude": "16.2916",
    "Longitude": "80.4375",
    "RegionCode": "GUNT",
    "State": "Andhra Pradesh",
    "SubRegionCode": "GUNT",
    "VenueAddress": "Nagarjuna Sagar Road, Srinivasarao Pet, Guntur, Andhra Pradesh 522003, India",
    "VenueCode": "CNPR",
    "VenueName": "Cine Prime: Guntur"
  },
  "CNVS": {
    "AvailableFormats": "2D",
    "City": "Surat",
    "Latitude": "21.1484",
    "Longitude": "72.7747",
    "RegionCode": "SURT",
    "State": "Gujarat",
    "SubRegionCode": "SURT",
    "VenueAddress": "4th Floor, Atlanta Shoppers, Vesu, Near Reliance Market, Surat, Gujarat 395007, India",
    "VenueCode": "CNVS",
    "VenueName": "Cineverse Cinema: Vesu"
  },
  "COOC": {
    "AvailableFormats": "2D|3D",
    "City": "Chandannagar",
    "Latitude": "22.8606",
    "Longitude": "88.3693",
    "RegionCode": "CHDD",
    "State": "West Bengal",
    "SubRegionCode": "CHDD",
    "VenueAddress": "Barabazar, Burabazar Main Road, Chandannagar, West Bengal 712136, India",
    "VenueCode": "COOC",
    "VenueName": "Cinema Hut: Chandannagar"
  },
  "CPCL": {
    "AvailableFormats": "2D|3D",
    "City": "Hyderabad",
    "Latitude": "17.4572",
    "Longitude": "78.5369",
    "RegionCode": "HYD",
    "State": "Telangana",
    "SubRegionCode": "HYD",
    "VenueAddress": "CCPL Mall, Malkajgiri Road, Vimala Devi Nagar Colony, Malkajgiri, Hyderabad, Telangana 500047, India",
    "VenueCode": "CPCL",
    "VenueName": "Cinepolis: CCPL Mall Malkajgiri, Hyderabad"
  },
  "CPHY": {
    "AvailableFormats": "2D",
    "City": "Hyderabad",
    "Latitude": "17.5296",
    "Longitude": "78.4858",
    "RegionCode": "HYD",
    "State": "Telangana",
    "SubRegionCode": "HYD",
    "VenueAddress": "Satyam Enclave, Medchal Road, Kompally, Hyderabad, Telangana 500014, India",
    "VenueCode": "CPHY",
    "VenueName": "Asian Cineplanet Multiplex: Kompally"
  },
  "CPLK": {
    "AvailableFormats": "2D",
    "City": "Hyderabad",
    "Latitude": "17.4251",
    "Longitude": "78.4482",
    "RegionCode": "HYD",
    "State": "Telangana",
    "SubRegionCode": "HYD",
    "VenueAddress": "4th Floor, MPM Timesquare Mall, Nagarjuna Circle, Road No.1 and 3, Banjara Hills, Hyderabad, Telangana 5000345, India",
    "VenueCode": "CPLK",
    "VenueName": "Connplex Cinemas: MPM Mall, Banjara Hills"
  },
  "CPOE": {
    "AvailableFormats": "2D",
    "City": "Bengaluru",
    "Latitude": "13.0018",
    "Longitude": "77.6329",
    "RegionCode": "BANG",
    "State": "Karnataka",
    "SubRegionCode": "BANG",
    "VenueAddress": "3rd floor, Orion Avenue Mall, Banasawadi Main Road, Maruti Seva Nagar, Bengaluru, Karnataka 560033, India",
    "VenueCode": "CPOE",
    "VenueName": "Cinepolis: Orion Avenue Mall, Banaswadi"
  },
  "CPSM": {
    "AvailableFormats": "2D",
    "City": "Ahmedabad",
    "Latitude": "23.1045",
    "Longitude": "72.5494",
    "RegionCode": "AHD",
    "State": "Gujarat",
    "SubRegionCode": "AHD",
    "VenueAddress": "Savvy Sawaraj Sports Club, 5th Floor, Vandematram Road, Near Godrej Garden City Road, Ahmedabad, Gujarat 382481, India",
    "VenueCode": "CPSM",
    "VenueName": "Savvy Swaraaj Miniplex: Gota, Ahmedabad"
  },
  "CRGM": {
    "AvailableFormats": "3D|2D",
    "City": "Gurugram (Gurgaon)",
    "Latitude": "28.3833",
    "Longitude": "77.0522",
    "RegionCode": "NCR",
    "State": "NCR",
    "SubRegionCode": "GURG",
    "VenueAddress": "Reach Airia Mall, 3rd Floor Sohna Road, Sector 68, Gurugram (Gurgaon), NCR 122103, India",
    "VenueCode": "CRGM",
    "VenueName": "Cinepolis: Airia Mall, Sohna Road, Gurgaon"
  },
  "CSCV": {
    "AvailableFormats": "2D|3D",
    "City": "Vizag (Visakhapatnam)",
    "Latitude": "17.8083",
    "Longitude": "83.3751",
    "RegionCode": "VIZA",
    "State": "Andhra Pradesh",
    "SubRegionCode": "VIZA",
    "VenueAddress": "100 Feet Road, Madhurawada, Vizag (Visakhapatnam), Andhra Pradesh 530048, India",
    "VenueCode": "CSCV",
    "VenueName": "Cinepolis: Sreekanya Cineglitz, Madhurawada"
  },
  "CSSL": {
    "AvailableFormats": "2D",
    "City": "Asansol",
    "Latitude": "23.7034",
    "Longitude": "86.9483",
    "RegionCode": "ASANSOL",
    "State": "West Bengal",
    "SubRegionCode": "ASANSOL",
    "VenueAddress": "Sentrum Mall, Lions Club Road, Shristinagar, Asansol, West Bengal 713305, India",
    "VenueCode": "CSSL",
    "VenueName": "CineCosmo: Sentrum Mall, Asansol"
  },
  "CSUB": {
    "AvailableFormats": "2D",
    "City": "Cumbum",
    "Latitude": "9.75236",
    "Longitude": "77.2795",
    "RegionCode": "CMBM",
    "State": "Tamil Nadu",
    "SubRegionCode": "CMBM",
    "VenueAddress": "1587/3A, RJMS Danube Building, Uthamapuram, Theni, Cumbum, Tamil Nadu 625516, India",
    "VenueCode": "CSUB",
    "VenueName": "Cine Square Cinemas 2K DOLBY A/C: Cumbum"
  },
  "CTML": {
    "AvailableFormats": "2D|3D",
    "City": "Bilaspur",
    "Latitude": "22.0942",
    "Longitude": "82.1257",
    "RegionCode": "BILA",
    "State": "Chhattisgarh",
    "SubRegionCode": "BILA",
    "VenueAddress": "36 City Mall, Mungeli Road, Near Mangala Chowk, Bilaspur, Chhattisgarh 495001, India",
    "VenueCode": "CTML",
    "VenueName": "City36 Cinemas: Bilaspur"
  },
  "CUCC": {
    "AvailableFormats": "2D",
    "City": "Ujjain",
    "Latitude": "23.1021",
    "Longitude": "75.7837",
    "RegionCode": "UJJN",
    "State": "Madhya Pradesh",
    "SubRegionCode": "UJJN",
    "VenueAddress": "Prashanti College Road, Tapobhumi Chouraha, Indore Road, Village  Pipliya Ragho, Ujjain, Madhya Pradesh 456006, India",
    "VenueCode": "CUCC",
    "VenueName": "Chhotu Maharaj Cine Cafe: Ujjain"
  },
  "CVRN": {
    "AvailableFormats": "3D|2D",
    "City": "Nagpur",
    "Latitude": "21.1327",
    "Longitude": "79.0957",
    "RegionCode": "NAGP",
    "State": "Maharashtra",
    "SubRegionCode": "NAGP",
    "VenueAddress": "City Survey No. 362/1, Ward No 90 (New), Mouza Jat - Tarodi, Near Medical Square, Rambagh Road, Nagpur, Maharashtra 440003, India",
    "VenueCode": "CVRN",
    "VenueName": "Cinepolis: VR Mall, Nagpur"
  },
  "CXKT": {
    "AvailableFormats": "2D",
    "City": "Katihar",
    "Latitude": "25.6067",
    "Longitude": "87.5533",
    "RegionCode": "KATI",
    "State": "Bihar",
    "SubRegionCode": "KATI",
    "VenueAddress": "IPG Mall, Near Dalan Chowk, Katihar Purina Highway, Katihar, Bihar 854105, India",
    "VenueCode": "CXKT",
    "VenueName": "Connplex Cinemas: Katihar"
  },
  "DAMD": {
    "AvailableFormats": "2D",
    "City": "Tirupur",
    "Latitude": "11.0991",
    "Longitude": "77.3444",
    "RegionCode": "AVII",
    "State": "Tamil Nadu",
    "SubRegionCode": "AVII",
    "VenueAddress": "State Highway 169, Puliyamara Thottam, Katapalayam, Near Arulmigu Sri Pattathaarasi Amman Thirukovil, Tirupur, Tamil Nadu 641604, India",
    "VenueCode": "DAMD",
    "VenueName": "Diamond Cinemas A/C 4K Dolby: Tirupur"
  },
  "DCCU": {
    "AvailableFormats": "2D",
    "City": "Thodupuzha",
    "Latitude": "9.90082",
    "Longitude": "76.7134",
    "RegionCode": "THOD",
    "State": "Kerala",
    "SubRegionCode": "THOD",
    "VenueAddress": "4th Floor, Dream Mall, Mt Sinai Road, Near Reliance Trends, Thodupuzha, Kerala 685584, India",
    "VenueCode": "DCCU",
    "VenueName": "DREAM MALL NAXA CINEMAS DOLBY 7.1"
  },
  "DCRL": {
    "AvailableFormats": "2D",
    "City": "Pappanadu",
    "Latitude": "10.5423",
    "Longitude": "79.2821",
    "RegionCode": "MANB",
    "State": "Tamil Nadu",
    "SubRegionCode": "MANB",
    "VenueAddress": "SH 29, Pappanadu, Nemilithippiakudi, Pappanadu, Tamil Nadu 614626, India",
    "VenueCode": "DCRL",
    "VenueName": "Devasuki Cinemas Laser Dolby Atmos: Pappanadu"
  },
  "DDTD": {
    "AvailableFormats": "2D|3D",
    "City": "Dharmapuri",
    "Latitude": "12.1329",
    "Longitude": "78.1608",
    "RegionCode": "DMPI",
    "State": "Tamil Nadu",
    "SubRegionCode": "DMPI",
    "VenueAddress": "Dharmapuri, Tamil Nadu, Dharmapuri, Tamil Nadu 636701, India",
    "VenueCode": "DDTD",
    "VenueName": "DMAX DNC Theatres: Dharmapuri"
  },
  "DFCH": {
    "AvailableFormats": "2D",
    "City": "Dhemaji",
    "Latitude": "27.4716",
    "Longitude": "94.5575",
    "RegionCode": "DHEM",
    "State": "Assam",
    "SubRegionCode": "DHEM",
    "VenueAddress": "Ward No 3, Dhemaji Chariali, Chariali, Near Indian Oil Petrol Pump Rupanti Borgohain Path, Dhemaji, Assam 787057, India",
    "VenueCode": "DFCH",
    "VenueName": "Dhemaji Cinema & Cafe"
  },
  "DJYA": {
    "AvailableFormats": "2D",
    "City": "Angul",
    "Latitude": "20.8326",
    "Longitude": "85.0889",
    "RegionCode": "ANGL",
    "State": "Odisha",
    "SubRegionCode": "ANGL",
    "VenueAddress": "Hatisalapada, National Highway 42, Angul, Odisha 759106, India",
    "VenueCode": "DJYA",
    "VenueName": "Divyajyoti Multiplex 2 (Dolby Atmos): Angul"
  },
  "DMCK": {
    "AvailableFormats": "2D",
    "City": "Kallachi",
    "Latitude": "11.6868",
    "Longitude": "75.6656",
    "RegionCode": "VDKR",
    "State": "Kerala",
    "SubRegionCode": "VDKR",
    "VenueAddress": "Met Collage Road, Nadapuram, Kallachi, Kerala 673506, India",
    "VenueCode": "DMCK",
    "VenueName": "Dream Cinema: Kallachi"
  },
  "DNNV": {
    "AvailableFormats": "2D",
    "City": "Vadodara",
    "Latitude": "22.3405",
    "Longitude": "73.1738",
    "RegionCode": "VAD",
    "State": "Gujarat",
    "SubRegionCode": "VAD",
    "VenueAddress": "Deep Cinemas, Deep Multiplex Pvt. Ltd, Behind Kiran Motors, Old Chhani Road, Chhani, Vadodara, Gujarat 390008, India",
    "VenueCode": "DNNV",
    "VenueName": "Deep Cinemas: Nizampura, Chhani Road"
  },
  "DRPV": {
    "AvailableFormats": "2D",
    "City": "kanchikacherla",
    "Latitude": "16.681",
    "Longitude": "80.3922",
    "RegionCode": "KNCH",
    "State": "Andhra Pradesh",
    "SubRegionCode": "KNCH",
    "VenueAddress": "D.No 13-191, Near IOC Bunk, NH65, kanchikacherla, Andhra Pradesh 521180, India",
    "VenueCode": "DRPV",
    "VenueName": "Dr. PV Rao Cineplex: Kanchikacherla"
  },
  "DTPY": {
    "AvailableFormats": "2D",
    "City": "Pondicherry",
    "Latitude": "11.8642",
    "Longitude": "79.7524",
    "RegionCode": "POND",
    "State": "Tamil Nadu",
    "SubRegionCode": "POND",
    "VenueAddress": "Madukarai Road, Karikalapakkam, Pondicherry, Tamil Nadu 605007, India",
    "VenueCode": "DTPY",
    "VenueName": "Divya Theatre A/C 4K RGB LASER: Pondicherry"
  },
  "DVMY": {
    "AvailableFormats": "2D",
    "City": "Salem",
    "Latitude": "11.6276",
    "Longitude": "78.1344",
    "RegionCode": "SALM",
    "State": "Tamil Nadu",
    "SubRegionCode": "SALM",
    "VenueAddress": "P M P Nagar, Kondalampatty Bypass, Salem, Tamil Nadu 636010, India",
    "VenueCode": "DVMY",
    "VenueName": "Dhivyam Cinemax 4K Dolby Atmos 3D: Salem"
  },
  "ECGN": {
    "AvailableFormats": "2D",
    "City": "Gondia",
    "Latitude": "21.4655",
    "Longitude": "80.1894",
    "RegionCode": "AMGN",
    "State": "Maharashtra",
    "SubRegionCode": "AMGN",
    "VenueAddress": "2nd Floor, Platinum Plaza, Ward No 9, Lohiya Ward, Pal Chowk, Rail Toly, Bhandarkar Road, Near State Bank of India, Gondia, Maharashtra 441614, India",
    "VenueCode": "ECGN",
    "VenueName": "EOS Cinemas: Gondia"
  },
  "EKCM": {
    "AvailableFormats": "2D",
    "City": "Kusumgram",
    "Latitude": "23.3893",
    "Longitude": "88.1318",
    "RegionCode": "KKKL",
    "State": "West Bengal",
    "SubRegionCode": "KKKL",
    "VenueAddress": "SH 8, Kusumgram, Belgram Bolgona Kalna Road, Opposite Bandhan Bank, Kusumgram, West Bengal 713422, India",
    "VenueCode": "EKCM",
    "VenueName": "Ekta Manch: Kusumgram"
  },
  "EOSE": {
    "AvailableFormats": "2D|3D",
    "City": "Shahdol",
    "Latitude": "23.2961",
    "Longitude": "81.3732",
    "RegionCode": "SHAH",
    "State": "Madhya Pradesh",
    "SubRegionCode": "SHAH",
    "VenueAddress": "K Square Mall, MP SH 9A, Bhatnagar, Budhar Main Road, Shahdol, Madhya Pradesh 484001, India",
    "VenueCode": "EOSE",
    "VenueName": "K-Square Cinemas: Shahdol"
  },
  "ESSM": {
    "AvailableFormats": "2D",
    "City": "Rajnandgaon",
    "Latitude": "21.0836",
    "Longitude": "81.0286",
    "RegionCode": "RAJA",
    "State": "Chhattisgarh",
    "SubRegionCode": "RAJA",
    "VenueAddress": "Ground Floor, Sumeet Mandi Mall, Basantpur Road, Basantpur, Near Shukla Hospital, Rajnandgaon, Chhattisgarh 491441, India",
    "VenueCode": "ESSM",
    "VenueName": "Silver Screen Miniplex: Rajnandgaon"
  },
  "EVMP": {
    "AvailableFormats": "2D",
    "City": "Kochi",
    "Latitude": "10.1113",
    "Longitude": "76.4742",
    "RegionCode": "KOCH",
    "State": "Kerala",
    "SubRegionCode": "KOCH",
    "VenueAddress": "old kaala vayal, Perumbavoor, Kochi, Kerala 683542, India",
    "VenueCode": "EVMP",
    "VenueName": "EVM Cinema A/C 4K RGB Laser 3D: Perumbavoor"
  },
  "FCMG": {
    "AvailableFormats": "2D",
    "City": "Nipani",
    "Latitude": "16.4083",
    "Longitude": "74.4892",
    "RegionCode": "NIPN",
    "State": "Karnataka",
    "SubRegionCode": "NIPN",
    "VenueAddress": "Mall Road, Next to Nipani Bus Stand, Chikodi Road, Nipani, Karnataka 591237, India",
    "VenueCode": "FCMG",
    "VenueName": "Magnum Fun Cinemas: Nipani"
  },
  "FMDA": {
    "AvailableFormats": "2D|3D",
    "City": "Mumbai",
    "Latitude": "19.2633",
    "Longitude": "72.8746",
    "RegionCode": "MUMBAI",
    "State": "Maharashtra",
    "SubRegionCode": "MWEST",
    "VenueAddress": "3rd Floor, Thakur Mall, Opposite Sunshine Hotel, Near Dahisar Toll Naka, Dahisar East, Mumbai, Maharashtra 400068, India",
    "VenueCode": "FMDA",
    "VenueName": "INOX: Thakur Mall, Dahisar"
  },
  "FMPT": {
    "AvailableFormats": "2D",
    "City": "Petlad",
    "Latitude": "22.4938",
    "Longitude": "72.8013",
    "RegionCode": "BORM",
    "State": "Gujarat",
    "SubRegionCode": "BORM",
    "VenueAddress": "Novello Entertainment, Sunav Road, Near Sanatorium, Petlad, Gujarat 388450, India",
    "VenueCode": "FMPT",
    "VenueName": "Flamingo Cinemas: Petlad"
  },
  "FNCM": {
    "AvailableFormats": "2D|3D",
    "City": "Mumbai",
    "Latitude": "19.0524",
    "Longitude": "72.9017",
    "RegionCode": "MUMBAI",
    "State": "Maharashtra",
    "SubRegionCode": "MCENT",
    "VenueAddress": "K Star Mall, 4th Floor, V.N.Purav Road, Chembur(E), Next to Diamond Garden, Mumbai, Maharashtra 400071, India",
    "VenueCode": "FNCM",
    "VenueName": "Fun Cinemas: K Star Mall, Chembur"
  },
  "FNPN": {
    "AvailableFormats": "2D|3D",
    "City": "Panipat",
    "Latitude": "29.3762",
    "Longitude": "76.984",
    "RegionCode": "PAN",
    "State": "Haryana",
    "SubRegionCode": "PAN",
    "VenueAddress": "Mittal`s Mega Mall, Sector 25-2, Panipat, Haryana 132103, India",
    "VenueCode": "FNPN",
    "VenueName": "Fun Cinemas: Mittal Mega Mall, Panipat"
  },
  "FRTS": {
    "AvailableFormats": "2D|3D",
    "City": "Ichalkaranji",
    "Latitude": "16.6922",
    "Longitude": "74.4754",
    "RegionCode": "ICHL",
    "State": "Maharashtra",
    "SubRegionCode": "ICHL",
    "VenueAddress": "Fortune Plaza Mall, 2nd Floor, Sangli Road, Ichalkaranji, Maharashtra 416115, India",
    "VenueCode": "FRTS",
    "VenueName": "Fortune Cineplex: Ichalkaranji"
  },
  "FXDR": {
    "AvailableFormats": "2D",
    "City": "Razole",
    "Latitude": "16.4775",
    "Longitude": "81.8433",
    "RegionCode": "RAZO",
    "State": "Andhra Pradesh",
    "SubRegionCode": "RAZO",
    "VenueAddress": "4 Shows Road, LIC Office Backside, Razole, Andhra Pradesh 533242, India",
    "VenueCode": "FXDR",
    "VenueName": "Four Shows Cineplex Dolby Atmos: Razole"
  },
  "GALX": {
    "AvailableFormats": "2D|3D",
    "City": "Raigarh",
    "Latitude": "21.8949",
    "Longitude": "83.3954",
    "RegionCode": "RAIG",
    "State": "Chhattisgarh",
    "SubRegionCode": "RAIG",
    "VenueAddress": "3rd Floor, Galaxy Mall, Gauri Shankar Mandir Road, Raigarh, Chhattisgarh 496001, India",
    "VenueCode": "GALX",
    "VenueName": "Galaxy Cinemas (Dolby Atmos): Raigarh"
  },
  "GBTG": {
    "AvailableFormats": "2D",
    "City": "Gudivada",
    "Latitude": "16.4305",
    "Longitude": "80.9914",
    "RegionCode": "GUDI",
    "State": "Andhra Pradesh",
    "SubRegionCode": "GUDI",
    "VenueAddress": "Satyanarayana Puram, Pillalamari Street, Gudivada, Andhra Pradesh 521301, India",
    "VenueCode": "GBTG",
    "VenueName": "G3 Bhaskar Talkies: Gudivada"
  },
  "GCDM": {
    "AvailableFormats": "2D|3D",
    "City": "Mumbai",
    "Latitude": "19.2229",
    "Longitude": "73.0853",
    "RegionCode": "MUMBAI",
    "State": "Maharashtra",
    "SubRegionCode": "MCENT",
    "VenueAddress": "Vishnu Nagar, Nana Shanker Seth Road, Dombivali West, Near Fish Market, Mumbai, Maharashtra 421202, India",
    "VenueCode": "GCDM",
    "VenueName": "Gopi Cinema: Dombivali"
  },
  "GCKG": {
    "AvailableFormats": "2D",
    "City": "Kokrajhar",
    "Latitude": "26.4275",
    "Longitude": "90.2815",
    "RegionCode": "KKJR",
    "State": "Assam",
    "SubRegionCode": "KKJR",
    "VenueAddress": "Dimalgaon, Near Jwngma Hotel, Kokrajhar, Assam 783370, India",
    "VenueCode": "GCKG",
    "VenueName": "Gold Cinema: Kokrajhar"
  },
  "GCMM": {
    "AvailableFormats": "2D",
    "City": "Madurai",
    "Latitude": "9.93746",
    "Longitude": "78.1219",
    "RegionCode": "MADU",
    "State": "Tamil Nadu",
    "SubRegionCode": "MADU",
    "VenueAddress": "50 Feet Road, Sellur, Madurai, Tamil Nadu 625002, India",
    "VenueCode": "GCMM",
    "VenueName": "Gopuram Cinemas ATMOS and Laser Projector: Madurai"
  },
  "GCTA": {
    "AvailableFormats": "2D",
    "City": "Alwar",
    "Latitude": "27.5611",
    "Longitude": "76.6048",
    "RegionCode": "ALWR",
    "State": "Rajasthan",
    "SubRegionCode": "ALWR",
    "VenueAddress": "3rd Floor, Capital Galleria Plot No 4, Manumarg Kabir Colony, Alwar, Rajasthan 301001, India",
    "VenueCode": "GCTA",
    "VenueName": "Gold Cinema: Alwar CG, Manu Marg"
  },
  "GDBW": {
    "AvailableFormats": "2D",
    "City": "Bhiwadi",
    "Latitude": "28.2131",
    "Longitude": "76.8545",
    "RegionCode": "BHWD",
    "State": "Rajasthan",
    "SubRegionCode": "BHWD",
    "VenueAddress": "Capital Mall, H.C. Buildcon Pvt. Ltd. 812 C.P. 4 Riico Industrial Area, Bhiwadi, Rajasthan 301019, India",
    "VenueCode": "GDBW",
    "VenueName": "Gold Cinema: Bhiwadi"
  },
  "GDMT": {
    "AvailableFormats": "2D|3D",
    "City": "Mathura",
    "Latitude": "27.4943",
    "Longitude": "77.6551",
    "RegionCode": "MATH",
    "State": "Uttar Pradesh",
    "SubRegionCode": "MATH",
    "VenueAddress": "Highway Plaza Shopping Complex, NH2 Delhi-Agra Road, Near Mandi Crossing, Mathura, Uttar Pradesh 281004, India",
    "VenueCode": "GDMT",
    "VenueName": "Gold Cinema: Mathura"
  },
  "GGBC": {
    "AvailableFormats": "2D",
    "City": "Chandrapur",
    "Latitude": "20.6064",
    "Longitude": "79.8648",
    "RegionCode": "CHAN",
    "State": "Maharashtra",
    "SubRegionCode": "CHAN",
    "VenueAddress": "New Gold Star Cinema, Churhe Bada, Brahmapuri, Chandrapur, Maharashtra 441206, India",
    "VenueCode": "GGBC",
    "VenueName": "New Gold Star Cinema: Bramhapuri, Chandrapur"
  },
  "GIBH": {
    "AvailableFormats": "2D",
    "City": "Bharuch",
    "Latitude": "21.701",
    "Longitude": "72.9914",
    "RegionCode": "BHAR",
    "State": "Gujarat",
    "SubRegionCode": "BHAR",
    "VenueAddress": "2nd Floor,Shalimar Mall, Railway Station Road, Bharuch, Gujarat 392001, India",
    "VenueCode": "GIBH",
    "VenueName": "Gold Cinema, Shalimar: Bharuch"
  },
  "GLDA": {
    "AvailableFormats": "2D",
    "City": "Chhatrapati Sambhajinagar (Aurangabad)",
    "Latitude": "19.8626",
    "Longitude": "75.3154",
    "RegionCode": "AURA",
    "State": "Maharashtra",
    "SubRegionCode": "AURA",
    "VenueAddress": "Plot No. 5, Vedant Nagar, Railway Station Road, Beside Vedant Hotel,  Chhatrapati Sambhaji Nagar, Beside Vedant Hotel,  Chhatrapati Sambhaji Nagar, Chhatrapati Sambhajinagar (Aurangabad), Maharashtra ",
    "VenueCode": "GLDA",
    "VenueName": "Goldie Cinemark: Chhatrapati Sambhaji Nagar"
  },
  "GMMC": {
    "AvailableFormats": "2D",
    "City": "Madurai",
    "Latitude": "10.0308",
    "Longitude": "78.3397",
    "RegionCode": "MADU",
    "State": "Tamil Nadu",
    "SubRegionCode": "MADU",
    "VenueAddress": "584, Trichy - Madurai Highway, Melur, Madurai, Tamil Nadu 625106, India",
    "VenueCode": "GMMC",
    "VenueName": "Ganesh Cinemas (Melur) 4K RGB Laser & Dolby Atmos"
  },
  "GPDC": {
    "AvailableFormats": "3D|2D",
    "City": "Gurugram (Gurgaon)",
    "Latitude": "28.5043",
    "Longitude": "77.0974",
    "RegionCode": "NCR",
    "State": "NCR",
    "SubRegionCode": "GURG",
    "VenueAddress": "4th Floor, Ambience Mall, NH-8, Near Toll Plaza, Gurugram (Gurgaon), NCR 122001, India",
    "VenueCode": "GPDC",
    "VenueName": "Gurugram: PVR Director`s Cut, Ambience Mall"
  },
  "GRCG": {
    "AvailableFormats": "2D|3D",
    "City": "Guwahati",
    "Latitude": "26.1799",
    "Longitude": "91.7514",
    "RegionCode": "GUW",
    "State": "Assam",
    "SubRegionCode": "GUW",
    "VenueAddress": "Grand Plaza, 5th Floor, Hotel Maitri Residency, G.S. Road, Paltan Bazar, Guwahati, Assam 781008, India",
    "VenueCode": "GRCG",
    "VenueName": "Grande Cines: Paltan bazar, Guwahati"
  },
  "GTBY": {
    "AvailableFormats": "2D",
    "City": "Bellary",
    "Latitude": "15.1441",
    "Longitude": "76.9284",
    "RegionCode": "BLRY",
    "State": "Karnataka",
    "SubRegionCode": "BLRY",
    "VenueAddress": "Natraj Theater Royal Circle, Natraj Theater Complex, Old Katte Gudda, Cowl Bazaar, Bellary, Karnataka 583101, India",
    "VenueCode": "GTBY",
    "VenueName": "Ganga Theatre: Bellary"
  },
  "GTSG": {
    "AvailableFormats": "2D",
    "City": "Gudivada",
    "Latitude": "16.4378",
    "Longitude": "80.9924",
    "RegionCode": "GUDI",
    "State": "Andhra Pradesh",
    "SubRegionCode": "GUDI",
    "VenueAddress": "D.No 11-235, Eluru Road, Gudivada, Andhra Pradesh 521301, India",
    "VenueCode": "GTSG",
    "VenueName": "G3 Theatres Sindhura: Gudivada"
  },
  "GVCP": {
    "AvailableFormats": "2D",
    "City": "Pileru",
    "Latitude": "13.6577",
    "Longitude": "78.9366",
    "RegionCode": "PLRU",
    "State": "Andhra Pradesh",
    "SubRegionCode": "PLRU",
    "VenueAddress": "Off National Highway 205, Piler, Pileru, Andhra Pradesh 517214, India",
    "VenueCode": "GVCP",
    "VenueName": "GV Cinemas (Ajantha Theater): Pileru"
  },
  "HARK": {
    "AvailableFormats": "2D",
    "City": "Jalalabad",
    "Latitude": "30.6096",
    "Longitude": "74.2555",
    "RegionCode": "JLAB",
    "State": "Punjab",
    "SubRegionCode": "JLAB",
    "VenueAddress": "Fazilka  Ferozpur Road, Aman Nagar, Near Bus Stand, Jalalabad, Punjab 152024, India",
    "VenueCode": "HARK",
    "VenueName": "Harkishan Cinema: Jalalabad"
  },
  "HGSM": {
    "AvailableFormats": "2D",
    "City": "Muvattupuzha",
    "Latitude": "9.97568",
    "Longitude": "76.5801",
    "RegionCode": "MUVA",
    "State": "Kerala",
    "SubRegionCode": "MUVA",
    "VenueAddress": "Bus Stand, 130 Junction, MC Road, Near KSRTC, Thottumkalpeedika, Muvattupuzha, Kerala 686673, India",
    "VenueCode": "HGSM",
    "VenueName": "Highstreet Cinema: Canton Highstreet, Muvattupuzha"
  },
  "HTAG": {
    "AvailableFormats": "2D",
    "City": "Agra",
    "Latitude": "27.2097",
    "Longitude": "78.0068",
    "RegionCode": "AGRA",
    "State": "Uttar Pradesh",
    "SubRegionCode": "AGRA",
    "VenueAddress": "Nehru Nagar, Civil Lines, Agra, Uttar Pradesh 282003, India",
    "VenueCode": "HTAG",
    "VenueName": "Heera Talkies: Agra"
  },
  "ICTP": {
    "AvailableFormats": "2D|3D",
    "City": "Tezpur",
    "Latitude": "26.622",
    "Longitude": "92.7964",
    "RegionCode": "TEZP",
    "State": "Assam",
    "SubRegionCode": "TEZP",
    "VenueAddress": "Imperial Parijat Building, Tezpur Main Road, Near D.T.O, Tezpur, Assam 784001, India",
    "VenueCode": "ICTP",
    "VenueName": "Imp Cinemas: Tezpur"
  },
  "IGMH": {
    "AvailableFormats": "2D|3D",
    "City": "Hyderabad",
    "Latitude": "17.4964",
    "Longitude": "78.3357",
    "RegionCode": "HYD",
    "State": "Telangana",
    "SubRegionCode": "HYD",
    "VenueAddress": "INOX Leisure Ltd, 4th floor, GSM Mall, Miyapur Main Road, Madinaguda, Hyderabad, Telangana 500049, India",
    "VenueCode": "IGMH",
    "VenueName": "INOX: GSM Mall, Hyderabad"
  },
  "IMJW": {
    "AvailableFormats": "3D|2D|IMAX 2D",
    "City": "Mumbai",
    "Latitude": "19.066",
    "Longitude": "72.8668",
    "RegionCode": "MUMBAI",
    "State": "Maharashtra",
    "SubRegionCode": "MWEST",
    "VenueAddress": "3rd Floor, Jio World Plaza, G Block BKC, Bandra Kurla Complex, Bandra East, Mumbai, Maharashtra 400055, India",
    "VenueCode": "IMJW",
    "VenueName": "Maison INOX: Jio World Plaza, BKC"
  },
  "INAC": {
    "AvailableFormats": "2D|3D",
    "City": "Ajmer",
    "Latitude": "26.5147",
    "Longitude": "74.6339",
    "RegionCode": "AJMER",
    "State": "Rajasthan",
    "SubRegionCode": "AJMER",
    "VenueAddress": "3rd Floor, City Square Mall, A Block Panchsheel Colony, Makarwali Road, Ajmer, Rajasthan 305004, India",
    "VenueCode": "INAC",
    "VenueName": "INOX: City Square Mall, Ajmer"
  },
  "INBL": {
    "AvailableFormats": "2D|3D",
    "City": "Belagavi (Belgaum)",
    "Latitude": "15.8531",
    "Longitude": "74.5092",
    "RegionCode": "BELG",
    "State": "Karnataka",
    "SubRegionCode": "BELG",
    "VenueAddress": "Near BSNL Office, Head Post Office Road, Belgaum Camp, Near BSNL office, Belagavi (Belgaum), Karnataka 590001, India",
    "VenueCode": "INBL",
    "VenueName": "INOX: Camp Road, Belagavi"
  },
  "INCS": {
    "AvailableFormats": "3D|2D",
    "City": "Cuttack",
    "Latitude": "20.4613",
    "Longitude": "85.8691",
    "RegionCode": "CUTT",
    "State": "Odisha",
    "SubRegionCode": "CUTT",
    "VenueAddress": "SGBL Square,Town Hall Road, Unit No. 15, Choudhury Bazar, Cuttack, Odisha 753009, India",
    "VenueCode": "INCS",
    "VenueName": "INOX: Cuttack SGBL Square Mall"
  },
  "INGW": {
    "AvailableFormats": "2D|3D",
    "City": "Gwalior",
    "Latitude": "26.2162",
    "Longitude": "78.185",
    "RegionCode": "GWAL",
    "State": "Madhya Pradesh",
    "SubRegionCode": "GWAL",
    "VenueAddress": "2nd Floor, DB Mall, Race course Road, Old MPSRTC Work Station, Opposite Gwalior Railway Station, Gwalior, Madhya Pradesh 474002, India",
    "VenueCode": "INGW",
    "VenueName": "INOX: DB Mall, Gwalior"
  },
  "INMB": {
    "AvailableFormats": "2D|IMAX 2D|3D",
    "City": "Bengaluru",
    "Latitude": "12.9922",
    "Longitude": "77.5703",
    "RegionCode": "HOKT",
    "State": "Karnataka",
    "SubRegionCode": "HOKT",
    "VenueAddress": "Mantri Square Mall, Sampige Road, Malleswaram, Bengaluru, Karnataka 560052, India",
    "VenueCode": "INMB",
    "VenueName": "INOX: Mantri Square, Malleshwaram"
  },
  "INOG": {
    "AvailableFormats": "2D|3D",
    "City": "Kalaburagi (Gulbarga)",
    "Latitude": "17.3287",
    "Longitude": "76.8337",
    "RegionCode": "GULB",
    "State": "Karnataka",
    "SubRegionCode": "GULB",
    "VenueAddress": "Mahaveer Nagar, Khuba Plot, Brhampur, Kalaburagi (Gulbarga), Karnataka 585105, India",
    "VenueCode": "INOG",
    "VenueName": "INOX: Orchid Mall, Kalaburagi"
  },
  "INPT": {
    "AvailableFormats": "2D|3D",
    "City": "Coimbatore",
    "Latitude": "11.0548",
    "Longitude": "76.9943",
    "RegionCode": "COIM",
    "State": "Tamil Nadu",
    "SubRegionCode": "COIM",
    "VenueAddress": "S.F. No. 201, Sathy Main Road, Coimbatore, Tamil Nadu 641035, India",
    "VenueCode": "INPT",
    "VenueName": "INOX: Prozone Mall, Coimbatore"
  },
  "INRZ": {
    "AvailableFormats": "IMAX 2D|2D",
    "City": "Bengaluru",
    "Latitude": "13.0943",
    "Longitude": "77.5956",
    "RegionCode": "HOKT",
    "State": "Karnataka",
    "SubRegionCode": "HOKT",
    "VenueAddress": "INOX Leisure Ltd.,2nd Floor, Galleria Mall, Ambedkar Colony, Yelahanka, Bengaluru, Karnataka 560064, India",
    "VenueCode": "INRZ",
    "VenueName": "INOX: Galleria Mall, Yelahanka"
  },
  "INTM": {
    "AvailableFormats": "3D|2D",
    "City": "Nagpur",
    "Latitude": "21.173",
    "Longitude": "79.1004",
    "RegionCode": "NAGP",
    "State": "Maharashtra",
    "SubRegionCode": "NAGP",
    "VenueAddress": "1st floor, Jaswant Tuli Mall, Indora Square, Kamptee Road, Near Indora Chowk, Nagpur, Maharashtra 440017, India",
    "VenueCode": "INTM",
    "VenueName": "INOX: Jaswant Tuli Mall, Kamptee Road"
  },
  "INVM": {
    "AvailableFormats": "2D|3D|IMAX 2D",
    "City": "Delhi",
    "Latitude": "28.6508",
    "Longitude": "77.1206",
    "RegionCode": "NCR",
    "State": "NCR",
    "SubRegionCode": "DELHI",
    "VenueAddress": "1st Floor, Vishal Cinema Complex, Plot No 1, District Center Rajouri Garden, Delhi, NCR 110027, India",
    "VenueCode": "INVM",
    "VenueName": "INOX: Vishal Mall, Rajouri Garden"
  },
  "IOCP": {
    "AvailableFormats": "2D|3D",
    "City": "Delhi",
    "Latitude": "28.6343",
    "Longitude": "77.2211",
    "RegionCode": "NCR",
    "State": "NCR",
    "SubRegionCode": "DELHI",
    "VenueAddress": "INOX Leisure Limited, Delhi Odeon, 2nd Floor, Odeon Cinema Complex, D-Block, Connaught Place, Delhi, NCR 110001, India",
    "VenueCode": "IOCP",
    "VenueName": "INOX: Odeon, Connaught Place"
  },
  "IPGM": {
    "AvailableFormats": "2D|3D",
    "City": "Dhanbad",
    "Latitude": "23.8292",
    "Longitude": "86.4333",
    "RegionCode": "DHAN",
    "State": "Jharkhand",
    "SubRegionCode": "DHAN",
    "VenueAddress": "3rd Floor, Prabhatam Grand Mall, Nagnagar, Barwadda, Dhaiya, Dhanbad, Jharkhand 826004, India",
    "VenueCode": "IPGM",
    "VenueName": "INOX: Prabhatam Grand Mall, Dhanbad"
  },
  "IRMR": {
    "AvailableFormats": "2D|3D",
    "City": "Rajkot",
    "Latitude": "22.2794",
    "Longitude": "70.7769",
    "RegionCode": "RAJK",
    "State": "Gujarat",
    "SubRegionCode": "RAJK",
    "VenueAddress": "INOX Leisure Ltd., 2nd Floor, Reliance Mall, 150 Feet Ring Road, Near Nana Mauva Circle, Rajkot, Gujarat 360005, India",
    "VenueCode": "IRMR",
    "VenueName": "INOX: Reliance Mega Mall, Rajkot"
  },
  "IUBS": {
    "AvailableFormats": "2D|3D",
    "City": "Udaipur",
    "Latitude": "24.6321",
    "Longitude": "73.7126",
    "RegionCode": "UDAI",
    "State": "Rajasthan",
    "SubRegionCode": "UDAI",
    "VenueAddress": "PVR INOX LTD, 3rd Floor Urban Square Mall, Plot No. F - 210 to 223, Udyog Vihar, Gaurav Path, RIICO Industrial Area, Sukher, Udaipur, Rajasthan 313001, India",
    "VenueCode": "IUBS",
    "VenueName": "INOX: Urban Square Mall, Udaipur"
  },
  "JAYD": {
    "AvailableFormats": "2D",
    "City": "Tirupati",
    "Latitude": "13.631",
    "Longitude": "79.4247",
    "RegionCode": "TIRU",
    "State": "Andhra Pradesh",
    "SubRegionCode": "TIRU",
    "VenueAddress": "Mallaiah Gunta Katta, Tata Nagar, Tirupati, Andhra Pradesh 517501, India",
    "VenueCode": "JAYD",
    "VenueName": "NVR Jaysyam A/C 4K Dolby Atmos: Tirupati"
  },
  "JCHB": {
    "AvailableFormats": "2D",
    "City": "Chapra",
    "Latitude": "25.7839",
    "Longitude": "84.7407",
    "RegionCode": "CHPR",
    "State": "Bihar",
    "SubRegionCode": "CHPR",
    "VenueAddress": "Sri Nandan Path Road, Dahiyawan Tola, Near Astha Nursing Home, Chapra, Bihar 841301, India",
    "VenueCode": "JCHB",
    "VenueName": "Jyoti Cinema: Chapra"
  },
  "JDDD": {
    "AvailableFormats": "2D|3D",
    "City": "Ranchi",
    "Latitude": "23.358",
    "Longitude": "85.3247",
    "RegionCode": "RANC",
    "State": "Jharkhand",
    "SubRegionCode": "RANC",
    "VenueAddress": "JD High Street Mall, 07th Floor, Mahatma Gandhi Main Road, Opposite - GEL Church Complex, Ranchi, Jharkhand 834001, India",
    "VenueCode": "JDDD",
    "VenueName": "JD Cinemas: JD HI Street Mall, Ranchi"
  },
  "JJDA": {
    "AvailableFormats": "2D",
    "City": "Pathapatnam",
    "Latitude": "18.7523",
    "Longitude": "84.0947",
    "RegionCode": "PRKM",
    "State": "Andhra Pradesh",
    "SubRegionCode": "PRKM",
    "VenueAddress": "Jagatha Janani Theatre, Near St.Ann`s School, Srikakulam District, Pathapatnam, Andhra Pradesh 532213, India",
    "VenueCode": "JJDA",
    "VenueName": "J &J Cinemas A/C Dolby Atmos: Pathapatnam"
  },
  "JMEX": {
    "AvailableFormats": "2D",
    "City": "Malkangiri",
    "Latitude": "18.364",
    "Longitude": "81.9024",
    "RegionCode": "MALG",
    "State": "Odisha",
    "SubRegionCode": "MALG",
    "VenueAddress": "National Highway 326, Near Kaniska Automobiles, Malkangiri, Odisha 764045, India",
    "VenueCode": "JMEX",
    "VenueName": "J Max Cinemas: Malkangiri"
  },
  "JPCJ": {
    "AvailableFormats": "2D",
    "City": "Jalalabad",
    "Latitude": "30.6035",
    "Longitude": "74.2602",
    "RegionCode": "JLAB",
    "State": "Punjab",
    "SubRegionCode": "JLAB",
    "VenueAddress": "J P Cinema, Muktsar Road, Jalalabad, Punjab 152024, India",
    "VenueCode": "JPCJ",
    "VenueName": "JP Cinema: Jalalabad"
  },
  "JTCK": {
    "AvailableFormats": "2D",
    "City": "Kozhikode",
    "Latitude": "11.2898",
    "Longitude": "75.7751",
    "RegionCode": "KOZH",
    "State": "Kerala",
    "SubRegionCode": "KOZH",
    "VenueAddress": "East Hill, Near Center School, Opposite State Bank of India, Kozhikode, Kerala 673005, India",
    "VenueCode": "JTCK",
    "VenueName": "Regal Cinemas: Kozhikode"
  },
  "JTMN": {
    "AvailableFormats": "2D",
    "City": "Jaipur",
    "Latitude": "26.8372",
    "Longitude": "75.8339",
    "RegionCode": "JAIP",
    "State": "Rajasthan",
    "SubRegionCode": "JAIP",
    "VenueAddress": "INOX Leisure Ltd, 4th Floor, JTM Mall, Model Town, Malviya Nagar, Jaipur, Rajasthan 302017, India",
    "VenueCode": "JTMN",
    "VenueName": "INOX: JTM Mall, Malviya Nagar"
  },
  "JTRA": {
    "AvailableFormats": "2D",
    "City": "Anakapalle",
    "Latitude": "17.6927",
    "Longitude": "83.0018",
    "RegionCode": "ANKP",
    "State": "Andhra Pradesh",
    "SubRegionCode": "ANKP",
    "VenueAddress": "Narasinga Rao Peta, Near Tata Docomo Store, Anakapalle, Andhra Pradesh 531001, India",
    "VenueCode": "JTRA",
    "VenueName": "Ramachandra Theatre: Anakapalle"
  },
  "JTVK": {
    "AvailableFormats": "2D|3D",
    "City": "Tanuku",
    "Latitude": "16.7597",
    "Longitude": "81.691",
    "RegionCode": "TADP",
    "State": "Andhra Pradesh",
    "SubRegionCode": "TADP",
    "VenueAddress": "NH16, Ngo Colony, Palangi, Near Sri Vijayadurga temple, Tanuku, Andhra Pradesh 534211, India",
    "VenueCode": "JTVK",
    "VenueName": "Sri Venkateswara Complex: Tanuku"
  },
  "JYCM": {
    "AvailableFormats": "2D",
    "City": "Maslandapur",
    "Latitude": "22.8559",
    "Longitude": "88.7447",
    "RegionCode": "MASL",
    "State": "West Bengal",
    "SubRegionCode": "MASL",
    "VenueAddress": "Maslandapur-Tentulia Road, Opposite State Bank of India, Maslandapur, West Bengal 743289, India",
    "VenueCode": "JYCM",
    "VenueName": "Jyoti Cinema: Maslandapur"
  },
  "KACX": {
    "AvailableFormats": "2D",
    "City": "Raikot",
    "Latitude": "30.6484",
    "Longitude": "75.5757",
    "RegionCode": "RKOT",
    "State": "Punjab",
    "SubRegionCode": "RKOT",
    "VenueAddress": "Modern Footwear, 305/3888, Jagraon Road, Raikot, Raikot, Punjab 142034, India",
    "VenueCode": "KACX",
    "VenueName": "KVA Cineplex: Raikot"
  },
  "KAYA": {
    "AvailableFormats": "2D",
    "City": "Kanchipuram",
    "Latitude": "12.8375",
    "Longitude": "79.7031",
    "RegionCode": "KNPM",
    "State": "Tamil Nadu",
    "SubRegionCode": "KNPM",
    "VenueAddress": "27, Annai Indira Gandhi Salai, Bavaji Nagar, Nellukara Street, Kanchipuram, Tamil Nadu 631502, India",
    "VenueCode": "KAYA",
    "VenueName": "Karthikeyan Cinemas A/C: Kanchipuram"
  },
  "KCKG": {
    "AvailableFormats": "2D|3D",
    "City": "Kopargaon",
    "Latitude": "19.8833",
    "Longitude": "74.4762",
    "RegionCode": "KOPG",
    "State": "Maharashtra",
    "SubRegionCode": "KOPG",
    "VenueAddress": "2061,1st Floor, K City Centre, Gurudwara Road, Dist.Ahmednagar, Kopargaon, Maharashtra 423601, India",
    "VenueCode": "KCKG",
    "VenueName": "K Cineplex: Kopargaon"
  },
  "KCTK": {
    "AvailableFormats": "2D",
    "City": "Kochi",
    "Latitude": "10.1269",
    "Longitude": "76.199",
    "RegionCode": "PALY",
    "State": "Kerala",
    "SubRegionCode": "PALY",
    "VenueAddress": "Ayyampilly, Pallippuram Rd,Kochi, Near Rama Varma Union High School, Kochi, Kerala 682501, India",
    "VenueCode": "KCTK",
    "VenueName": "K Cinemas 4K Dolby Atmos Tripplebeam 3D: Cherai"
  },
  "KICS": {
    "AvailableFormats": "2D",
    "City": "Mulleria",
    "Latitude": "12.5319",
    "Longitude": "75.1562",
    "RegionCode": "KASA",
    "State": "Kerala",
    "SubRegionCode": "KASA",
    "VenueAddress": "Near Kaveri Auditorium, Kadakam, Near Kadakam Business Centre, Mulleria, Kerala 671542, India",
    "VenueCode": "KICS",
    "VenueName": "Kaveri Cinemas A/C DTS Dolby: Karmamthody"
  },
  "KKPE": {
    "AvailableFormats": "2D",
    "City": "Erode",
    "Latitude": "11.1297",
    "Longitude": "77.8609",
    "RegionCode": "KARU",
    "State": "Tamil Nadu",
    "SubRegionCode": "KARU",
    "VenueAddress": "State Highway 172A, Koluthupalayam, Erode, Near Kombanaipudur Bus Stop, Erode, Tamil Nadu 638152, India",
    "VenueCode": "KKPE",
    "VenueName": "Krishna Theatre Dolby 7.1: Koluthupalayam"
  },
  "KLSK": {
    "AvailableFormats": "2D",
    "City": "Kozhikode",
    "Latitude": "11.2586",
    "Longitude": "75.7825",
    "RegionCode": "KOZH",
    "State": "Kerala",
    "SubRegionCode": "KOZH",
    "VenueAddress": "Indira Gandhi Road, Opposite KSRTC Bus Terminal, Tazhekkod, Polpaya Mana, Near Hotel Royal Plaza, Kozhikode, Kerala 673004, India",
    "VenueCode": "KLSK",
    "VenueName": "Kairali Sree Theatre: Kozhikode"
  },
  "KOCI": {
    "AvailableFormats": "2D",
    "City": "Jaipur",
    "Latitude": "26.8127",
    "Longitude": "75.7783",
    "RegionCode": "JAIP",
    "State": "Rajasthan",
    "SubRegionCode": "JAIP",
    "VenueAddress": "Station Road, Sanganer, Bharave Colony, Dada Gurudev Nagar, Near Sri Laxmi, Mobile and Repairing, Jaipur, Rajasthan 302029, India",
    "VenueCode": "KOCI",
    "VenueName": "Kohinoor Cinema (Laser Dolby Atmos): Sanganer"
  },
  "KRIC": {
    "AvailableFormats": "2D",
    "City": "Songadh",
    "Latitude": "21.1669",
    "Longitude": "73.5642",
    "RegionCode": "SONG",
    "State": "Gujarat",
    "SubRegionCode": "SONG",
    "VenueAddress": "3rd and 4th Floor Krishna Mall, SBI Road, Navagam Fort Songadh Tapi, Near Vijaya Bank, Songadh, Gujarat 394670, India",
    "VenueCode": "KRIC",
    "VenueName": "Sanskruti Krishna Multiplex: Songadh"
  },
  "KRVM": {
    "AvailableFormats": "2D",
    "City": "Kottayi",
    "Latitude": "10.7651",
    "Longitude": "76.5441",
    "RegionCode": "PLKK",
    "State": "Kerala",
    "SubRegionCode": "PLKK",
    "VenueAddress": "Mankara-Palakkad Road, Ayyappankaavu, Kottayi, Kerala 678572, India",
    "VenueCode": "KRVM",
    "VenueName": "KRV Movies: Kottayi"
  },
  "KSSB": {
    "AvailableFormats": "2D",
    "City": "Durg",
    "Latitude": "21.1646",
    "Longitude": "81.2613",
    "RegionCode": "DURG",
    "State": "Chhattisgarh",
    "SubRegionCode": "DURG",
    "VenueAddress": "Mahalaxmi Market, Mini Mata Chowk, Pulgaon, Near Kapada Market, Durg, Chhattisgarh 491001, India",
    "VenueCode": "KSSB",
    "VenueName": "K Sera Sera Miniplex: Durg"
  },
  "KTEK": {
    "AvailableFormats": "2D",
    "City": "Kochi",
    "Latitude": "9.97858",
    "Longitude": "76.2826",
    "RegionCode": "PALY",
    "State": "Kerala",
    "SubRegionCode": "PALY",
    "VenueAddress": "Paza Hotel, Mahatma Gandhi Road, Shenoys - Ernakulam, Near Abad, Kochi, Kerala 682011, India",
    "VenueCode": "KTEK",
    "VenueName": "Kavitha Theatre 4K 3D Dolby 7.1: Ernakulam"
  },
  "KYRR": {
    "AvailableFormats": "2D",
    "City": "Rayakottai",
    "Latitude": "12.5146",
    "Longitude": "78.032",
    "RegionCode": "RTTA",
    "State": "Tamil Nadu",
    "SubRegionCode": "RTTA",
    "VenueAddress": "4/424, Shoolagiri Main Road, Rahamath Colony, Rayakottai, Tamil Nadu 635116, India",
    "VenueCode": "KYRR",
    "VenueName": "Kamaraj Theatre: Rayakottai"
  },
  "LCKR": {
    "AvailableFormats": "2D",
    "City": "Kannur",
    "Latitude": "11.8798",
    "Longitude": "75.3691",
    "RegionCode": "KANN",
    "State": "Kerala",
    "SubRegionCode": "KANN",
    "VenueAddress": "Tulichery Road, Talap, Near Oriental Bank of commerce, Kannur, Kerala 670002, India",
    "VenueCode": "LCKR",
    "VenueName": "Liberty Cinema: Kannur (Ambili Theatre)"
  },
  "LCXA": {
    "AvailableFormats": "2D",
    "City": "Amgaon",
    "Latitude": "21.3759",
    "Longitude": "80.381",
    "RegionCode": "AMGN",
    "State": "Maharashtra",
    "SubRegionCode": "AMGN",
    "VenueAddress": "Liya Cinemax, OPP Bail Bazar, Amgaon, Maharashtra 441902, India",
    "VenueCode": "LCXA",
    "VenueName": "Liya Cinemax: Amgaon"
  },
  "LJWT": {
    "AvailableFormats": "2D",
    "City": "Ramgarhwa",
    "Latitude": "26.8775",
    "Longitude": "84.7875",
    "RegionCode": "RGHA",
    "State": "Bihar",
    "SubRegionCode": "RGHA",
    "VenueAddress": "Ground Floor, East Champaran, Ramgarhwa, Bihar 845433, India",
    "VenueCode": "LJWT",
    "VenueName": "Arjun Cineplex: Ramgarhwa"
  },
  "LKTO": {
    "AvailableFormats": "2D",
    "City": "Kosgi",
    "Latitude": "16.9886",
    "Longitude": "77.7157",
    "RegionCode": "KOSG",
    "State": "Telangana",
    "SubRegionCode": "KOSG",
    "VenueAddress": "Near Vegetable Market, Mahabubnagar Road, Kosgi, Telangana 509339, India",
    "VenueCode": "LKTO",
    "VenueName": "Lakshmi Theatre: Kosgi"
  },
  "LMTP": {
    "AvailableFormats": "2D",
    "City": "Metpally",
    "Latitude": "18.8512",
    "Longitude": "78.6311",
    "RegionCode": "METT",
    "State": "Telangana",
    "SubRegionCode": "METT",
    "VenueAddress": "Ambedkar Stadium Road, Chaitanya Nagar, Metpally, Telangana 505325, India",
    "VenueCode": "LMTP",
    "VenueName": "Laxmi AC Deluxe Theatre: Metpally"
  },
  "LTTP": {
    "AvailableFormats": "2D",
    "City": "Madurai",
    "Latitude": "9.87549",
    "Longitude": "78.0653",
    "RegionCode": "MADU",
    "State": "Tamil Nadu",
    "SubRegionCode": "MADU",
    "VenueAddress": "Thirupparankundram Road, Avaniyapuram, Near Kasi Viswanathar Temple, Madurai, Tamil Nadu 625005, India",
    "VenueCode": "LTTP",
    "VenueName": "Sri Lakshmi Theatre: Thirupparankundram"
  },
  "LYMS": {
    "AvailableFormats": "2D",
    "City": "Mysuru (Mysore)",
    "Latitude": "12.3088",
    "Longitude": "76.6595",
    "RegionCode": "MYS",
    "State": "Karnataka",
    "SubRegionCode": "MYS",
    "VenueAddress": "Mandi Mohalla, Bangalore Nilgiri Road, Mysuru (Mysore), Karnataka 570001, India",
    "VenueCode": "LYMS",
    "VenueName": "Lido Theatre: Mysuru"
  },
  "MACK": {
    "AvailableFormats": "2D",
    "City": "Kasaragod",
    "Latitude": "12.5063",
    "Longitude": "74.99",
    "RegionCode": "KASA",
    "State": "Kerala",
    "SubRegionCode": "KASA",
    "VenueAddress": "AT Road, Dwaraka Nagar, Kasaragod, Near Kerala State Electricity Board, Kasaragod, Kerala 671121, India",
    "VenueCode": "MACK",
    "VenueName": "Moviemax Circle: Kasaragod"
  },
  "MAHB": {
    "AvailableFormats": "2D",
    "City": "Bhadrak",
    "Latitude": "21.0683",
    "Longitude": "86.466",
    "RegionCode": "BHAD",
    "State": "Odisha",
    "SubRegionCode": "BHAD",
    "VenueAddress": "State Highway 53, Near Randia Children Park, Behind Tarini Temple, Bhadrak, Odisha 756113, India",
    "VenueCode": "MAHB",
    "VenueName": "Madhab Cinema Hall: Bhadrak"
  },
  "MARS": {
    "AvailableFormats": "2D",
    "City": "Sarsiwa",
    "Latitude": "21.6194",
    "Longitude": "82.9572",
    "RegionCode": "SARS",
    "State": "Chhattisgarh",
    "SubRegionCode": "SARS",
    "VenueAddress": "Marko cineplex, Near Maruti Petroleum, Tilaipali, Sarsiwa, Chhattisgarh 493559, India",
    "VenueCode": "MARS",
    "VenueName": "Marko Cineplex: Sarsiwa"
  },
  "MAYJ": {
    "AvailableFormats": "2D|3D",
    "City": "Chennai",
    "Latitude": "12.848",
    "Longitude": "80.2401",
    "RegionCode": "CHEN",
    "State": "Tamil Nadu",
    "SubRegionCode": "CHEN",
    "VenueAddress": "No. 34/1, East Coast Road, Kanathur, Near Toll Plaza, Chennai, Tamil Nadu 603112, India",
    "VenueCode": "MAYJ",
    "VenueName": "MAYAJAAL Multiplex: ECR, Chennai"
  },
  "MCAA": {
    "AvailableFormats": "2D|3D",
    "City": "Ulhasnagar",
    "Latitude": "19.2251",
    "Longitude": "73.1642",
    "RegionCode": "MUMBAI",
    "State": "Maharashtra",
    "SubRegionCode": "ULHA",
    "VenueAddress": "Ramayan Nagar, Ulhasnagar No. 3, Kalyan Ambarnath Road, Near Indian Bank, Ulhasnagar, Maharashtra 421002, India",
    "VenueCode": "MCAA",
    "VenueName": "Ashok Anil Multiplex, Miraj Cinemas: Ulhasnagar"
  },
  "MCDV": {
    "AvailableFormats": "2D",
    "City": "Vizag (Visakhapatnam)",
    "Latitude": "17.6853",
    "Longitude": "83.2087",
    "RegionCode": "VIZA",
    "State": "Andhra Pradesh",
    "SubRegionCode": "VIZA",
    "VenueAddress": "Indira Colony, Gajuwaka, Near Alif Family Restaurant, Vizag (Visakhapatnam), Andhra Pradesh 500026, India",
    "VenueCode": "MCDV",
    "VenueName": "Mohini Cinemas Dolby Atmos: Gajuwaka"
  },
  "MCJR": {
    "AvailableFormats": "2D",
    "City": "Janjgir",
    "Latitude": "22.0112",
    "Longitude": "82.5834",
    "RegionCode": "JANR",
    "State": "Chhattisgarh",
    "SubRegionCode": "JANR",
    "VenueAddress": "Link Road, Old Chandaniya Para, Janjgir, Chhattisgarh 495668, India",
    "VenueCode": "MCJR",
    "VenueName": "Metro Cinema(Dolby 7.1 sound): Janjgir Naila"
  },
  "MCPB": {
    "AvailableFormats": "2D|3D",
    "City": "Behror",
    "Latitude": "27.8948",
    "Longitude": "76.2976",
    "RegionCode": "BEHR",
    "State": "Rajasthan",
    "SubRegionCode": "BEHR",
    "VenueAddress": "Parv Plaza, 5th Floor, A-15 B1, Phase 1, Riico Industrial Area, Behror, Rajasthan 301701, India",
    "VenueCode": "MCPB",
    "VenueName": "Mukta A2 Cinemas: Parv Plaza, Behror"
  },
  "MCSO": {
    "AvailableFormats": "3D|2D",
    "City": "Vadodara",
    "Latitude": "22.2922",
    "Longitude": "73.1357",
    "RegionCode": "VAD",
    "State": "Gujarat",
    "SubRegionCode": "VAD",
    "VenueAddress": "The Emperor Mall, 2nd Floor, Beside VCA Ground, Vasna-Bhayli Road, Opposite Shakti Green Party Plot, Vadodara, Gujarat 391410, India",
    "VenueCode": "MCSO",
    "VenueName": "Mukta A2 Cinemas (Opulence): The Emperor Mall"
  },
  "MCXE": {
    "AvailableFormats": "2D",
    "City": "Erandol",
    "Latitude": "20.9247",
    "Longitude": "75.3321",
    "RegionCode": "JALG",
    "State": "Maharashtra",
    "SubRegionCode": "JALG",
    "VenueAddress": "Mahasawad Naka, Onkaro Jadhav Nagar, Erandol, Maharashtra 425109, India",
    "VenueCode": "MCXE",
    "VenueName": "Morya Cineplex: Erandol"
  },
  "MELD": {
    "AvailableFormats": "2D",
    "City": "Vizag (Visakhapatnam)",
    "Latitude": "17.7113",
    "Longitude": "83.3005",
    "RegionCode": "SABB",
    "State": "Andhra Pradesh",
    "SubRegionCode": "SABB",
    "VenueAddress": "Suryabagh, Jagadamba Junction, V Max Theatre, Vizag, Andhra Pradesh 530020, India",
    "VenueCode": "MELD",
    "VenueName": "Sri Melody HDR Dolby Atmos: Vizag"
  },
  "METH": {
    "AvailableFormats": "2D|3D",
    "City": "Ahmedabad",
    "Latitude": "23.1027",
    "Longitude": "72.5952",
    "RegionCode": "AHD",
    "State": "Gujarat",
    "SubRegionCode": "AHD",
    "VenueAddress": "4D Square Mall, Visat - Gandhinagar Highway, Ahmedabad, Gujarat 380005, India",
    "VenueCode": "METH",
    "VenueName": "PVR: Motera, Ahmedabad"
  },
  "MHKT": {
    "AvailableFormats": "2D",
    "City": "Kanpur",
    "Latitude": "26.4673",
    "Longitude": "80.3172",
    "RegionCode": "KANP",
    "State": "Uttar Pradesh",
    "SubRegionCode": "KANP",
    "VenueAddress": "1st Floor Ratan Himachal Mall Ghumti No-5, Naseemabad Road, Kaushalpuri Darshan Purwa, Kanpur, Uttar Pradesh 208012, India",
    "VenueCode": "MHKT",
    "VenueName": "Movietime Cinemas: Ratan Himachal Mall, Kanpur"
  },
  "MIRN": {
    "AvailableFormats": "2D|3D",
    "City": "Nandurbar",
    "Latitude": "21.3537",
    "Longitude": "74.2424",
    "RegionCode": "NDNB",
    "State": "Maharashtra",
    "SubRegionCode": "NDNB",
    "VenueAddress": "Nandurbar Business Centre, S. No 387/2, Surat Bypass Road, Nandurbar, Maharashtra 425412, India",
    "VenueCode": "MIRN",
    "VenueName": "Miraj Cinemas: NBC, Nandurbar"
  },
  "MKBG": {
    "AvailableFormats": "2D",
    "City": "Bengaluru",
    "Latitude": "13.0036",
    "Longitude": "77.6362",
    "RegionCode": "HOKT",
    "State": "Karnataka",
    "SubRegionCode": "HOKT",
    "VenueAddress": "No.30, Banaswadi Main Road, Marutiseva Nagar, Bengaluru, Karnataka 560033, India",
    "VenueCode": "MKBG",
    "VenueName": "Mukunda 4K Dolby Atmos: M.S.Nagar"
  },
  "MLCA": {
    "AvailableFormats": "2D",
    "City": "Haripad",
    "Latitude": "9.28209",
    "Longitude": "76.4529",
    "RegionCode": "HRPD",
    "State": "Kerala",
    "SubRegionCode": "HRPD",
    "VenueAddress": "National Highway 66, Haripad, Alappuzha District, Near Madhava Junction, Haripad, Kerala 690514, India",
    "VenueCode": "MLCA",
    "VenueName": "M Lal Cineplexx (Aashirvad): Haripad"
  },
  "MMCA": {
    "AvailableFormats": "3D|2D",
    "City": "Hyderabad",
    "Latitude": "17.4956",
    "Longitude": "78.3533",
    "RegionCode": "HYD",
    "State": "Telangana",
    "SubRegionCode": "HYD",
    "VenueAddress": "Cinetown, Survey No. 71, Miyapur Village Ranga Reddy, Hyderabad, Telangana 500049, India",
    "VenueCode": "MMCA",
    "VenueName": "Miraj Cinemas: CineTown, Miyapur"
  },
  "MMHA": {
    "AvailableFormats": "3D|2D",
    "City": "Mumbai",
    "Latitude": "19.1287",
    "Longitude": "72.926",
    "RegionCode": "MUMBAI",
    "State": "Maharashtra",
    "SubRegionCode": "MCENT",
    "VenueAddress": "Huma Mall, LBS Road, Kanjurmarg (W), Near Kanjurmarg Railway Station, Mumbai, Maharashtra 400078, India",
    "VenueCode": "MMHA",
    "VenueName": "MovieMax: Huma, Kanjurmarg"
  },
  "MMSZ": {
    "AvailableFormats": "2D|3D",
    "City": "Mumbai",
    "Latitude": "19.0417",
    "Longitude": "72.8643",
    "RegionCode": "MUMBAI",
    "State": "Maharashtra",
    "SubRegionCode": "MCENT",
    "VenueAddress": "MovieMax, Sion Circle, Sion (East), Opposite Peninsula Restaurant, Mumbai, Maharashtra 400022, India",
    "VenueCode": "MMSZ",
    "VenueName": "MovieMax: Sion"
  },
  "MMZM": {
    "AvailableFormats": "2D",
    "City": "Indore",
    "Latitude": "22.7525",
    "Longitude": "75.8969",
    "RegionCode": "IND",
    "State": "Madhya Pradesh",
    "SubRegionCode": "IND",
    "VenueAddress": "Mangal City, Plot No.A-1, PU-4, Garipipliya Road Scheme No.54, Vijay Nagar, Indore, Madhya Pradesh 452010, India",
    "VenueCode": "MMZM",
    "VenueName": "Mangal Multiplex: Indore"
  },
  "MNRL": {
    "AvailableFormats": "2D",
    "City": "Kallur",
    "Latitude": "13.5572",
    "Longitude": "78.9892",
    "RegionCode": "KLUR",
    "State": "Andhra Pradesh",
    "SubRegionCode": "KLUR",
    "VenueAddress": "Kallur - Punganur Road, Near SRK gardens, Kallur, Andhra Pradesh 517113, India",
    "VenueCode": "MNRL",
    "VenueName": "MNR Cinemax - Prabhakar Picture Palace: Kallur(AP)"
  },
  "MRCL": {
    "AvailableFormats": "2D",
    "City": "Sangli",
    "Latitude": "16.8198",
    "Longitude": "74.6424",
    "RegionCode": "ASMA",
    "State": "Maharashtra",
    "SubRegionCode": "ASMA",
    "VenueAddress": "Pandharpur Wal, Shivaji Road, Near City Bus Stand, Miraj, Sangli, Maharashtra 416410, India",
    "VenueCode": "MRCL",
    "VenueName": "Amar Cinema: Miraj"
  },
  "MRSW": {
    "AvailableFormats": "2D|3D",
    "City": "Vadodara",
    "Latitude": "22.2803",
    "Longitude": "73.1497",
    "RegionCode": "VAD",
    "State": "Gujarat",
    "SubRegionCode": "VAD",
    "VenueAddress": "Plot No. 28, Ward No. 11, Next to Sun Pharma Research Center, Sun Pharma Road, Soudagar Park, Tandalja, Vadodara, Gujarat 390012, India",
    "VenueCode": "MRSW",
    "VenueName": "Miraj Cinemas: SWC Mall"
  },
  "MSMC": {
    "AvailableFormats": "2D",
    "City": "Biaora",
    "Latitude": "23.927",
    "Longitude": "76.9134",
    "RegionCode": "BIAR",
    "State": "Madhya Pradesh",
    "SubRegionCode": "BIAR",
    "VenueAddress": "NH2, Old AB Road, Krishna Puram Colony, Biaora, Madhya Pradesh 465674, India",
    "VenueCode": "MSMC",
    "VenueName": "MSM Cineplex: Biaora"
  },
  "MTCR": {
    "AvailableFormats": "2D|3D",
    "City": "Mumbai",
    "Latitude": "19.0455",
    "Longitude": "72.9031",
    "RegionCode": "MUMBAI",
    "State": "Maharashtra",
    "SubRegionCode": "MCENT",
    "VenueAddress": "Old Basant Cinema, Wadavali Village, Vasant Vihar Complex Road, Vasant Vihar Complex, Chembur, Mumbai, Maharashtra 400074, India",
    "VenueCode": "MTCR",
    "VenueName": "Movietime Cubic Mall: Chembur"
  },
  "MTLM": {
    "AvailableFormats": "2D",
    "City": "Chennai",
    "Latitude": "13.2795",
    "Longitude": "80.2606",
    "RegionCode": "CHEN",
    "State": "Tamil Nadu",
    "SubRegionCode": "CHEN",
    "VenueAddress": "27,Thiruvottiyur High Road, Minjur, Tiruvallur, Chennai, Tamil Nadu 601203, India",
    "VenueCode": "MTLM",
    "VenueName": "Mani Talkies 2K RGB Laser ATMOS: Minjur"
  },
  "MTRB": {
    "AvailableFormats": "2D|3D",
    "City": "Ahmedabad",
    "Latitude": "23.0303",
    "Longitude": "72.4713",
    "RegionCode": "AHD",
    "State": "Gujarat",
    "SubRegionCode": "AHD",
    "VenueAddress": "5th floor, Block A, The Retail Park (TRP), Near Rajyash City, Central Bopal, Ahmedabad, Gujarat 380058, India",
    "VenueCode": "MTRB",
    "VenueName": "Mukta A2 Cinemas: The Retail Park (TRP) Bopal"
  },
  "MUSC": {
    "AvailableFormats": "2D",
    "City": "Bhopal",
    "Latitude": "23.2651",
    "Longitude": "77.4141",
    "RegionCode": "BHOP",
    "State": "Madhya Pradesh",
    "SubRegionCode": "BHOP",
    "VenueAddress": "80 Feet Road, Station Chouraha, Bajariya, Bhopal, Madhya Pradesh 462010, India",
    "VenueCode": "MUSC",
    "VenueName": "Muskaan Cinema: Bhopal"
  },
  "MXBO": {
    "AvailableFormats": "2D",
    "City": "Mumbai",
    "Latitude": "19.232",
    "Longitude": "72.8287",
    "RegionCode": "MUMBAI",
    "State": "Maharashtra",
    "SubRegionCode": "MWEST",
    "VenueAddress": "Zoom Plaza Mall, 4th Floor,L.T. Road, Borivali (W), Opposite Gorai Depot, Mumbai, Maharashtra 400092, India",
    "VenueCode": "MXBO",
    "VenueName": "Maxus Cinemas: Borivali (W)"
  },
  "MYCA": {
    "AvailableFormats": "2D",
    "City": "Angamaly",
    "Latitude": "10.1953",
    "Longitude": "76.3864",
    "RegionCode": "ANGA",
    "State": "Kerala",
    "SubRegionCode": "ANGA",
    "VenueAddress": "Mycinemas, 5th Floor, KSRTC Complex, Angamaly, Kerala 683572, India",
    "VenueCode": "MYCA",
    "VenueName": "MY Cinemas, KSRT Complex, Angamaly: Kerala"
  },
  "MYTK": {
    "AvailableFormats": "2D",
    "City": "Morena",
    "Latitude": "26.4965",
    "Longitude": "77.9884",
    "RegionCode": "MRMP",
    "State": "Madhya Pradesh",
    "SubRegionCode": "MRMP",
    "VenueAddress": "H B Colony, Nainagarh Road, Nearby B.N Garden, Morena, Madhya Pradesh 476001, India",
    "VenueCode": "MYTK",
    "VenueName": "Mayur Talkies: Morena"
  },
  "NBCH": {
    "AvailableFormats": "2D",
    "City": "Diamond Harbour",
    "Latitude": "22.2053",
    "Longitude": "88.1842",
    "RegionCode": "MNHR",
    "State": "West Bengal",
    "SubRegionCode": "MNHR",
    "VenueAddress": "NH34 New Town, Harindanga, Jaydebpur, Diamond Harbour, West Bengal 743331, India",
    "VenueCode": "NBCH",
    "VenueName": "New Bijoli Cinema: Diamond Harbour"
  },
  "NCJN": {
    "AvailableFormats": "2D",
    "City": "Jalna",
    "Latitude": "19.8446",
    "Longitude": "75.8953",
    "RegionCode": "JALN",
    "State": "Maharashtra",
    "SubRegionCode": "JALN",
    "VenueAddress": "Lokhandi Pool Road, Sangram Nagar, Rahman Ganj, Jalna, Maharashtra 431203, India",
    "VenueCode": "NCJN",
    "VenueName": "Natraj Cinema: Jalna"
  },
  "NECA": {
    "AvailableFormats": "2D",
    "City": "Kolkata",
    "Latitude": "22.5605",
    "Longitude": "88.3515",
    "RegionCode": "KOLK",
    "State": "West Bengal",
    "SubRegionCode": "KOLK",
    "VenueAddress": "1 and 2, Humayun Place, New Market Area, Dharmatala, Taltala, Kolkata, West Bengal 700087, India",
    "VenueCode": "NECA",
    "VenueName": "New Empire Cinema: Kolkata"
  },
  "NICJ": {
    "AvailableFormats": "2D|3D",
    "City": "Jodhpur",
    "Latitude": "26.2824",
    "Longitude": "73.0112",
    "RegionCode": "JODH",
    "State": "Rajasthan",
    "SubRegionCode": "JODH",
    "VenueAddress": "Chopasani Road, Sardarpura, Near Sanichar Ji Ka Than, Jodhpur, Rajasthan 342003, India",
    "VenueCode": "NICJ",
    "VenueName": "Nasrani Cinema: Jodhpur"
  },
  "NMNA": {
    "AvailableFormats": "2D",
    "City": "Nagari",
    "Latitude": "13.3251",
    "Longitude": "79.5877",
    "RegionCode": "NAGI",
    "State": "Andhra Pradesh",
    "SubRegionCode": "NAGI",
    "VenueAddress": "NH71, Nagari, Near ABCWO office, Nagari, Andhra Pradesh 517590, India",
    "VenueCode": "NMNA",
    "VenueName": "NMC Cinemas A/C 3D 4K DOLBY ATMOS: Nagari"
  },
  "NPSE": {
    "AvailableFormats": "2D|3D",
    "City": "Pune",
    "Latitude": "18.538",
    "Longitude": "73.8356",
    "RegionCode": "PUNE",
    "State": "Maharashtra",
    "SubRegionCode": "PUNE",
    "VenueAddress": "East Square Flyover, Premnagar, Ashok Nagar, Pune, Maharashtra 411016, India",
    "VenueCode": "NPSE",
    "VenueName": "E-SQUARE: University Road, Pune (Newly Renovated)"
  },
  "NTBB": {
    "AvailableFormats": "2D",
    "City": "Belagavi (Belgaum)",
    "Latitude": "15.8602",
    "Longitude": "74.513",
    "RegionCode": "BELG",
    "State": "Karnataka",
    "SubRegionCode": "BELG",
    "VenueAddress": "2016, Ganpat Galli, Raviwar Peth, Belagavi (Belgaum), Karnataka 590001, India",
    "VenueCode": "NTBB",
    "VenueName": "Nirmal Theatre: Belagavi"
  },
  "NTKP": {
    "AvailableFormats": "2D",
    "City": "Kotpad",
    "Latitude": "19.1393",
    "Longitude": "82.3228",
    "RegionCode": "KTPD",
    "State": "Odisha",
    "SubRegionCode": "KTPD",
    "VenueAddress": "Kundra - Kotpad - Jagdalpur Road, Naikera, Kotpad, Odisha 764058, India",
    "VenueCode": "NTKP",
    "VenueName": "Naveen Talkies: Kotpad"
  },
  "NVRM": {
    "AvailableFormats": "2D",
    "City": "Annavaram",
    "Latitude": "17.2732",
    "Longitude": "82.3895",
    "RegionCode": "ANVR",
    "State": "Andhra Pradesh",
    "SubRegionCode": "ANVR",
    "VenueAddress": "Annavaram Town Road, Near Annavaram Arch, Annavaram, Andhra Pradesh 533406, India",
    "VenueCode": "NVRM",
    "VenueName": "NVR Multiplex: Annavaram"
  },
  "NYBH": {
    "AvailableFormats": "2D",
    "City": "Bahadurgarh",
    "Latitude": "28.6723",
    "Longitude": "76.8988",
    "RegionCode": "BAHD",
    "State": "Haryana",
    "SubRegionCode": "BAHD",
    "VenueAddress": "3rd Floor, Avenue 37 Mall, Avenue 37 Mall, HL City, Sector 37, Jhajjar, Bahadurgarh, Haryana 124507, India",
    "VenueCode": "NYBH",
    "VenueName": "NY Cinemas: Bahadurgarh"
  },
  "NZBL": {
    "AvailableFormats": "2D",
    "City": "Nazira",
    "Latitude": "26.9125",
    "Longitude": "94.7328",
    "RegionCode": "NZRA",
    "State": "Assam",
    "SubRegionCode": "NZRA",
    "VenueAddress": "Ward No - 4, Dhodar Ali Road, Near ASTC Bus Station, Nazira, Assam 785685, India",
    "VenueCode": "NZBL",
    "VenueName": "Nazira Bolchabi: Nazira"
  },
  "OMTT": {
    "AvailableFormats": "2D",
    "City": "Chennai",
    "Latitude": "13.1251",
    "Longitude": "80.2898",
    "RegionCode": "CHEN",
    "State": "Tamil Nadu",
    "SubRegionCode": "CHEN",
    "VenueAddress": "W Mada St, Kaladipet, Tiruvottiyur, Chennai, Tamil Nadu 600019, India",
    "VenueCode": "OMTT",
    "VenueName": "Odiyan Mani Theatre 2k A/c Dolby: Thiruvottiyur"
  },
  "PACJ": {
    "AvailableFormats": "2D",
    "City": "Jaipur",
    "Latitude": "26.9349",
    "Longitude": "75.8342",
    "RegionCode": "JAIP",
    "State": "Rajasthan",
    "SubRegionCode": "JAIP",
    "VenueAddress": "Outside Zorawar Singh Gate, Amer Road, Jaipur, Rajasthan 302002, India",
    "VenueCode": "PACJ",
    "VenueName": "Paras Cinema: Amer Road"
  },
  "PAXA": {
    "AvailableFormats": "2D",
    "City": "Kozhikode",
    "Latitude": "11.2485",
    "Longitude": "75.8336",
    "RegionCode": "KOZH",
    "State": "Kerala",
    "SubRegionCode": "KOZH",
    "VenueAddress": "Third floor, Hilite Mall, Poovangal, Kozhikode, Kerala 673014, India",
    "VenueCode": "PAXA",
    "VenueName": "Palaxi Cinemas HiLITE MALL: Kozhikode"
  },
  "PBTR": {
    "AvailableFormats": "2D",
    "City": "Raipur",
    "Latitude": "21.2501",
    "Longitude": "81.6306",
    "RegionCode": "RAIPUR",
    "State": "Chhattisgarh",
    "SubRegionCode": "RAIPUR",
    "VenueAddress": "Janta Colony, Gudhiyari, Station Road, Near Rathore Chowk, Raipur, Chhattisgarh 492009, India",
    "VenueCode": "PBTR",
    "VenueName": "Prabhat Talkies: Raipur"
  },
  "PCCH": {
    "AvailableFormats": "2D",
    "City": "Chandigarh",
    "Latitude": "30.7236",
    "Longitude": "76.7674",
    "RegionCode": "CHD",
    "State": "Chandigarh",
    "SubRegionCode": "CHD",
    "VenueAddress": "Sub. City Center, Sector 34-A, Chandigarh, Chandigarh 160022, India",
    "VenueCode": "PCCH",
    "VenueName": "Piccadily Square: Chandigarh"
  },
  "PCKR": {
    "AvailableFormats": "2D",
    "City": "Kolhapur",
    "Latitude": "16.6988",
    "Longitude": "74.2279",
    "RegionCode": "KOLH",
    "State": "Maharashtra",
    "SubRegionCode": "KOLH",
    "VenueAddress": "Prabhat Cinema, 1526 C, Laxmipuri, Near Laxmipuri Police Station, Kolhapur, Maharashtra 416002, India",
    "VenueCode": "PCKR",
    "VenueName": "Prabhat Royal Cineplex: Kolhapur"
  },
  "PCPH": {
    "AvailableFormats": "2D",
    "City": "Phagwara",
    "Latitude": "31.2221",
    "Longitude": "75.7606",
    "RegionCode": "PHAG",
    "State": "Punjab",
    "SubRegionCode": "PHAG",
    "VenueAddress": "Jandiala - Phagwara Road, Satnam Pura, Phagwara, Punjab 144402, India",
    "VenueCode": "PCPH",
    "VenueName": "Prime Cinema: Phagwara"
  },
  "PCVB": {
    "AvailableFormats": "2D",
    "City": "Kochi",
    "Latitude": "10.0143",
    "Longitude": "76.3123",
    "RegionCode": "PALY",
    "State": "Kerala",
    "SubRegionCode": "PALY",
    "VenueAddress": "Survey no. 154/8.1, 8.3, 9A1, 9A2, 9B, NH Bypass, Edapally Junction, Ernakulam, Near Wildcraft, Kochi, Kerala 682024, India",
    "VenueCode": "PCVB",
    "VenueName": "PVR: Oberon Mall, Kochi"
  },
  "PDDK": {
    "AvailableFormats": "3D|2D",
    "City": "Kanpur",
    "Latitude": "26.4407",
    "Longitude": "80.3104",
    "RegionCode": "KANP",
    "State": "Uttar Pradesh",
    "SubRegionCode": "KANP",
    "VenueAddress": "Deep Cinema Road, 127/1/2 W-1, Saket Nagar, Kanpur, Uttar Pradesh 208014, India",
    "VenueCode": "PDDK",
    "VenueName": "PVR: Deep, Kanpur"
  },
  "PDWR": {
    "AvailableFormats": "2D|3D",
    "City": "Bengaluru",
    "Latitude": "12.9726",
    "Longitude": "77.6068",
    "RegionCode": "BANG",
    "State": "Karnataka",
    "SubRegionCode": "BANG",
    "VenueAddress": "3rd Floor Forum Rex Walk Brigade Road, Shanthala Nagar, Ashok Nagar, Bengaluru, Karnataka 560001, India",
    "VenueCode": "PDWR",
    "VenueName": "PVR: Directors Cut, Forum Rex Walk Bengaluru"
  },
  "PFCJ": {
    "AvailableFormats": "2D",
    "City": "Vadakara",
    "Latitude": "11.5978",
    "Longitude": "75.5867",
    "RegionCode": "VDKR",
    "State": "Kerala",
    "SubRegionCode": "VDKR",
    "VenueAddress": "Railway Station Road, Behind Old Bus Stand, Puthiyappu, Near Babus Hotel and Coolbar, Vadakara, Kerala 673101, India",
    "VenueCode": "PFCJ",
    "VenueName": "One2One Plus Film City 4K 3D Dolby Atmos: Vadakara"
  },
  "PGMV": {
    "AvailableFormats": "2D",
    "City": "Chennai",
    "Latitude": "12.972",
    "Longitude": "80.2204",
    "RegionCode": "CHEN",
    "State": "Tamil Nadu",
    "SubRegionCode": "CHEN",
    "VenueAddress": "3rd Floor, Grand Square Mall, No.137, Tambaram Velachery Road, V.O.C Nagar, Doctor Seetaram Nagar, Chennai, Tamil Nadu 600042, India",
    "VenueCode": "PGMV",
    "VenueName": "PVR: Grand Mall, Velachery"
  },
  "PIAT": {
    "AvailableFormats": "2D",
    "City": "Madurai",
    "Latitude": "9.9075",
    "Longitude": "78.1395",
    "RegionCode": "MADU",
    "State": "Tamil Nadu",
    "SubRegionCode": "MADU",
    "VenueAddress": "Anuppanadi Road, Madurai, Near ICICI Bank, Madurai, Tamil Nadu 625009, India",
    "VenueCode": "PIAT",
    "VenueName": "Palani Arumuga Cinema A/C Laser Projector: Madurai"
  },
  "PJCP": {
    "AvailableFormats": "2D|3D",
    "City": "Ranchi",
    "Latitude": "23.3786",
    "Longitude": "85.3148",
    "RegionCode": "RANC",
    "State": "Jharkhand",
    "SubRegionCode": "RANC",
    "VenueAddress": "3rd Floor, Mall of Ranchi, Ratu Road Chowk, Opposite Akashwani Kendra, Ranchi, Jharkhand 834001, India",
    "VenueCode": "PJCP",
    "VenueName": "PJP Cinemas: Mall of Ranchi"
  },
  "PKCM": {
    "AvailableFormats": "2D",
    "City": "Ranchi",
    "Latitude": "23.3809",
    "Longitude": "85.3",
    "RegionCode": "RANC",
    "State": "Jharkhand",
    "SubRegionCode": "RANC",
    "VenueAddress": "Galaxia Mall, Ratu Road, Ranchi, Jharkhand 834005, India",
    "VenueCode": "PKCM",
    "VenueName": "Popkorn Cinemas: Galaxia Mall, Ranchi"
  },
  "PLAK": {
    "AvailableFormats": "2D",
    "City": "Karkala",
    "Latitude": "13.2142",
    "Longitude": "74.9999",
    "RegionCode": "KARK",
    "State": "Karnataka",
    "SubRegionCode": "KARK",
    "VenueAddress": "Market Road, Near Karnataka Bank, Opposite Corporation Bank, Karkala, Karnataka 574104, India",
    "VenueCode": "PLAK",
    "VenueName": "Planet Cinema: A/C Digital (Karkala)"
  },
  "PMAK": {
    "AvailableFormats": "3D|2D",
    "City": "Anand",
    "Latitude": "22.542",
    "Longitude": "72.9472",
    "RegionCode": "AND",
    "State": "Gujarat",
    "SubRegionCode": "AND",
    "VenueAddress": "2nd Floor, Maruti Solaris Mall, Anand Sojitara Road, Anand, Gujarat 380001, India",
    "VenueCode": "PMAK",
    "VenueName": "PVR: Maruti Solaris, Anand"
  },
  "PMKM": {
    "AvailableFormats": "3D|2D|4DX",
    "City": "Mumbai",
    "Latitude": "19.087",
    "Longitude": "72.8903",
    "RegionCode": "MUMBAI",
    "State": "Maharashtra",
    "SubRegionCode": "MCENT",
    "VenueAddress": "Phoenix Market City, LBS Marg, Ashok Nagar, Near Kamani Junction, Kurla (W), Mumbai, Maharashtra 400072, India",
    "VenueCode": "PMKM",
    "VenueName": "PVR: Market City, Kurla (Premiere)"
  },
  "PMPU": {
    "AvailableFormats": "2D",
    "City": "Siddhpur",
    "Latitude": "23.9396",
    "Longitude": "72.3646",
    "RegionCode": "SIDD",
    "State": "Gujarat",
    "SubRegionCode": "SIDD",
    "VenueAddress": "Prayosha Plaza, Ahmedabad Palanpur Highway Road, Opposite GIDC, Siddhpur, Gujarat 384151, India",
    "VenueCode": "PMPU",
    "VenueName": "Planet Movieplex: Siddhpur"
  },
  "PNMP": {
    "AvailableFormats": "2D",
    "City": "Pathankot",
    "Latitude": "32.2753",
    "Longitude": "75.6973",
    "RegionCode": "PATH",
    "State": "Punjab",
    "SubRegionCode": "PATH",
    "VenueAddress": "Dalhousie Road, Mamun, Pathankot, Punjab 145001, India",
    "VenueCode": "PNMP",
    "VenueName": "PVR: Novelty Mall, Pathankot"
  },
  "POPE": {
    "AvailableFormats": "2D|3D",
    "City": "Navi Mumbai",
    "Latitude": "18.9936",
    "Longitude": "73.1155",
    "RegionCode": "MUMBAI",
    "State": "Maharashtra",
    "SubRegionCode": "THAN",
    "VenueAddress": "2nd floor, Orion Mall, Plot No: 311, Forest Colony, Near ST Bus Depot, Panvel, Navi Mumbai, Maharashtra 410206, India",
    "VenueCode": "POPE",
    "VenueName": "PVR: Orion Mall, Panvel"
  },
  "PPKC": {
    "AvailableFormats": "2D",
    "City": "Nagpur",
    "Latitude": "21.1672",
    "Longitude": "79.1028",
    "RegionCode": "NAGP",
    "State": "Maharashtra",
    "SubRegionCode": "NAGP",
    "VenueAddress": "Kamal Chowk, Panchpaoli Road, Near Indora Chowk, Nagpur, Maharashtra 440017, India",
    "VenueCode": "PPKC",
    "VenueName": "Kamal Cineplex: Nagpur"
  },
  "PPPR": {
    "AvailableFormats": "2D",
    "City": "Ravulapalem",
    "Latitude": "16.7615",
    "Longitude": "81.8414",
    "RegionCode": "RVPL",
    "State": "Andhra Pradesh",
    "SubRegionCode": "RVPL",
    "VenueAddress": "NH16, Near ICICI Bank, Opposite Ravulapalem Bus Stand, Ravulapalem, Andhra Pradesh 533238, India",
    "VenueCode": "PPPR",
    "VenueName": "Padmasri Picture Palace: Ravulapalem"
  },
  "PRCW": {
    "AvailableFormats": "2D|3D",
    "City": "Mumbai",
    "Latitude": "19.1416",
    "Longitude": "72.8312",
    "RegionCode": "MUMBAI",
    "State": "Maharashtra",
    "SubRegionCode": "MWEST",
    "VenueAddress": "Infinity Mall, New Link Road, Opposite Crystal Plaza, Next To Citi Mall, Andheri (W), Near Lotus Petrol Pump, Mumbai, Maharashtra 400053, India",
    "VenueCode": "PRCW",
    "VenueName": "PVR ICON: Infiniti Andheri (W)"
  },
  "PRKN": {
    "AvailableFormats": "2D",
    "City": "Rajahmundry",
    "Latitude": "17.0513",
    "Longitude": "81.8086",
    "RegionCode": "RJMU",
    "State": "Andhra Pradesh",
    "SubRegionCode": "RJMU",
    "VenueAddress": "3R25+GC, Konthamuru, Rajamahendravaram (Rajahmundry), Andhra Pradesh 533101, India",
    "VenueCode": "PRKN",
    "VenueName": "Prakruthi Vedika Premium Cinema: Rajahmundry"
  },
  "PRTY": {
    "AvailableFormats": "2D",
    "City": "Tanuku",
    "Latitude": "16.7523",
    "Longitude": "81.687",
    "RegionCode": "TADP",
    "State": "Andhra Pradesh",
    "SubRegionCode": "TADP",
    "VenueAddress": "Venkatarayapuram, Near Masjid E Hanfipet, Tanuku, Andhra Pradesh 534211, India",
    "VenueCode": "PRTY",
    "VenueName": "Pratyusha Complex: Tanuku"
  },
  "PSLV": {
    "AvailableFormats": "2D",
    "City": "Ludhiana",
    "Latitude": "30.9003",
    "Longitude": "75.8295",
    "RegionCode": "LUDH",
    "State": "Punjab",
    "SubRegionCode": "LUDH",
    "VenueAddress": "Silver Arc Mall,622, Ferozpur Road,Gurdev Nagar, Ludhiana, Punjab 141001, India",
    "VenueCode": "PSLV",
    "VenueName": "PVR: Silver Arc, Ludhiana"
  },
  "PSSM": {
    "AvailableFormats": "2D",
    "City": "Tirunelveli",
    "Latitude": "8.72129",
    "Longitude": "77.7196",
    "RegionCode": "TIRV",
    "State": "Tamil Nadu",
    "SubRegionCode": "TIRV",
    "VenueAddress": "South Byepass Road, Vannarapettai, Tirunelveli, Tamil Nadu 627003, India",
    "VenueCode": "PSSM",
    "VenueName": "PSS Multiplex Dolby Atmos: Tirunelveli"
  },
  "PTBU": {
    "AvailableFormats": "2D",
    "City": "Ujjain",
    "Latitude": "23.1566",
    "Longitude": "75.7945",
    "RegionCode": "UJJN",
    "State": "Madhya Pradesh",
    "SubRegionCode": "UJJN",
    "VenueAddress": "Treasure Bazaar Mall, Nanakheda, Near Dhanvantari Chikitsa Yojna Kendra, Ujjain, Madhya Pradesh 452010, India",
    "VenueCode": "PTBU",
    "VenueName": "PVR: Treasure Bazaar Mall, Ujjain"
  },
  "PTHK": {
    "AvailableFormats": "2D",
    "City": "Kandukur",
    "Latitude": "15.2147",
    "Longitude": "79.9046",
    "RegionCode": "KAND",
    "State": "Andhra Pradesh",
    "SubRegionCode": "KAND",
    "VenueAddress": "DV Nagar, Near Ramalayam Temple, Kandukur, Andhra Pradesh 523105, India",
    "VenueCode": "PTHK",
    "VenueName": "Prasanthi Theatre: Kandukur"
  },
  "PTTI": {
    "AvailableFormats": "2D",
    "City": "Tirupati",
    "Latitude": "13.6255",
    "Longitude": "79.4174",
    "RegionCode": "TIRU",
    "State": "Andhra Pradesh",
    "SubRegionCode": "TIRU",
    "VenueAddress": "Royal Nagar, Rayala Cheruvuru Road, Nearby Krishna Temple, Tirupati, Andhra Pradesh 517501, India",
    "VenueCode": "PTTI",
    "VenueName": "Palani Cinemas A/C 7.1 Dolby Digital: Tirupati"
  },
  "PVAK": {
    "AvailableFormats": "2D|3D",
    "City": "Kolkata",
    "Latitude": "22.5637",
    "Longitude": "88.3241",
    "RegionCode": "KOLK",
    "State": "West Bengal",
    "SubRegionCode": "KOLK",
    "VenueAddress": "Avani River Side Mall, Jagat Benarjee Ghat Road, Howrah, Kolkata, West Bengal 711102, India",
    "VenueCode": "PVAK",
    "VenueName": "PVR: Avani, Kolkata"
  },
  "PVFS": {
    "AvailableFormats": "4DX|2D|3D|4DX 3D",
    "City": "Hyderabad",
    "Latitude": "17.4845",
    "Longitude": "78.3888",
    "RegionCode": "HYD",
    "State": "Telangana",
    "SubRegionCode": "HYD",
    "VenueAddress": "4th Floor, Nexus Mall, Plot No S-16, Survey No.1009, KPHB Phase 6, Opp Malaysian Township, Kukatpally, Hyderabad, Telangana 500072, India",
    "VenueCode": "PVFS",
    "VenueName": "PVR: Nexus Mall Kukatpally, Hyderabad"
  },
  "PVLC": {
    "AvailableFormats": "2D|3D|4DX|4DX 3D",
    "City": "Kochi",
    "Latitude": "10.0281",
    "Longitude": "76.3081",
    "RegionCode": "PALY",
    "State": "Kerala",
    "SubRegionCode": "PALY",
    "VenueAddress": "Lulu International Shopping Mall, Edappally, Nethaji Nagar, Kochi, Kerala 682024, India",
    "VenueCode": "PVLC",
    "VenueName": "PVR: Lulu, Kochi"
  },
  "PVOO": {
    "AvailableFormats": "2D|4DX",
    "City": "Bengaluru",
    "Latitude": "13.011",
    "Longitude": "77.5551",
    "RegionCode": "HOKT",
    "State": "Karnataka",
    "SubRegionCode": "HOKT",
    "VenueAddress": "Orion Mall, 3rd Floor, Brigade Gateway, Dr. Rajkumar Road, Malleshwaram West, Bengaluru, Karnataka 560055, India",
    "VenueCode": "PVOO",
    "VenueName": "PVR: Orion Mall, Dr Rajkumar Road"
  },
  "PVTS": {
    "AvailableFormats": "2D|3D",
    "City": "Hyderabad",
    "Latitude": "17.446",
    "Longitude": "78.3638",
    "RegionCode": "HYD",
    "State": "Telangana",
    "SubRegionCode": "HYD",
    "VenueAddress": "4th Floor, Atrium Mall, Survey No. 136, Gachibowli- Miyapur Road, Gachibowli, Hyderabad, Telangana 500032, India",
    "VenueCode": "PVTS",
    "VenueName": "PVR: Atrium Gachibowli, Hyderabad"
  },
  "PVYS": {
    "AvailableFormats": "2D",
    "City": "Vellore",
    "Latitude": "12.9499",
    "Longitude": "79.138",
    "RegionCode": "VELL",
    "State": "Tamil Nadu",
    "SubRegionCode": "VELL",
    "VenueAddress": "No. 33/5, 14th East Cross Road, Silk Mill, Gandhi Nagar, Near Damro Showroom, Vellore, Tamil Nadu 632006, India",
    "VenueCode": "PVYS",
    "VenueName": "PVR: Velocity, Silk Mill, Gandhi Nagar"
  },
  "QUST": {
    "AvailableFormats": "2D",
    "City": "Padrauna",
    "Latitude": "26.8945",
    "Longitude": "83.9786",
    "RegionCode": "PADR",
    "State": "Uttar Pradesh",
    "SubRegionCode": "PADR",
    "VenueAddress": "PD City Mall, Kasiya Road, Padrauna, Uttar Pradesh 274304, India",
    "VenueCode": "QUST",
    "VenueName": "Quality Starworld: Padrauna"
  },
  "RAJX": {
    "AvailableFormats": "2D",
    "City": "Darbhanga",
    "Latitude": "26.1276",
    "Longitude": "85.8954",
    "RegionCode": "DARB",
    "State": "Bihar",
    "SubRegionCode": "DARB",
    "VenueAddress": "RB Palace, Ward No 31 old and 41 New, Mohalla Belwaganj, Ismailganj Road, Laheraisarai, Opposite HDFC Bank ATM, Darbhanga, Bihar 846004, India",
    "VenueCode": "RAJX",
    "VenueName": "Rajnish Cineplex: Darbhanga"
  },
  "RATG": {
    "AvailableFormats": "2D",
    "City": "Vizag (Visakhapatnam)",
    "Latitude": "17.9343",
    "Longitude": "83.4256",
    "RegionCode": "VIZA",
    "State": "Andhra Pradesh",
    "SubRegionCode": "VIZA",
    "VenueAddress": "Bheemili - Thagarapuvalasa Road, Near Oriental Bank of Commerce, Vizag, Andhra Pradesh 531163, India",
    "VenueCode": "RATG",
    "VenueName": "Sri Ramulamma Theatre, Thagarapuvalasa: Vizag"
  },