{
  "AACT": {
    "AvailableFormats": "",
    "City": "Tirur",
    "FirstTracked": "2026-07-14",
    "Latitude": "10.909439",
    "Longitude": "75.922585",
    "RegionCode": "ANDM",
    "State": "Kerala",
    "SubRegionCode": "ANDM",
    "VenueAddress": "Trikkandiyoor Road, Tirur, Near MDC BANK, Tirur, Kerala 676101, India",
    "VenueCode": "AACT",
    "VenueName": "Magic Frames Anoograha Cinemas: Tirur"
  },
  "AASH": {
    "AvailableFormats": "2D",
    "City": "Bhandara",
    "Latitude": "21.17",
    "Longitude": "79.6562",
    "RegionCode": "BHAA",
    "State": "Maharashtra",
    "SubRegionCode": "BHAA",
    "VenueAddress": "Gandhi Square, Gandhi Chowk, Santaji Nagar, Bhandara, Maharashtra 441904, India",
    "VenueCode": "AASH",
    "VenueName": "Adarsh Chitra Mandir: Bhandara"
  },
  "ABCS": {
    "AvailableFormats": "3D|2D",
    "City": "Hyderabad",
    "Latitude": "17.4005",
    "Longitude": "78.5548",
    "RegionCode": "HYD",
    "State": "Telangana",
    "SubRegionCode": "HYD",
    "VenueAddress": "DSL Virtue Mall, 3rd Floor, Plot No. B-1, B-2B and 2, Uppal Khlasa VRR, Near Indian Oil Petrol Pump, Hyderabad, Telangana 500039, India",
    "VenueCode": "ABCS",
    "VenueName": "Cinepolis: DSL Virtue Mall Uppal, Hyderabad"
  },
  "ABTS": {
    "AvailableFormats": "2D",
    "City": "Palakollu",
    "Latitude": "16.5167",
    "Longitude": "81.7258",
    "RegionCode": "PLKL",
    "State": "Andhra Pradesh",
    "SubRegionCode": "PLKL",
    "VenueAddress": "Money Market Road, Near Kanaka Durga Maa Temple, Palakollu, Andhra Pradesh 534260, India",
    "VenueCode": "ABTS",
    "VenueName": "Adabala Theatre Screen 1: Palakollu"
  },
  "ACDC": {
    "AvailableFormats": "2D",
    "City": "Chhatarpur",
    "Latitude": "24.8849",
    "Longitude": "79.5946",
    "RegionCode": "CHHT",
    "State": "Madhya Pradesh",
    "SubRegionCode": "CHHT",
    "VenueAddress": "Green Avenue Colony, Next to Dr. Radhakrishna Higher Secondary School, Chhatarpur, Madhya Pradesh 471001, India",
    "VenueCode": "ACDC",
    "VenueName": "Ashoka Cineplex: Chhatarpur"
  },
  "ACID": {
    "AvailableFormats": "",
    "City": "Idar",
    "FirstTracked": "2026-07-14",
    "Latitude": "23.80376",
    "Longitude": "72.993935",
    "RegionCode": "IDAR",
    "State": "Gujarat",
    "SubRegionCode": "IDAR",
    "VenueAddress": "Himatnagar Highway, Sapawada, Idar, Gujarat 383430, India",
    "VenueCode": "ACID",
    "VenueName": "Time Cinema: Idar"
  },
  "ACKZ": {
    "AvailableFormats": "2D",
    "City": "Kozhikode",
    "Latitude": "11.2554",
    "Longitude": "75.7847",
    "RegionCode": "KOZH",
    "State": "Kerala",
    "SubRegionCode": "KOZH",
    "VenueAddress": "No 17/256, Pavamani Road, Kozhikode, Kerala 673001, India",
    "VenueCode": "ACKZ",
    "VenueName": "ARC Coronation 4K Dolby Atmos"
  },
  "ACON": {
    "AvailableFormats": "2D",
    "City": "Chennai",
    "Latitude": "12.8505",
    "Longitude": "80.2257",
    "RegionCode": "CHEN",
    "State": "Tamil Nadu",
    "SubRegionCode": "CHEN",
    "VenueAddress": "Vivira Mall, 5th Floor, Navalur, Old Mahabalipuram Road, Near ETA Techno Park Entrance, Chennai, Tamil Nadu 603103, India",
    "VenueCode": "ACON",
    "VenueName": "AGS Cinemas OMR: Navlur"
  },
  "ACTC": {
    "AvailableFormats": "",
    "City": "Trivandrum",
    "FirstTracked": "2026-07-14",
    "Latitude": "8.497059",
    "Longitude": "76.937096",
    "RegionCode": "TRIV",
    "State": "Kerala",
    "SubRegionCode": "TRIV",
    "VenueAddress": "SRA-24, Vanchiyoor, Thiruvananthapuram, Trivandrum, Kerala 695035, India",
    "VenueCode": "ACTC",
    "VenueName": "Artech Cinemas: Trivandrum"
  },
  "ACXK": {
    "AvailableFormats": "2D",
    "City": "Kichha",
    "Latitude": "28.9107",
    "Longitude": "79.5144",
    "RegionCode": "KCHA",
    "State": "Uttarakhand",
    "SubRegionCode": "KCHA",
    "VenueAddress": "Bareilly Road, Main Market, Kichha, Uttarakhand 263148, India",
    "VenueCode": "ACXK",
    "VenueName": "Anupam Cineplex: Kichha"
  },
  "ADGR": {
    "AvailableFormats": "2D|3D",
    "City": "Gorakhpur",
    "Latitude": "26.7564",
    "Longitude": "83.3668",
    "RegionCode": "GRKP",
    "State": "Uttar Pradesh",
    "SubRegionCode": "GRKP",
    "VenueAddress": "2nd and 3rd Floor, Ad Mall, Cinema Road, Gorakhpur, Uttar Pradesh 273001, India",
    "VenueCode": "ADGR",
    "VenueName": "AD Cinemas: Gorakhpur"
  },
  "AGCD": {
    "AvailableFormats": "2D",
    "City": "Dindigul",
    "Latitude": "10.3655",
    "Longitude": "77.9815",
    "RegionCode": "DIND",
    "State": "Tamil Nadu",
    "SubRegionCode": "DIND",
    "VenueAddress": "15 A, Aarthi Theatre Road, Dindigul, Tamil Nadu 624001, India",
    "VenueCode": "AGCD",
    "VenueName": "Aarthi Grand Cineplex: Dindigul"
  },
  "AJCI": {
    "AvailableFormats": "",
    "City": "Chintamani",
    "FirstTracked": "2026-07-14",
    "Latitude": "13.3946",
    "Longitude": "78.0505",
    "RegionCode": "CHTI",
    "State": "Karnataka",
    "SubRegionCode": "CHTI",
    "VenueAddress": "Malapally Road, Beside Old LIC Building, Gandhi Nagar, Chintamani, Karnataka 563125, India",
    "VenueCode": "AJCI",
    "VenueName": "Anjani Theatre: Chintamani"
  },
  "AKSR": {
    "AvailableFormats": "",
    "City": "Ravulapalem",
    "FirstTracked": "2026-07-16",
    "Latitude": "16.7597",
    "Longitude": "81.8411",
    "RegionCode": "RVPL",
    "State": "Andhra Pradesh",
    "SubRegionCode": "RVPL",
    "VenueAddress": "National Highway 16, Near - Gayatri Mobiles, Ravulapalem, Andhra Pradesh 533238, India",
    "VenueCode": "AKSR",
    "VenueName": "Akshara Cinemas Dolby Atmos: Ravulapalem"
  },
  "ALCS": {
    "AvailableFormats": "2D",
    "City": "Shirpur",
    "Latitude": "21.3442",
    "Longitude": "74.8805",
    "RegionCode": "SRUR",
    "State": "Maharashtra",
    "SubRegionCode": "SRUR",
    "VenueAddress": "Main Road, Krantinagar, Shirpur, Maharashtra 425405, India",
    "VenueCode": "ALCS",
    "VenueName": "Alankar Chitramandir: Shirpur"
  },
  "AMBH": {
    "AvailableFormats": "2D|3D",
    "City": "Hyderabad",
    "Latitude": "17.4578",
    "Longitude": "78.3642",
    "RegionCode": "HYD",
    "State": "Telangana",
    "SubRegionCode": "HYD",
    "VenueAddress": "Sarath City Capital Mall, Forest Dept Colony, Kondapur, Gachibowli - Miyapur Road, White Field Road, Opposite Mahindra Showroom, Hyderabad, Telangana 500084, India",
    "VenueCode": "AMBH",
    "VenueName": "AMB Cinemas: Gachibowli"
  },
  "AMDK": {
    "AvailableFormats": "2D",
    "City": "Devarakonda",
    "Latitude": "16.6908",
    "Longitude": "78.9227",
    "RegionCode": "DEVK",
    "State": "Telangana",
    "SubRegionCode": "DEVK",
    "VenueAddress": "Devarakonda Road, Mallepally Road, Near State Bank of India ATM, Devarakonda, Telangana 508248, India",
    "VenueCode": "AMDK",
    "VenueName": "Asian Manoj: Devarakonda"
  },
  "AMNG": {
    "AvailableFormats": "3D|2D",
    "City": "Nagpur",
    "Latitude": "21.086",
    "Longitude": "79.0911",
    "RegionCode": "NAGP",
    "State": "Maharashtra",
    "SubRegionCode": "NAGP",
    "VenueAddress": "2nd Floor, Jayanti Nagri 5 Mall, Besa Road, Above Haldirams, Nagpur, Maharashtra 440027, India",
    "VenueCode": "AMNG",
    "VenueName": "AM Cinema: Manish Nagar, Nagpur"
  },
  "AMZB": {
    "AvailableFormats": "2D",
    "City": "Zaheerabad",
    "Latitude": "17.6803",
    "Longitude": "77.6154",
    "RegionCode": "ZAGE",
    "State": "Telangana",
    "SubRegionCode": "ZAGE",
    "VenueAddress": "Main Road, Opposite to Bus Stand, Zaheerabad, Telangana 502220, India",
    "VenueCode": "AMZB",
    "VenueName": "Asian Sri Mohan: Zaheerabad"
  },
  "ANCV": {
    "AvailableFormats": "",
    "City": "Varanasi",
    "FirstTracked": "2026-07-14",
    "Latitude": "25.328384",
    "Longitude": "82.995",
    "RegionCode": "VAR",
    "State": "Uttar Pradesh",
    "SubRegionCode": "VAR",
    "VenueAddress": "S 13/18, Anand Mandir Andhrapull, Teliyabag, Raja Bazar Road, Varanasi, Uttar Pradesh 221002, India",
    "VenueCode": "ANCV",
    "VenueName": "Anand Mandir Cinema: Varanasi"
  },
  "ANRR": {
    "AvailableFormats": "2D",
    "City": "Kanpur",
    "Latitude": "26.4643",
    "Longitude": "80.3573",
    "RegionCode": "KANP",
    "State": "Uttar Pradesh",
    "SubRegionCode": "KANP",
    "VenueAddress": "Birhana Road, Naughara, General Ganj, Kanpur, Uttar Pradesh 208001, India",
    "VenueCode": "ANRR",
    "VenueName": "Navrang Cineplex: Kanpur"
  },
  "AOCH": {
    "AvailableFormats": "2D",
    "City": "Nabadwip",
    "Latitude": "23.4051",
    "Longitude": "88.3661",
    "RegionCode": "NABB",
    "State": "West Bengal",
    "SubRegionCode": "NABB",
    "VenueAddress": "78, Banerjee Para Road, Near Allahabad Bank, Nabadwip, West Bengal 741302, India",
    "VenueCode": "AOCH",
    "VenueName": "Alochaya Cinema: Nabadwip"
  },
  "APJC": {
    "AvailableFormats": "2D",
    "City": "Madurai",
    "Latitude": "9.90666",
    "Longitude": "78.0975",
    "RegionCode": "MADU",
    "State": "Tamil Nadu",
    "SubRegionCode": "MADU",
    "VenueAddress": "No. 6 Kambar street, Pasumpon Nagar, Madurai, Tamil Nadu 625003, India",
    "VenueCode": "APJC",
    "VenueName": "APR Cinemas Jeyam AC Christie 4K Dolby: Madurai"
  },
  "APSC": {
    "AvailableFormats": "3D|2D",
    "City": "Changanassery",
    "Latitude": "9.44915",
    "Longitude": "76.5436",
    "RegionCode": "CNSY",
    "State": "Kerala",
    "SubRegionCode": "CNSY",
    "VenueAddress": "Aramanapady, Palace Road, Near South Indian Bank, Changanassery, Kerala 686101, India",
    "VenueCode": "APSC",
    "VenueName": "Apsara Theatre Dolby 7.1: Changanassery"
  },
  "ARBL": {
    "AvailableFormats": "2D",
    "City": "Buldana",
    "Latitude": "20.5467",
    "Longitude": "76.1763",
    "RegionCode": "BULD",
    "State": "Maharashtra",
    "SubRegionCode": "BULD",
    "VenueAddress": "ARD Green Valley, Malkapur Road, Opposite Hero Honda Showroom, Buldana, Maharashtra 443001, India",
    "VenueCode": "ARBL",
    "VenueName": "ARD Cinemall: Buldana"
  },
  "ARMH": {
    "AvailableFormats": "2D",
    "City": "Hyderabad",
    "Latitude": "17.4767",
    "Longitude": "78.5632",
    "RegionCode": "HYD",
    "State": "Telangana",
    "SubRegionCode": "HYD",
    "VenueAddress": "Anupuram Colony, Dr A S Rao Nagar Road, ECIL Main Road, Near Parivaar Banquet Halls, Hyderabad, Telangana 500062, India",
    "VenueCode": "ARMH",
    "VenueName": "Asian Radhika Multiplex: ECIL"
  },
  "ARYH": {
    "AvailableFormats": "2D",
    "City": "Hyderabad",
    "Latitude": "17.3967",
    "Longitude": "78.5608",
    "RegionCode": "HYD",
    "State": "Telangana",
    "SubRegionCode": "HYD",
    "VenueAddress": "Raj Laxmi Theater, 2-1-40, Uppal Ring Road, Raj Nagar, Uppal, Near Indane Gas Service, Hyderabad, Telangana 500039, India",
    "VenueCode": "ARYH",
    "VenueName": "Asian Rajya Lakshmi: Uppal"
  },
  "ASGN": {
    "AvailableFormats": "",
    "City": "Hyderabad",
    "FirstTracked": "2026-07-14",
    "Latitude": "17.36137",
    "Longitude": "78.523254",
    "RegionCode": "AUSH",
    "State": "Telangana",
    "SubRegionCode": "AUSH",
    "VenueAddress": "Asian Shiva Ganga Mall, Kalyan Nagar Road, Sahithi Nagar, Gaddiannaram Road, Near City Busstop, Dilsukhnagar, Hyderabad, Telangana 500060, India",
    "VenueCode": "ASGN",
    "VenueName": "Asian Shiva Ganga: Dilsukhnagar"
  },
  "ASMA": {
    "AvailableFormats": "",
    "City": "Ahilyanagar (Ahmednagar)",
    "FirstTracked": "2026-07-14",
    "Latitude": "19.0927",
    "Longitude": "74.7362",
    "RegionCode": "AHMED",
    "State": "Maharashtra",
    "SubRegionCode": "AHMED",
    "VenueAddress": "Asha Chowk, Ahmednagar, Near Kotwali Police Headquarter, Ahilyanagar (Ahmednagar), Maharashtra 414001, India",
    "VenueCode": "ASMA",
    "VenueName": "Asha Square Multiplex: Ahilyanagar"
  },
  "ASRM": {
    "AvailableFormats": "2D",
    "City": "Madanapalle",
    "Latitude": "13.5553",
    "Longitude": "78.5081",
    "RegionCode": "MDNP",
    "State": "Andhra Pradesh",
    "SubRegionCode": "MDNP",
    "VenueAddress": "Rama Gopal Naidu Colony, Near State Bank of India, Madanapalle, Andhra Pradesh 517325, India",
    "VenueCode": "ASRM",
    "VenueName": "ASR A/C 4K Laser Dolby Surround 7.1: Madanapalle"
  },
  "ASTC": {
    "AvailableFormats": "2D",
    "City": "Indore",
    "Latitude": "22.7432",
    "Longitude": "75.8841",
    "RegionCode": "IND",
    "State": "Madhya Pradesh",
    "SubRegionCode": "IND",
    "VenueAddress": "Patni Pura Road, Nanda Nagar, Indore, Madhya Pradesh 452011, India",
    "VenueCode": "ASTC",
    "VenueName": "Aasttha Cinema: Indore"
  },
  "ATAS": {
    "AvailableFormats": "2D",
    "City": "Virudhunagar",
    "Latitude": "9.59006",
    "Longitude": "77.9557",
    "RegionCode": "VIRU",
    "State": "Tamil Nadu",
    "SubRegionCode": "VIRU",
    "VenueAddress": "Railway Feeder Road, Sivagami Puram, Virudhunagar, Tamil Nadu 626001, India",
    "VenueCode": "ATAS",
    "VenueName": "Apsara Theatre A/C 7.1 Surround System"
  },
  "ATJL": {
    "AvailableFormats": "2D",
    "City": "Jagdalpur",
    "Latitude": "19.0867",
    "Longitude": "82.0165",
    "RegionCode": "JAGD",
    "State": "Chhattisgarh",
    "SubRegionCode": "JAGD",
    "VenueAddress": "Anupama Chowk, Chitrakote Road, Jaiswal Colony, Jagdalpur, Chhattisgarh 494001, India",
    "VenueCode": "ATJL",
    "VenueName": "Anupama Theatre: Jagdalpur"
  },
  "ATTK": {
    "AvailableFormats": "",
    "City": "Narsapur",
    "FirstTracked": "2026-07-14",
    "Latitude": "16.4412",
    "Longitude": "81.7032",
    "RegionCode": "NARP",
    "State": "Andhra Pradesh",
    "SubRegionCode": "NARP",
    "VenueAddress": "NH216, Near Narsapur Bus Depot, Narsapur, Andhra Pradesh 534275, India",
    "VenueCode": "ATTK",
    "VenueName": "Annapurna Picture Palace: Narsapur"
  },
  "AUPM": {
    "AvailableFormats": "2D|3D",
    "City": "Nizamabad",
    "Latitude": "18.6642",
    "Longitude": "78.0941",
    "RegionCode": "NIZA",
    "State": "Telangana",
    "SubRegionCode": "NIZA",
    "VenueAddress": "Kotagally, Pedda Bazaar Road, Shivaji Nagar, Near Government High School, Nizamabad, Telangana 503001, India",
    "VenueCode": "AUPM",
    "VenueName": "Asian Usha Prasad Multiplex: Nizamabad"
  },
  "AVSG": {
    "AvailableFormats": "2D",
    "City": "Ghazipur",
    "Latitude": "25.5728",
    "Longitude": "83.5633",
    "RegionCode": "GHAR",
    "State": "Uttar Pradesh",
    "SubRegionCode": "GHAR",
    "VenueAddress": "Above V-Mart Vidhya Complex, Bandhwa Pull, Near - Sichai Vibhag Choraha, Ghazipur, Uttar Pradesh 233001, India",
    "VenueCode": "AVSG",
    "VenueName": "AV Star Cinema: Ghazipur"
  },
  "AYCS": {
    "AvailableFormats": "2D",
    "City": "Shimla",
    "Latitude": "31.0979",
    "Longitude": "77.1513",
    "RegionCode": "SMLA",
    "State": "Himachal Pradesh",
    "SubRegionCode": "SMLA",
    "VenueAddress": "2nd Floor, C.K. Mall New, ISBT Tutikandi, Shimla, Himachal Pradesh 171004, India",
    "VenueCode": "AYCS",
    "VenueName": "Ayaan Cinemas: Shimla"
  },
  "BALJ": {
    "AvailableFormats": "",
    "City": "Bengaluru",
    "FirstTracked": "2026-07-14",
    "Latitude": "12.956864",
    "Longitude": "77.6194",
    "RegionCode": "BANG",
    "State": "Karnataka",
    "SubRegionCode": "BANG",
    "VenueAddress": "21 K.V Temple Street, Vannarpet Main Road, Viveknagar, Bengaluru, Karnataka 560047, India",
    "VenueCode": "BALJ",
    "VenueName": "Sri Balaji 2K Dolby Atmos 7.1: Viveknagar"
  },
  "BBPC": {
    "AvailableFormats": "2D",
    "City": "Pusad",
    "Latitude": "19.9081",
    "Longitude": "77.5721",
    "RegionCode": "PUSD",
    "State": "Maharashtra",
    "SubRegionCode": "PUSD",
    "VenueAddress": "27, Pusad Road, Near Pusad Court, Near State Bank Of India, Pusad, Maharashtra 445204, India",
    "VenueCode": "BBPC",
    "VenueName": "Barkha Cinema: Pusad"
  },
  "BCKR": {
    "AvailableFormats": "2D|3D",
    "City": "Kharagpur",
    "Latitude": "22.3381",
    "Longitude": "87.306",
    "RegionCode": "KGPR",
    "State": "West Bengal",
    "SubRegionCode": "KGPR",
    "VenueAddress": "Railway Plot No- 489, New Settlement, Gate Bazar, Kharagpur, West Bengal 721301, India",
    "VenueCode": "BCKR",
    "VenueName": "Bombay Cineplex: Kharagpur"
  },
  "BGRJ": {
    "AvailableFormats": "",
    "City": "Narsipatnam",
    "FirstTracked": "2026-07-14",
    "Latitude": "17.66393",
    "Longitude": "82.61234",
    "RegionCode": "NARS",
    "State": "Andhra Pradesh",
    "SubRegionCode": "NARS",
    "VenueAddress": "Bangarraju Complex, Near Indian Bank, Narsipatnam, Andhra Pradesh 531116, India",
    "VenueCode": "BGRJ",
    "VenueName": "Bangaraju Picture Palace A/C DTS: Narsipatnam"
  },
  "BHUC": {
    "AvailableFormats": "2D",
    "City": "Solapur",
    "Latitude": "17.6771",
    "Longitude": "75.8986",
    "RegionCode": "SOLA",
    "State": "Maharashtra",
    "SubRegionCode": "SOLA",
    "VenueAddress": "8, Old Police Line, Murarji Peth, Solapur, Solapur, Maharashtra 413001, India",
    "VenueCode": "BHUC",
    "VenueName": "Bhagwat Uma Mandir: Solapur"
  },
  "BJML": {
    "AvailableFormats": "2D",
    "City": "Punganur",
    "Latitude": "13.3602",
    "Longitude": "78.5785",
    "RegionCode": "PGNR",
    "State": "Andhra Pradesh",
    "SubRegionCode": "PGNR",
    "VenueAddress": "MBT Road, Near Om Shakthi Temple, Punganur, Andhra Pradesh 517247, India",
    "VenueCode": "BJML",
    "VenueName": "Sree Balaji Movie Land A/C 4K: Punganur"
  },
  "BLCK": {
    "AvailableFormats": "2D",
    "City": "Kalladikode",
    "Latitude": "10.8926",
    "Longitude": "76.5402",
    "RegionCode": "KALD",
    "State": "Kerala",
    "SubRegionCode": "KALD",
    "VenueAddress": "Palakkad Highway, Kalladikode, Near Kalladikode Police Station, Kalladikode, Kerala 678596, India",
    "VenueCode": "BLCK",
    "VenueName": "Bala Cinemas Dolby Atmos Laser Tripple Beam 3D"
  },
  "BMCJ": {
    "AvailableFormats": "3D|2D",
    "City": "Jodhpur",
    "Latitude": "26.2723",
    "Longitude": "73.0033",
    "RegionCode": "JODH",
    "State": "Rajasthan",
    "SubRegionCode": "JODH",
    "VenueAddress": "4th Floor, Ashapurna Mall and Multiplex, Gaurav Path Road, Sector-E, Shastri Nagar, Near Shastri Nagar Post Office, Jodhpur, Rajasthan 342003, India",
    "VenueCode": "BMCJ",
    "VenueName": "Miraj Bioscope Cinemas: Jodhpur"
  },
  "BODA": {
    "AvailableFormats": "2D",
    "City": "Damoh",
    "Latitude": "23.8026",
    "Longitude": "79.4537",
    "RegionCode": "DAMO",
    "State": "Madhya Pradesh",
    "SubRegionCode": "DAMO",
    "VenueAddress": "Choupra Khurd, Jabalpur Road, Damoh, Madhya Pradesh 470661, India",
    "VenueCode": "BODA",
    "VenueName": "Bollywood Cinema: Damoh"
  },
  "BSCN": {
    "AvailableFormats": "2D",
    "City": "Nabha",
    "Latitude": "30.3918",
    "Longitude": "76.1195",
    "RegionCode": "NABH",
    "State": "Punjab",
    "SubRegionCode": "NABH",
    "VenueAddress": "Gulldi Gate, Nabha, Nabha-Malerkotla Road, Nabha, Punjab 147201, India",
    "VenueCode": "BSCN",
    "VenueName": "Balraj Cinemas: Nabha"
  },
  "BTCF": {
    "AvailableFormats": "",
    "City": "Firozabad",
    "FirstTracked": "2026-07-14",
    "Latitude": "27.136106",
    "Longitude": "78.4235",
    "RegionCode": "FRZD",
    "State": "Uttar Pradesh",
    "SubRegionCode": "FRZD",
    "VenueAddress": "Bharat talkies, Asfabad, Firozabad, Uttar Pradesh 283203, India",
    "VenueCode": "BTCF",
    "VenueName": "Bharat DD Cinemas: Firozabad"
  },
  "BUUC": {
    "AvailableFormats": "2D",
    "City": "Udupi",
    "Latitude": "13.3457",
    "Longitude": "74.7527",
    "RegionCode": "MANI",
    "State": "Karnataka",
    "SubRegionCode": "MANI",
    "VenueAddress": "Mandavi Times Square Mall, 2nd Floor, Mandavi, Manipal Highway, Klasanka Junction, Kunjibettu, Udupi, Karnataka 576102, India",
    "VenueCode": "BUUC",
    "VenueName": "Times Square Bharath Cinemas: Udupi"
  },
  "CAEP": {
    "AvailableFormats": "2D|3D",
    "City": "Patna",
    "Latitude": "25.5785",
    "Longitude": "85.0798",
    "RegionCode": "PATN",
    "State": "Bihar",
    "SubRegionCode": "PATN",
    "VenueAddress": "2nd Floor, S R Arcade, Near Mahavir Cancer Sansthan Pulwarishariff, Patna, Bihar 801505, India",
    "VenueCode": "CAEP",
    "VenueName": "Connplex Cinemas: Phulwari Sharif, Patna"
  },
  "CBWC": {
    "AvailableFormats": "",
    "City": "Biswanath Chariali",
    "FirstTracked": "2026-07-14",
    "Latitude": "26.7412",
    "Longitude": "93.1505",
    "RegionCode": "BICH",
    "State": "Assam",
    "SubRegionCode": "BICH",
    "VenueAddress": "3rd and 4th Floor, Millennium Market City, Biswanath Civil Sub Division, Biswanath Chariali, Assam 784176, India",
    "VenueCode": "CBWC",
    "VenueName": "Connplex Cinemas: Biswanath Chariali"
  },
  "CCCB": {
    "AvailableFormats": "2D",
    "City": "Coimbatore",
    "Latitude": "11.0137",
    "Longitude": "77.0026",
    "RegionCode": "COIM",
    "State": "Tamil Nadu",
    "SubRegionCode": "COIM",
    "VenueAddress": "14, Renganayaki Nagar, Thirumagal Nagar, Udayampalayam, Coimbatore, Tamil Nadu 641028, India",
    "VenueCode": "CCCB",
    "VenueName": "Cosmo Cinemas PEELAMEDU AC 4K RGB Lase:Coimbatore"
  },
  "CCJR": {
    "AvailableFormats": "2D",
    "City": "Janjgir",
    "Latitude": "22.0117",
    "Longitude": "82.5759",
    "RegionCode": "JANR",
    "State": "Chhattisgarh",
    "SubRegionCode": "JANR",
    "VenueAddress": "Near A One Bakery, Link Road, Janjgir, Chhattisgarh 495668, India",
    "VenueCode": "CCJR",
    "VenueName": "City Cinema: Janjgir Naila"
  },
  "CCML": {
    "AvailableFormats": "",
    "City": "Korba",
    "FirstTracked": "2026-07-14",
    "Latitude": "22.354334",
    "Longitude": "82.7046",
    "RegionCode": "KRBA",
    "State": "Chhattisgarh",
    "SubRegionCode": "KRBA",
    "VenueAddress": "Palm Mall, 2nd floor, T.P. Nagar Road, Lalu Ram colony, Korba, Chhattisgarh 495677, India",
    "VenueCode": "CCML",
    "VenueName": "Cineflix Cinema: The Palm Mall, Korba"
  },
  "CCPF": {
    "AvailableFormats": "",
    "City": "Agra",
    "FirstTracked": "2026-07-14",
    "Latitude": "27.2062",
    "Longitude": "77.9727",
    "RegionCode": "AGRA",
    "State": "Uttar Pradesh",
    "SubRegionCode": "AGRA",
    "VenueAddress": "Avas Vikas Colony, Sector 12A, Plot No. MP 01, Agra, Uttar Pradesh 282007, India",
    "VenueCode": "CCPF",
    "VenueName": "Cineworld Multiplex: Paras Pearls Mall, Agra"
  },
  "CCSI": {
    "AvailableFormats": "2D|3D",
    "City": "Siliguri",
    "Latitude": "26.7394",
    "Longitude": "88.4027",
    "RegionCode": "SILI",
    "State": "West Bengal",
    "SubRegionCode": "SILI",
    "VenueAddress": "Savin Plaza, Savin Kingdom,Hill Kart Road, Dagapur, Behind Baba Loknath Mandir, Siliguri, West Bengal 734003, India",
    "VenueCode": "CCSI",
    "VenueName": "Savin Cinemas: Siliguri"
  },
  "CDCM": {
    "AvailableFormats": "2D",
    "City": "Marayur",
    "Latitude": "10.278",
    "Longitude": "77.1658",
    "RegionCode": "MAYR",
    "State": "Kerala",
    "SubRegionCode": "MAYR",
    "VenueAddress": "Munnar - Udumalpet Road, Nearby Rahul Hotel, Marayur, Kerala 685620, India",
    "VenueCode": "CDCM",
    "VenueName": "Chandana Cinema: Marayur"
  },
  "CEHR": {
    "AvailableFormats": "2D|3D",
    "City": "Bengaluru",
    "Latitude": "12.8963",
    "Longitude": "77.6579",
    "RegionCode": "BANG",
    "State": "Karnataka",
    "SubRegionCode": "BANG",
    "VenueAddress": "No.102, 2B, Haralur Main Road, Bengaluru, Karnataka 560102, India",
    "VenueCode": "CEHR",
    "VenueName": "Cinephile HSR Layout: PNR Felicity Mall Haralur Rd"
  },
  "CGBO": {
    "AvailableFormats": "2D",
    "City": "Ahmedabad",
    "Latitude": "23.0288",
    "Longitude": "72.4785",
    "RegionCode": "AHD",
    "State": "Gujarat",
    "SubRegionCode": "AHD",
    "VenueAddress": "Behind Amrapali Shopping Complex, Bopal Junction,Sardar Patel Ring Road, Near Bharat Petroleum Petrol Pump, Ahmedabad, Gujarat 380058, India",
    "VenueCode": "CGBO",
    "VenueName": "City Gold: Bopal"
  },
  "CGMM": {
    "AvailableFormats": "2D|3D",
    "City": "Muzaffarpur",
    "Latitude": "26.1101",
    "Longitude": "85.3957",
    "RegionCode": "MUZA",
    "State": "Bihar",
    "SubRegionCode": "MUZA",
    "VenueAddress": "The Grand Mall, 5th Floor, Club Road, Near MDDM College, Muzaffarpur, Bihar 842002, India",
    "VenueCode": "CGMM",
    "VenueName": "Cinepolis: Grand Mall, Muzaffarpur"
  },
  "CHGV": {
    "AvailableFormats": "2D",
    "City": "Belagavi (Belgaum)",
    "Latitude": "15.8594",
    "Longitude": "74.5122",
    "RegionCode": "BELG",
    "State": "Karnataka",
    "SubRegionCode": "BELG",
    "VenueAddress": "1724/A, Huns Talkies Road, Burud Galli, Nana Shankar Sheth Marg, Ravivar Peth, Near Karur Vysya Bank, Belagavi (Belgaum), Karnataka 590001, India",
    "VenueCode": "CHGV",
    "VenueName": "Chitra Talkies: Belagavi"
  },
  "CHTM": {
    "AvailableFormats": "2D",
    "City": "Chhibramau",
    "Latitude": "27.1475",
    "Longitude": "79.5114",
    "RegionCode": "CHHI",
    "State": "Uttar Pradesh",
    "SubRegionCode": "CHHI",
    "VenueAddress": "100 Bed Hospital Road, Kannauj, Behind Janta Cold, Chhibramau, Uttar Pradesh 209721, India",
    "VenueCode": "CHTM",
    "VenueName": "Chhotu Maharaj: Chhibramau, UP"
  },
  "CIKO": {
    "AvailableFormats": "2D",
    "City": "Kodakara",
    "Latitude": "10.3734",
    "Longitude": "76.3065",
    "RegionCode": "THSR",
    "State": "Kerala",
    "SubRegionCode": "THSR",
    "VenueAddress": "98F4+9H8, Vellikulangara Road, Kodakara, Kerala 680684, India",
    "VenueCode": "CIKO",
    "VenueName": "City Shivadam RGB 4K Laser 3D: Kodakara"
  },
  "CJJB": {
    "AvailableFormats": "",
    "City": "Jabalpur",
    "FirstTracked": "2026-07-14",
    "Latitude": "23.2455",
    "Longitude": "79.881",
    "RegionCode": "JABL",
    "State": "Madhya Pradesh",
    "SubRegionCode": "JABL",
    "VenueAddress": "Servay no 14 Gram Magela Road, Post Gram Surtalai Tehsil Panagar, Jabalpur, Madhya Pradesh 482002, India",
    "VenueCode": "CJJB",
    "VenueName": "Chhotu Maharaj Cine Cafe: Jabalpur, MP"
  },
  "CLCU": {
    "AvailableFormats": "2D",
    "City": "Umred",
    "Latitude": "20.8595",
    "Longitude": "79.3164",
    "RegionCode": "UMRD",
    "State": "Maharashtra",
    "SubRegionCode": "UMRD",
    "VenueAddress": "Kawarapeth, Gangapur, Umred, Maharashtra 441203, India",
    "VenueCode": "CLCU",
    "VenueName": "Balaji Multiplex: Umred"
  },
  "CLMK": {
    "AvailableFormats": "2D|3D",
    "City": "Kolkata",
    "Latitude": "22.5167",
    "Longitude": "88.3489",
    "RegionCode": "KOLK",
    "State": "West Bengal",
    "SubRegionCode": "KOLK",
    "VenueAddress": "5th Floor Lake mall, Rash behari Avenue Road, 104- Rashbehari Avenue, Kolkata, West Bengal 700026, India",
    "VenueCode": "CLMK",
    "VenueName": "Cinepolis: Lake Mall, Kolkata"
  },
  "CMBW": {
    "AvailableFormats": "",
    "City": "Bankura",
    "FirstTracked": "2026-07-14",
    "Latitude": "23.2527",
    "Longitude": "87.0263",
    "RegionCode": "BNKU",
    "State": "West Bengal",
    "SubRegionCode": "BNKU",
    "VenueAddress": "Salboni Village, Bankura-Chhatna Road, Bankura, West Bengal 722102, India",
    "VenueCode": "CMBW",
    "VenueName": "Chhotu Maharaj: Bankura, WB"
  },
  "CMLO": {
    "AvailableFormats": "2D",
    "City": "Cherpulassery",
    "Latitude": "10.8796",
    "Longitude": "76.3103",
    "RegionCode": "CHER",
    "State": "Kerala",
    "SubRegionCode": "CHER",
    "VenueAddress": "Pattambi - Cherpulassery Road, Behind BSNL Exchange, Cherpulassery, Kerala 679503, India",
    "VenueCode": "CMLO",
    "VenueName": "Magic Frames Devi Cinemas: Cherpulassery"
  },
  "CMMX": {
    "AvailableFormats": "2D",
    "City": "Lakhimpur Kheri",
    "Latitude": "27.946",
    "Longitude": "80.2186",
    "RegionCode": "LKPK",
    "State": "Uttar Pradesh",
    "SubRegionCode": "LKPK",
    "VenueAddress": "Shiv Sagar Cineplex and Cafe. 2.Gata no.536, Ishlamabad, (Gureaila Chauraha Se Ramlila Maidan Road), Mohammadi, Lakhimpur Kheri, Uttar Pradesh 262804, India",
    "VenueCode": "CMMX",
    "VenueName": "Chhotu Maharaj Cine Cafe: Mohammadi, Kheri"
  },
  "CMUA": {
    "AvailableFormats": "",
    "City": "Howrah",
    "FirstTracked": "2026-07-14",
    "Latitude": "22.4874",
    "Longitude": "88.1111",
    "RegionCode": "HWRH",
    "State": "West Bengal",
    "SubRegionCode": "HWRH",
    "VenueAddress": "National Highway 16, Avarland, Uluberia, Near Coffee House Classic, Howrah, West Bengal 711316, India",
    "VenueCode": "CMUA",
    "VenueName": "Chhotu Maharaj: Uluberia, Howrah"
  },
  "CMXS": {
    "AvailableFormats": "2D",
    "City": "Dabhara",
    "Latitude": "21.7876",
    "Longitude": "82.9951",
    "RegionCode": "DABH",
    "State": "Chhattisgarh",
    "SubRegionCode": "DABH",
    "VenueAddress": "Bhagat Shopping Mall, Chhapora to Dabhara Main Road, Malkharoda, Dabhara, Chhattisgarh 495691, India",
    "VenueCode": "CMXS",
    "VenueName": "Chandra Multiplex Cinema: Dabhara"
  },
  "CNED": {
    "AvailableFormats": "2D|3D",
    "City": "Bhubaneswar",
    "Latitude": "20.2912",
    "Longitude": "85.8558",
    "RegionCode": "JATN",
    "State": "Odisha",
    "SubRegionCode": "JATN",
    "VenueAddress": "Esplanade One, Rasulgarh Industrial Estate, Industrial Area Estate, Rasulgarh, Bhubaneswar, Odisha 751007, India",
    "VenueCode": "CNED",
    "VenueName": "Cinepolis: Nexus Esplanade, Bhubaneswar"
  },
  "CNPE": {
    "AvailableFormats": "2D",
    "City": "Vadodara",
    "Latitude": "22.3105",
    "Longitude": "73.1589",
    "RegionCode": "VAD",
    "State": "Gujarat",
    "SubRegionCode": "VAD",
    "VenueAddress": "Cine Mall, 50, Race Course Road, Alkapuri, Near Natubhai Circle, Race Course, Vadodara, Gujarat 390007, India",
    "VenueCode": "CNPE",
    "VenueName": "Cineprime Cinema: Cinemall, Vadodara"
  },
  "CNTD": {
    "AvailableFormats": "2D",
    "City": "Tadepalligudem",
    "Latitude": "16.8194",
    "Longitude": "81.524",
    "RegionCode": "TADP",
    "State": "Andhra Pradesh",
    "SubRegionCode": "TADP",
    "VenueAddress": "Housing Board Colony, Sasi College Road, Tadepalligudem, Andhra Pradesh 534101, India",
    "VenueCode": "CNTD",
    "VenueName": "Connplex Cinemas (Signature): Sri Sri"
  },
  "CONN": {
    "AvailableFormats": "2D",
    "City": "Balotra",
    "Latitude": "25.7975",
    "Longitude": "72.1624",
    "RegionCode": "BALO",
    "State": "Rajasthan",
    "SubRegionCode": "BALO",
    "VenueAddress": "2nd Floor, Naresha Palace, Raj Resort, Nakoda Road, Near Rajendra Dham, Balotra, Rajasthan 344024, India",
    "VenueCode": "CONN",
    "VenueName": "Connplex Cinemas: Balotra"
  },
  "CPAR": {
    "AvailableFormats": "2D|3D",
    "City": "Pune",
    "Latitude": "18.4631",
    "Longitude": "73.8168",
    "RegionCode": "PUNE",
    "State": "Maharashtra",
    "SubRegionCode": "PUNE",
    "VenueAddress": "Near Flyover, Sinhagad Road, Vadgaon Budruk, Pune, Maharashtra 411041, India",
    "VenueCode": "CPAR",
    "VenueName": "Abhiruchi City Pride: Sinhagad Road"
  },
  "CPEM": {
    "AvailableFormats": "2D",
    "City": "Ahmedabad",
    "Latitude": "23.0233",
    "Longitude": "72.5682",
    "RegionCode": "AHD",
    "State": "Gujarat",
    "SubRegionCode": "AHD",
    "VenueAddress": "The Orient Club, Near - Gujarat College, Ahmedabad, Gujarat 380006, India",
    "VenueCode": "CPEM",
    "VenueName": "City Pulse: Orient Miniplex, Ellisbridge"
  },
  "CPKJ": {
    "AvailableFormats": "",
    "City": "Keonjhar",
    "FirstTracked": "2026-07-14",
    "Latitude": "21.63116",
    "Longitude": "85.60185",
    "RegionCode": "KNJH",
    "State": "Odisha",
    "SubRegionCode": "KNJH",
    "VenueAddress": "Cineplexx, Old Tarini Chhabighar, Hospital Road, Keonjhar, Odisha 758001, India",
    "VenueCode": "CPKJ",
    "VenueName": "Cineplexx: Keonjhar"
  },
  "CPMJ": {
    "AvailableFormats": "2D",
    "City": "Jagdalpur",
    "Latitude": "19.0887",
    "Longitude": "82.0118",
    "RegionCode": "JAGD",
    "State": "Chhattisgarh",
    "SubRegionCode": "JAGD",
    "VenueAddress": "Binaka Mall, Chitrakote Road, Jagdalpur, Chhattisgarh 493773, India",
    "VenueCode": "CPMJ",
    "VenueName": "Cine Plus Multiplex: Jagdalpur"
  },
  "CPPD": {
    "AvailableFormats": "2D",
    "City": "Proddatur",
    "Latitude": "14.7472",
    "Longitude": "78.5579",
    "RegionCode": "PROD",
    "State": "Andhra Pradesh",
    "SubRegionCode": "PROD",
    "VenueAddress": "Srinivasa Nagar, Opposite Arabian Hotel, Near S.K.C.V.S High School, Proddatur, Andhra Pradesh 516360, India",
    "VenueCode": "CPPD",
    "VenueName": "Chand Picture Palace A/C DTS: Proddatur"
  },
  "CPUM": {
    "AvailableFormats": "2D|3D",
    "City": "Delhi",
    "Latitude": "28.7149",
    "Longitude": "77.1164",
    "RegionCode": "NCR",
    "State": "NCR",
    "SubRegionCode": "DELHI",
    "VenueAddress": "Unity One Rohini, Bhagawan Mahavir Marg, Rohini West Metro Station, Sector 10, Rohini, Delhi, NCR 110085, India",
    "VenueCode": "CPUM",
    "VenueName": "Cinepolis: Unity One Mall Rohini, Delhi"
  },
  "CRHP": {
    "AvailableFormats": "",
    "City": "Shopian",
    "FirstTracked": "2026-07-14",
    "Latitude": "33.72005",
    "Longitude": "74.833595",
    "RegionCode": "SPHN",
    "State": "Jammu and Kashmir",
    "SubRegionCode": "SPHN",
    "VenueAddress": "Townhall Municipal Council Office, Near Town Hall Park, Shopian, Jammu and Kashmir 192303, India",
    "VenueCode": "CRHP",
    "VenueName": "Citara Cinemas: Shopian"
  },
  "CSCT": {
    "AvailableFormats": "2D",
    "City": "Tirupati",
    "Latitude": "13.6385",
    "Longitude": "79.4235",
    "RegionCode": "TIRU",
    "State": "Andhra Pradesh",
    "SubRegionCode": "TIRU",
    "VenueAddress": "RS Gardens, Leela Mahal Road, Tirupati, Andhra Pradesh 517501, India",
    "VenueCode": "CSCT",
    "VenueName": "CS Cinemas (Devendra Theater) A/C 4K Dolby Atmos"
  },
  "CSNC": {
    "AvailableFormats": "",
    "City": "Pileru",
    "FirstTracked": "2026-07-14",
    "Latitude": "13.657028",
    "Longitude": "78.9408",
    "RegionCode": "PLRU",
    "State": "Andhra Pradesh",
    "SubRegionCode": "PLRU",
    "VenueAddress": "National Highway 205, Near Vinayaka Temple, Pileru, Andhra Pradesh 517214, India",
    "VenueCode": "CSNC",
    "VenueName": "CSN Cinema (Shukur Picture Palace): Pileru"
  },
  "CSTM": {
    "AvailableFormats": "2D",
    "City": "Satana",
    "Latitude": "20.5959",
    "Longitude": "74.1976",
    "RegionCode": "STNA",
    "State": "Maharashtra",
    "SubRegionCode": "STNA",
    "VenueAddress": "Sonar Lane, Ambedkar Nagar, Satana, Maharashtra 423301, India",
    "VenueCode": "CSTM",
    "VenueName": "Chitra Cinema: Satana"
  },
  "CTEE": {
    "AvailableFormats": "3D|2D",
    "City": "Gurugram (Gurgaon)",
    "Latitude": "28.454",
    "Longitude": "76.9927",
    "RegionCode": "NCR",
    "State": "NCR",
    "SubRegionCode": "GURG",
    "VenueAddress": "The Esplanade Mall, Sector 37 C Road, Sector 37, Gurugram (Gurgaon), NCR 122001, India",
    "VenueCode": "CTEE",
    "VenueName": "Cinepolis: The Esplanade, Gurugram"
  },
  "CTMR": {
    "AvailableFormats": "2D",
    "City": "Muzaffarnagar",
    "Latitude": "29.4762",
    "Longitude": "77.6966",
    "RegionCode": "MUZ",
    "State": "Uttar Pradesh",
    "SubRegionCode": "MUZ",
    "VenueAddress": "NH 58, Civil Lines North, Muzaffarnagar, Uttar Pradesh 251001, India",
    "VenueCode": "CTMR",
    "VenueName": "Chandra Talkies: Muzaffarnagar"
  },
  "CTYB": {
    "AvailableFormats": "",
    "City": "Basna",
    "FirstTracked": "2026-07-14",
    "Latitude": "21.27868",
    "Longitude": "82.8222",
    "RegionCode": "BASN",
    "State": "Chhattisgarh",
    "SubRegionCode": "BASN",
    "VenueAddress": "Near Lady Hospital, National Highway 6, Basna, Chhattisgarh 493554, India",
    "VenueCode": "CTYB",
    "VenueName": "City Cinema: Basna"
  },
  "CVMN": {
    "AvailableFormats": "2D",
    "City": "Nadiad",
    "Latitude": "22.6918",
    "Longitude": "72.8631",
    "RegionCode": "NADI",
    "State": "Gujarat",
    "SubRegionCode": "NADI",
    "VenueAddress": "B/h D.P Desai Road, Dumral Bazar, Junaraopura, Near Krishna Hospital, Nadiad, Gujarat 387001, India",
    "VenueCode": "CVMN",
    "VenueName": "Coconut Virat Multiplex: Nadiad"
  },
  "CXBS": {
    "AvailableFormats": "2D",
    "City": "Bharuch",
    "Latitude": "21.719",
    "Longitude": "72.9784",
    "RegionCode": "BHAR",
    "State": "Gujarat",
    "SubRegionCode": "BHAR",
    "VenueAddress": "1st FloorShilpiMultiplex Building, ShilpiSquare, Dahej Bypass Road, Bharuch, Gujarat 392015, India",
    "VenueCode": "CXBS",
    "VenueName": "Connplex Cinemas: Bharuch Shilpi Square"
  },
  "CYCM": {
    "AvailableFormats": "2D",
    "City": "Ambajogai",
    "Latitude": "18.7127",
    "Longitude": "76.5414",
    "RegionCode": "AMBG",
    "State": "Maharashtra",
    "SubRegionCode": "AMBG",
    "VenueAddress": "Flat no. New Survey No. 16/7, House no 278/279, Karkhana Road, Dist Beed, Jogaiwadi, Ambajogai, Maharashtra 431517, India",
    "VenueCode": "CYCM",
    "VenueName": "Citara Satyam Cinema: Ambajogai"
  },
  "DBSC": {
    "AvailableFormats": "2D",
    "City": "Kanpur",
    "Latitude": "26.4526",
    "Longitude": "80.3501",
    "RegionCode": "KANP",
    "State": "Uttar Pradesh",
    "SubRegionCode": "KANP",
    "VenueAddress": "Delite Cinema, 562, Jaipuria Road, 1 No. Station, Rail Bazar, Mirpur Cantonment, Mirpur, Kanpur, Uttar Pradesh 208004, India",
    "VenueCode": "DBSC",
    "VenueName": "Delite Big Screen Cinema: Kanpur"
  },
  "DCDD": {
    "AvailableFormats": "",
    "City": "Dalmianagar",
    "FirstTracked": "2026-07-14",
    "Latitude": "24.914923",
    "Longitude": "84.18731",
    "RegionCode": "DAAL",
    "State": "Bihar",
    "SubRegionCode": "DAAL",
    "VenueAddress": "Near Suman Tea Centre, Dehri, Dalmianagar, Bihar 821305, India",
    "VenueCode": "DCDD",
    "VenueName": "Delight Cineplex: Dalmianagar"
  },
  "DCPC": {
    "AvailableFormats": "2D",
    "City": "Paonta Sahib",
    "Latitude": "30.4362",
    "Longitude": "77.5773",
    "RegionCode": "POTA",
    "State": "Himachal Pradesh",
    "SubRegionCode": "POTA",
    "VenueAddress": "Purwala - Bharli Road, Badripur, Pataliyon, Paonta Sahib, Himachal Pradesh 172025, India",
    "VenueCode": "DCPC",
    "VenueName": "Dhishoom Cinemas: Paonta Sahib"
  },
  "DDRX": {
    "AvailableFormats": "2D|3D",
    "City": "Bhopal",
    "Latitude": "23.2301",
    "Longitude": "77.4921",
    "RegionCode": "BHOP",
    "State": "Madhya Pradesh",
    "SubRegionCode": "BHOP",
    "VenueAddress": "4th Floor, Regal Civic Centre, Regal Town, Crystal Ideal City, Bhopal, Madhya Pradesh 462022, India",
    "VenueCode": "DDRX",
    "VenueName": "DDX Regal Cinema Awadhpuri: Bhopal"
  },
  "DESC": {
    "AvailableFormats": "2D",
    "City": "Wani",
    "Latitude": "20.0441",
    "Longitude": "78.9582",
    "RegionCode": "WANI",
    "State": "Maharashtra",
    "SubRegionCode": "WANI",
    "VenueAddress": "MIDC Road, Wani, Near Hanuman Temple, Wani, Maharashtra 445304, India",
    "VenueCode": "DESC",
    "VenueName": "Deepti Sky Cinex: Wani"
  },
  "DICD": {
    "AvailableFormats": "2D",
    "City": "Ahmedabad",
    "Latitude": "23.0484",
    "Longitude": "72.5289",
    "RegionCode": "AHD",
    "State": "Gujarat",
    "SubRegionCode": "AHD",
    "VenueAddress": "Drive-In Cinema, Drive In Road, Ahmedabad, Gujarat 380054, India",
    "VenueCode": "DICD",
    "VenueName": "Drive In Cinema: Ahmedabad"
  },
  "DLCS": {
    "AvailableFormats": "",
    "City": "Sujangarh",
    "FirstTracked": "2026-07-14",
    "Latitude": "27.709246",
    "Longitude": "74.46495",
    "RegionCode": "SJNG",
    "State": "Rajasthan",
    "SubRegionCode": "SJNG",
    "VenueAddress": "JB Marg, Opp to Jangir Hospital, Sujangarh, Rajasthan 331507, India",
    "VenueCode": "DLCS",
    "VenueName": "Dream Light Cinema: Sujangarh"
  },
  "DMPZ": {
    "AvailableFormats": "2D|3D",
    "City": "Kolkata",
    "Latitude": "22.6153",
    "Longitude": "88.4126",
    "RegionCode": "KOLK",
    "State": "West Bengal",
    "SubRegionCode": "KOLK",
    "VenueAddress": "Diamond City Mall,5 Floor, 68, Jessore Rd, Satgachi, Jagat Banerjee Ghat Road, Kolkata, West Bengal 700055, India",
    "VenueCode": "DMPZ",
    "VenueName": "PVR: Diamond Plaza, Jessore Kolkata"
  },
  "DPDC": {
    "AvailableFormats": "2D|3D",
    "City": "Delhi",
    "Latitude": "28.5412",
    "Longitude": "77.1552",
    "RegionCode": "NCR",
    "State": "NCR",
    "SubRegionCode": "DELHI",
    "VenueAddress": "Ambience Mall, Vasant Phase-2, Nelson Mandela Road, Vasant Kunj, Near Lifestyle Showroom, Delhi, NCR 110070, India",
    "VenueCode": "DPDC",
    "VenueName": "Delhi: PVR Director`s Cut, Ambience Mall"
  },
  "DRPV": {
    "AvailableFormats": "2D",
    "City": "kanchikacherla",
    "Latitude": "16.681",
    "Longitude": "80.3922",
    "RegionCode": "KNCH",
    "State": "Andhra Pradesh",
    "SubRegionCode": "KNCH",
    "VenueAddress": "D.No 13-191, Near IOC Bunk, NH65, kanchikacherla, Andhra Pradesh 521180, India",
    "VenueCode": "DRPV",
    "VenueName": "Dr. PV Rao Cineplex: Kanchikacherla"
  },
  "DTPT": {
    "AvailableFormats": "2D",
    "City": "Kanhangad",
    "Latitude": "12.3209",
    "Longitude": "75.0851",
    "RegionCode": "KKNN",
    "State": "Kerala",
    "SubRegionCode": "KKNN",
    "VenueAddress": "Deepthi Cinemas,Railway Station, Puthiyavalapu, Opposite Kanhangad, Kanhangad, Kerala 671315, India",
    "VenueCode": "DTPT",
    "VenueName": "Deepthi Cinemas A/c 2K Dolby Atmos: Kanhangad"
  },
  "DVDC": {
    "AvailableFormats": "2D",
    "City": "Delhi",
    "Latitude": "28.6418",
    "Longitude": "77.2335",
    "RegionCode": "NCR",
    "State": "NCR",
    "SubRegionCode": "DELHI",
    "VenueAddress": "Opp LNJP, Asaf Ali Road Darya Ganj, Near Delhi Stock Exchange, Delhi, NCR 110002, India",
    "VenueCode": "DVDC",
    "VenueName": "Delite Cinema: Asaf Ali Road"
  },
  "ECDG": {
    "AvailableFormats": "2D",
    "City": "Deoghar",
    "Latitude": "24.4907",
    "Longitude": "86.6915",
    "RegionCode": "DOGH",
    "State": "Jharkhand",
    "SubRegionCode": "DOGH",
    "VenueAddress": "Central Plaza Mall, Netaji Subhash Chandra Road, Above Big Bazar, Deoghar, Jharkhand 814112, India",
    "VenueCode": "ECDG",
    "VenueName": "Eylex Cinemas: Deoghar"
  },
  "EDSR": {
    "AvailableFormats": "2D",
    "City": "Sattenapalle",
    "Latitude": "16.3953",
    "Longitude": "80.142",
    "RegionCode": "SATL",
    "State": "Andhra Pradesh",
    "SubRegionCode": "SATL",
    "VenueAddress": "Narasaraopet Sattenapalli Road, Near Santhoshini Earth Movers, Sattenapalle, Andhra Pradesh 522403, India",
    "VenueCode": "EDSR",
    "VenueName": "Eswarsai 4K Dolby Atmos: Sattenapalle"
  },
  "EMAS": {
    "AvailableFormats": "",
    "City": "Kadapa",
    "FirstTracked": "2026-07-14",
    "Latitude": "14.473098",
    "Longitude": "78.82424",
    "RegionCode": "KDPA",
    "State": "Andhra Pradesh",
    "SubRegionCode": "KDPA",
    "VenueAddress": "Almaspet, Maria Puram, Kadapa, Andhra Pradesh 516001, India",
    "VenueCode": "EMAS",
    "VenueName": "SR Cinemas: Kadapa"
  },
  "EOSS": {
    "AvailableFormats": "",
    "City": "Seoni",
    "FirstTracked": "2026-07-14",
    "Latitude": "22.076456",
    "Longitude": "79.54089",
    "RegionCode": "SEON",
    "State": "Madhya Pradesh",
    "SubRegionCode": "SEON",
    "VenueAddress": "MP SH 26, Bhagat Singh Ward, Chhindwara Road, Near Apurva TVS Showroom, Seoni, Madhya Pradesh 480661, India",
    "VenueCode": "EOSS",
    "VenueName": "EOS Cinemas: Seoni"
  },
  "ESND": {
    "AvailableFormats": "",
    "City": "Nanded",
    "FirstTracked": "2026-07-14",
    "Latitude": "19.195044",
    "Longitude": "77.27949",
    "RegionCode": "NAND",
    "State": "Maharashtra",
    "SubRegionCode": "NAND",
    "VenueAddress": "Meera Arcade, 3rd Floor, Samarth Nagar, Canal Road, Near D-Mart, Nanded, Maharashtra 431605, India",
    "VenueCode": "ESND",
    "VenueName": "Bharat E-Square: Nanded"
  },
  "ETTR": {
    "AvailableFormats": "2D",
    "City": "Tirukoilur",
    "Latitude": "11.9683",
    "Longitude": "79.2055",
    "RegionCode": "TRKR",
    "State": "Tamil Nadu",
    "SubRegionCode": "TRKR",
    "VenueAddress": "SH 9, Thirukoilure, Near Government Hospital, Tirukoilur, Tamil Nadu 605757, India",
    "VenueCode": "ETTR",
    "VenueName": "Eshwari Thiraiarangam A/C 4K Dolby Atmos"
  },
  "EYLH": {
    "AvailableFormats": "2D",
    "City": "Ranchi",
    "Latitude": "23.3328",
    "Longitude": "85.3171",
    "RegionCode": "RANC",
    "State": "Jharkhand",
    "SubRegionCode": "RANC",
    "VenueAddress": "Hinoo Main Road, Shukla Colony,Opposite River View Restaurant, Ranchi, Jharkhand 834002, India",
    "VenueCode": "EYLH",
    "VenueName": "Eylex Cinemas: Hinoo"
  },
  "FCPA": {
    "AvailableFormats": "2D",
    "City": "Anand",
    "Latitude": "22.5527",
    "Longitude": "72.9444",
    "RegionCode": "AND",
    "State": "Gujarat",
    "SubRegionCode": "AND",
    "VenueAddress": "Theatre Road, Opp. Chinar Gulnar, Anand-Vidyanag Road, Near Hero Honda Showroom (S.S. Motors), Anand, Gujarat 388001, India",
    "VenueCode": "FCPA",
    "VenueName": "INOX Anand: City Pulse Mall"
  },
  "FMCB": {
    "AvailableFormats": "2D|3D",
    "City": "Bhagalpur",
    "Latitude": "25.2632",
    "Longitude": "87.0324",
    "RegionCode": "BHAG",
    "State": "Bihar",
    "SubRegionCode": "BHAG",
    "VenueAddress": "Near DAV School, Large Industrial Area, Barari, Bhagalpur, Bihar 812003, India",
    "VenueCode": "FMCB",
    "VenueName": "FM Cineplex: Bhagalpur"
  },
  "FMMA": {
    "AvailableFormats": "2D|MX4D|IMAX 2D|3D",
    "City": "Mumbai",
    "Latitude": "19.1725",
    "Longitude": "72.8355",
    "RegionCode": "MUMBAI",
    "State": "Maharashtra",
    "SubRegionCode": "MWEST",
    "VenueAddress": "Inorbit Mall, Goregaon Malad Link Road, Near Shoppers Stop, Malad West, Mumbai, Maharashtra 400064, India",
    "VenueCode": "FMMA",
    "VenueName": "INOX: Megaplex, Inorbit Mall, Malad"
  },
  "FNBH": {
    "AvailableFormats": "2D|3D",
    "City": "Bathinda",
    "Latitude": "30.2311",
    "Longitude": "74.9356",
    "RegionCode": "BHAT",
    "State": "Punjab",
    "SubRegionCode": "BHAT",
    "VenueAddress": "Goniana, Goniana Road, Bathinda, Punjab 132103, India",
    "VenueCode": "FNBH",
    "VenueName": "Cinepolis: Mittal City, Bathinda"
  },
  "FNKT": {
    "AvailableFormats": "2D|3D",
    "City": "Kota",
    "Latitude": "25.1384",
    "Longitude": "75.8554",
    "RegionCode": "KOTA",
    "State": "Rajasthan",
    "SubRegionCode": "KOTA",
    "VenueAddress": "City Mall, A,47, Indraprastha Industrial Area, Jhalawar Road, Kota, Rajasthan 324005, India",
    "VenueCode": "FNKT",
    "VenueName": "Fun Cinemas: City Mall, Kota"
  },
  "FRCJ": {
    "AvailableFormats": "2D",
    "City": "Jaipur",
    "Latitude": "26.8403",
    "Longitude": "75.7942",
    "RegionCode": "JAIP",
    "State": "Rajasthan",
    "SubRegionCode": "JAIP",
    "VenueAddress": "1, Ashram Marg, Tonk Road Junction, Tonk Road, Near First Cineplex Bus Stop, Jaipur, Rajasthan 302018, India",
    "VenueCode": "FRCJ",
    "VenueName": "First Cinema: Jaipur"
  },
  "FTDP": {
    "AvailableFormats": "2D",
    "City": "Pune",
    "Latitude": "18.6199",
    "Longitude": "73.8012",
    "RegionCode": "PUNE",
    "State": "Maharashtra",
    "SubRegionCode": "PUNE",
    "VenueAddress": "Deluxe Fortune Mall, Shastri Nagar, Pimpri Colony, Pimpri-Chinchwad, Pune, Maharashtra 411017, India",
    "VenueCode": "FTDP",
    "VenueName": "Funtime Deluxe: Pimpri, Pune"
  },
  "GAGJ": {
    "AvailableFormats": "2D",
    "City": "Gajapathinagaram",
    "Latitude": "18.284",
    "Longitude": "83.337",
    "RegionCode": "GJPT",
    "State": "Andhra Pradesh",
    "SubRegionCode": "GJPT",
    "VenueAddress": "Jayanthi Colony, Near Canara Bank, Gajapathinagaram, Andhra Pradesh 535270, India",
    "VenueCode": "GAGJ",
    "VenueName": "Gangaraju Kalamandhir Dolby7.1: Gajapathinagaram"
  },
  "GATR": {
    "AvailableFormats": "2D",
    "City": "Rajahmundry",
    "Latitude": "17.003",
    "Longitude": "81.775",
    "RegionCode": "RJMU",
    "State": "Andhra Pradesh",
    "SubRegionCode": "RJMU",
    "VenueAddress": "Syamalamba Temple Road, Mangalavaripeta, Near Sri Vinayaka Temple, Rajahmundry, Andhra Pradesh 533101, India",
    "VenueCode": "GATR",
    "VenueName": "Apsara Laser R.G.B 4K Dolby Atmos: Rajahmundry"
  },
  "GCBB": {
    "AvailableFormats": "2D",
    "City": "Barshi",
    "Latitude": "18.2463",
    "Longitude": "75.6966",
    "RegionCode": "BRHI",
    "State": "Maharashtra",
    "SubRegionCode": "BRHI",
    "VenueAddress": "M.P complex 1551/1/2CD, Near by Hiremath Hospital, Subhas Nagar, Agalgoan Road, Solapur, Barshi, Maharashtra 413401, India",
    "VenueCode": "GCBB",
    "VenueName": "Golden Cinemax: Barshi"
  },
  "GCDU": {
    "AvailableFormats": "",
    "City": "Diphu",
    "FirstTracked": "2026-07-14",
    "Latitude": "25.840408",
    "Longitude": "93.438065",
    "RegionCode": "DIPH",
    "State": "Assam",
    "SubRegionCode": "DIPH",
    "VenueAddress": "MG Road, Near Vishal Mega Mart, Diphu, Assam 782460, India",
    "VenueCode": "GCDU",
    "VenueName": "Galaxy Cinema: Diphu"
  },
  "GCKI": {
    "AvailableFormats": "2D",
    "City": "Kozhinjampara",
    "Latitude": "10.7343",
    "Longitude": "76.8349",
    "RegionCode": "KOZA",
    "State": "Kerala",
    "SubRegionCode": "KOZA",
    "VenueAddress": "Palakkad - Pollachi Road, Near Private Bus Stand, Kozhinjampara, Kerala 678555, India",
    "VenueCode": "GCKI",
    "VenueName": "Geetha Cinemax 2K 3D: Kozhinjampara"
  },
  "GCNG": {
    "AvailableFormats": "2D",
    "City": "Narnaul",
    "Latitude": "28.0542",
    "Longitude": "76.1023",
    "RegionCode": "NARN",
    "State": "Haryana",
    "SubRegionCode": "NARN",
    "VenueAddress": "Aggarwal Tower, Nizampur Road, Near Navjeevan Hospital, Narnaul, Haryana 123001, India",
    "VenueCode": "GCNG",
    "VenueName": "Gold Cinema: Narnaul"
  },
  "GCTG": {
    "AvailableFormats": "2D",
    "City": "Madurai",
    "Latitude": "9.9361",
    "Longitude": "78.0979",
    "RegionCode": "MADU",
    "State": "Tamil Nadu",
    "SubRegionCode": "MADU",
    "VenueAddress": "66/98, Velar Street, Manjalmattu Colony, Gnanavolivupuram, Arapalayam, City Bus Stop, Madurai, Tamil Nadu 625016, India",
    "VenueCode": "GCTG",
    "VenueName": "Guru Cinemas A/C RGB Laser 4K 3D: Madurai"
  },
  "GDCD": {
    "AvailableFormats": "2D",
    "City": "Mumbai",
    "Latitude": "19.0096",
    "Longitude": "72.8423",
    "RegionCode": "MUMBAI",
    "State": "Maharashtra",
    "SubRegionCode": "MCENT",
    "VenueAddress": "9/26, Kumar Fun and Shop, 2nd Floor, Dr. Babasaheb Ambedkar Road., Naigaon, Dadar (East), Mumbai, Maharashtra 400014, India",
    "VenueCode": "GDCD",
    "VenueName": "Gold Cinema: Dadar (E)"
  },
  "GDKH": {
    "AvailableFormats": "2D",
    "City": "Khopoli",
    "Latitude": "18.7884",
    "Longitude": "73.3403",
    "RegionCode": "KHOP",
    "State": "Maharashtra",
    "SubRegionCode": "KHOP",
    "VenueAddress": "Yashwant Tower, Laxminagar, Old Mumbai Pune Highway, Near Swanand Hotel, Khopoli, Maharashtra 410203, India",
    "VenueCode": "GDKH",
    "VenueName": "Gold Cinema: Khopoli"
  },
  "GEPL": {
    "AvailableFormats": "2D",
    "City": "Kakinada",
    "Latitude": "16.9703",
    "Longitude": "82.2374",
    "RegionCode": "KAKI",
    "State": "Andhra Pradesh",
    "SubRegionCode": "KAKI",
    "VenueAddress": "Bhanugudi Junction, Kondayya Palem, Kakinada, Andhra Pradesh 533003, India",
    "VenueCode": "GEPL",
    "VenueName": "GEPL Padmapriya Sripriya: Kakinada"
  },
  "GGMC": {
    "AvailableFormats": "2D",
    "City": "Hanumangarh",
    "Latitude": "29.6216",
    "Longitude": "74.2862",
    "RegionCode": "HNMG",
    "State": "Rajasthan",
    "SubRegionCode": "HNMG",
    "VenueAddress": "Rajasthan State, Shopat Singh Marg, Model Town, Hanumangarh, Rajasthan 335512, India",
    "VenueCode": "GGMC",
    "VenueName": "Prime Cinemas Shiv Mandir: Hanumangarh"
  },
  "GKCP": {
    "AvailableFormats": "2D|3D",
    "City": "Chennai",
    "Latitude": "13.0337",
    "Longitude": "80.1611",
    "RegionCode": "CHEN",
    "State": "Tamil Nadu",
    "SubRegionCode": "CHEN",
    "VenueAddress": "No 93, Lakshmi Nagar, Near Madurai Kannappar Mess, Chennai, Tamil Nadu 600116, India",
    "VenueCode": "GKCP",
    "VenueName": "GK Cinemas RGB + Laser SRL 4D: Porur"
  },
  "GLOB": {
    "AvailableFormats": "3D|2D",
    "City": "Belagavi (Belgaum)",
    "Latitude": "15.8516",
    "Longitude": "74.5054",
    "RegionCode": "BELG",
    "State": "Karnataka",
    "SubRegionCode": "BELG",
    "VenueAddress": "Camp Area, Khanapur Road, Opposite Hotel Pranaam, Belagavi (Belgaum), Karnataka 590001, India",
    "VenueCode": "GLOB",
    "VenueName": "Globe Cinemas: Camp Area"
  },
  "GNHB": {
    "AvailableFormats": "",
    "City": "Hyderabad",
    "FirstTracked": "2026-07-14",
    "Latitude": "17.264734",
    "Longitude": "78.38983",
    "RegionCode": "AUSH",
    "State": "Telangana",
    "SubRegionCode": "AUSH",
    "VenueAddress": "R.B. Nagar, Beside RGI Airport Police Station, Hyderabad, Telangana 501218, India",
    "VenueCode": "GNHB",
    "VenueName": "Ganesh 70MM: Shamshabad"
  },
  "GPBG": {
    "AvailableFormats": "",
    "City": "Bhogapuram",
    "FirstTracked": "2026-07-14",
    "Latitude": "18.030613",
    "Longitude": "83.495995",
    "RegionCode": "BHOG",
    "State": "Andhra Pradesh",
    "SubRegionCode": "BHOG",
    "VenueAddress": "Chennai - Kolkata Highway, Market Road, Bhogapuram, Andhra Pradesh 535216, India",
    "VenueCode": "GPBG",
    "VenueName": "Gopalakrishna Theatre: Bhogapuram"
  },
  "GPSM": {
    "AvailableFormats": "2D",
    "City": "Bengaluru",
    "Latitude": "12.9933",
    "Longitude": "77.6621",
    "RegionCode": "HOKT",
    "State": "Karnataka",
    "SubRegionCode": "HOKT",
    "VenueAddress": "4th Floor, Gopalan Signature Mall, Old Madras Road, Rajana Colony, C V Raman Nagar, Bengaluru, Karnataka 560093, India",
    "VenueCode": "GPSM",
    "VenueName": "Gopalan Miniplex: Signature Mall, Old Madras Road"
  },
  "GRTC": {
    "AvailableFormats": "2D",
    "City": "Chennai",
    "Latitude": "13.0039",
    "Longitude": "80.2563",
    "RegionCode": "CHEN",
    "State": "Tamil Nadu",
    "SubRegionCode": "CHEN",
    "VenueAddress": "101 Lattice Bridge Road, Adyar, Kamaraj Nagar 1st Cross St, Chennai, Tamil Nadu 600020, India",
    "VenueCode": "GRTC",
    "VenueName": "GanapathyRam Theatre 4K Dolby 7.1: Chennai"
  },
  "GTCM": {
    "AvailableFormats": "",
    "City": "Mahishadal",
    "FirstTracked": "2026-07-14",
    "Latitude": "22.1883",
    "Longitude": "87.98797",
    "RegionCode": "MMAI",
    "State": "West Bengal",
    "SubRegionCode": "MMAI",
    "VenueAddress": "Haldia Mechada via Tamluk, Garh Kamalpur, Near Tamluk Ghatal Central Co-operative Bank, Mahishadal, West Bengal 721628, India",
    "VenueCode": "GTCM",
    "VenueName": "Gita Cinema: Mahishadal"
  },
  "GTSG": {
    "AvailableFormats": "2D",
    "City": "Gudivada",
    "Latitude": "16.4378",
    "Longitude": "80.9924",
    "RegionCode": "GUDI",
    "State": "Andhra Pradesh",
    "SubRegionCode": "GUDI",
    "VenueAddress": "D.No 11-235, Eluru Road, Gudivada, Andhra Pradesh 521301, India",
    "VenueCode": "GTSG",
    "VenueName": "G3 Theatres Sindhura: Gudivada"
  },
  "GTYT": {
    "AvailableFormats": "2D",
    "City": "Bengaluru",
    "Latitude": "13.1006",
    "Longitude": "77.5871",
    "RegionCode": "HOKT",
    "State": "Karnataka",
    "SubRegionCode": "HOKT",
    "VenueAddress": "A Centre, Yelahanka New Town, Behind Sheshadripuram First Grade College, Bengaluru, Karnataka 560064, India",
    "VenueCode": "GTYT",
    "VenueName": "Ganesh Digital 2K Cinema: Yelahanka New Town"
  },
  "HAMD": {
    "AvailableFormats": "2D",
    "City": "Ahmedabad",
    "Latitude": "23.0464",
    "Longitude": "72.5311",
    "RegionCode": "AHD",
    "State": "Gujarat",
    "SubRegionCode": "AHD",
    "VenueAddress": "1A, Himalaya Mall Drive In Road,Gurukul Road, Memnagar, Ahmedabad, Gujarat 380052, India",
    "VenueCode": "HAMD",
    "VenueName": "INOX: Himalaya Mall, Drive In Road, Ahmedabad"
  },
  "HDCN": {
    "AvailableFormats": "",
    "City": "Dimapur",
    "FirstTracked": "2026-07-14",
    "Latitude": "25.910013",
    "Longitude": "93.726585",
    "RegionCode": "DMPR",
    "State": "Nagaland",
    "SubRegionCode": "DMPR",
    "VenueAddress": "Deluxe Point, Anwar Hussain Road, Opposite of Muslim Burial Ground, Dimapur, Nagaland 797112, India",
    "VenueCode": "HDCN",
    "VenueName": "Hillstar Digital Cinema: Dimapur"
  },
  "HHJM": {
    "AvailableFormats": "",
    "City": "Jammikunta",
    "FirstTracked": "2026-07-14",
    "Latitude": "18.285854",
    "Longitude": "79.47386",
    "RegionCode": "JMKN",
    "State": "Telangana",
    "SubRegionCode": "JMKN",
    "VenueAddress": "Huzurabad - Jammikunta Road, Near Jammikunta Railway Flyover Bridge, Jammikunta, Telangana 505122, India",
    "VenueCode": "HHJM",
    "VenueName": "Hari Hara Talkies: Jammikunta"
  },
  "HPVR": {
    "AvailableFormats": "2D|3D",
    "City": "Thane",
    "Latitude": "19.3",
    "Longitude": "73.0649",
    "RegionCode": "MUMBAI",
    "State": "Maharashtra",
    "SubRegionCode": "THNE",
    "VenueAddress": "Kaap Islanpura, Agra Road, Gokul Nagar, Near Bhiwandi Court, Bhiwandi, Thane, Maharashtra 421302, India",
    "VenueCode": "HPVR",
    "VenueName": "PVR: Haseen, Bhiwandi"
  },
  "IAET": {
    "AvailableFormats": "2D",
    "City": "Baraut",
    "Latitude": "29.1011",
    "Longitude": "77.2744",
    "RegionCode": "BARL",
    "State": "Uttar Pradesh",
    "SubRegionCode": "BARL",
    "VenueAddress": "Binoli Road, Near Vishnu Palace, Baraut, Uttar Pradesh 250611, India",
    "VenueCode": "IAET",
    "VenueName": "Imusica Entertainment: Baraut"
  },
  "IEFM": {
    "AvailableFormats": "3D|2D",
    "City": "Faridabad",
    "Latitude": "28.4076",
    "Longitude": "77.3101",
    "RegionCode": "NCR",
    "State": "NCR",
    "SubRegionCode": "FARI",
    "VenueAddress": "EROS EF3 Mall 3rd Floor, Sector 20 - A, Mathura Road, Faridabad, NCR 121001, India",
    "VenueCode": "IEFM",
    "VenueName": "INOX: EF3 Mall, Faridabad"
  },
  "ILUM": {
    "AvailableFormats": "3D|2D",
    "City": "Lucknow",
    "Latitude": "26.8713",
    "Longitude": "80.9584",
    "RegionCode": "LUCK",
    "State": "Uttar Pradesh",
    "SubRegionCode": "LUCK",
    "VenueAddress": "INOX Leisure LTD, 2nd Floor, Umrao Mall, Mahanagar, Near Badshah Nagar Metro Station, Lucknow, Uttar Pradesh 226006, India",
    "VenueCode": "ILUM",
    "VenueName": "INOX: Umrao Mall, Mahanagar"
  },
  "IMMO": {
    "AvailableFormats": "2D|2D SCREEN X",
    "City": "Bengaluru",
    "Latitude": "13.0702",
    "Longitude": "77.5924",
    "RegionCode": "BANG",
    "State": "Karnataka",
    "SubRegionCode": "BANG",
    "VenueAddress": "239/240, Byatarayanapura, Yelahanka Taluk, Bellary Road, Bengaluru, Karnataka 560092, India",
    "VenueCode": "IMMO",
    "VenueName": "INOX: Megaplex Mall of Asia Bangalore"
  },
  "INAM": {
    "AvailableFormats": "3D|2D",
    "City": "Kota",
    "Latitude": "25.1619",
    "Longitude": "75.8635",
    "RegionCode": "KOTA",
    "State": "Rajasthan",
    "SubRegionCode": "KOTA",
    "VenueAddress": "Kota Ahluwalias Great Mall, DCM Road, Ramchandrapura, Dhanmandi, Kota, Rajasthan 324005, India",
    "VenueCode": "INAM",
    "VenueName": "INOX: Ahluwalias Great Mall, Kota"
  },
  "INBP": {
    "AvailableFormats": "2D|3D",
    "City": "Patna",
    "Latitude": "25.6175",
    "Longitude": "85.1352",
    "RegionCode": "PATN",
    "State": "Bihar",
    "SubRegionCode": "PATN",
    "VenueAddress": "3rd Floor, City Centre Mall, Lodipur, Patna, Bihar 800001, India",
    "VenueCode": "INBP",
    "VenueName": "INOX: City Centre Mall, Patna"
  },
  "INEM": {
    "AvailableFormats": "2D",
    "City": "Jaipur",
    "Latitude": "26.8954",
    "Longitude": "75.7486",
    "RegionCode": "JAIP",
    "State": "Rajasthan",
    "SubRegionCode": "JAIP",
    "VenueAddress": "3rd Floor, Elements Mall, Ajmer Road, Mahatma Gandhi Nagar, Jaipur, Rajasthan 302021, India",
    "VenueCode": "INEM",
    "VenueName": "INOX: Elements Mall, Ajmer Road"
  },
  "INHY": {
    "AvailableFormats": "2D",
    "City": "Hyderabad",
    "Latitude": "17.4196",
    "Longitude": "78.4486",
    "RegionCode": "HYD",
    "State": "Telangana",
    "SubRegionCode": "HYD",
    "VenueAddress": "4th Floor, GVK One Mall, Road No.1, Banjara Hills, Opposite Hyatt Place, Hyderabad, Telangana 500034, India",
    "VenueCode": "INHY",
    "VenueName": "INOX GVK One, Banjara Hills: Hyderabad"
  },
  "INMG": {
    "AvailableFormats": "2D|3D",
    "City": "Goa",
    "Latitude": "15.2848",
    "Longitude": "73.9576",
    "RegionCode": "GOA",
    "State": "Goa",
    "SubRegionCode": "GOA",
    "VenueAddress": "G Wing, Osia Commercial Arcade, SGPDA Market Complex, Goa, Goa 403601, India",
    "VenueCode": "INMG",
    "VenueName": "INOX: Osia G Wing Margao, Goa"
  },
  "INOM": {
    "AvailableFormats": "2D",
    "City": "Salem",
    "Latitude": "11.6745",
    "Longitude": "78.1326",
    "RegionCode": "SALM",
    "State": "Tamil Nadu",
    "SubRegionCode": "SALM",
    "VenueAddress": "1st Floor, Reliance Mall, Five Roads Junction, Meyyanur, Salem, Tamil Nadu 636004, India",
    "VenueCode": "INOM",
    "VenueName": "INOX: Reliance Mall, Salem"
  },
  "INQM": {
    "AvailableFormats": "2D|3D",
    "City": "Kolkata",
    "Latitude": "22.5393",
    "Longitude": "88.3657",
    "RegionCode": "BARR",
    "State": "West Bengal",
    "SubRegionCode": "BARR",
    "VenueAddress": "4th Floor,Quest Mall, Syed Amir Ali Avenue, Opposite Our Lady Queen Of The Missions School, Kolkata, West Bengal 700017, India",
    "VenueCode": "INQM",
    "VenueName": "INOX: Quest Mall"
  },
  "INSC": {
    "AvailableFormats": "2D|3D",
    "City": "Thrissur",
    "Latitude": "10.5504",
    "Longitude": "76.1838",
    "RegionCode": "MANR",
    "State": "Kerala",
    "SubRegionCode": "MANR",
    "VenueAddress": "INOX Leisure Ltd, 2nd Floor, Sobha City Mall, Puzhakkal, Thrissur, Kerala 680553, India",
    "VenueCode": "INSC",
    "VenueName": "INOX: Sobha City Mall"
  },
  "INTN": {
    "AvailableFormats": "3D|2D",
    "City": "Patna",
    "Latitude": "25.6057",
    "Longitude": "85.1337",
    "RegionCode": "PATN",
    "State": "Bihar",
    "SubRegionCode": "PATN",
    "VenueAddress": "PVR INOX Limited, KP Mall, 4th Floor, Budha Marg, Patna, Bihar 800001, India",
    "VenueCode": "INTN",
    "VenueName": "INOX: Ashok, Patna"
  },
  "INVP": {
    "AvailableFormats": "2D",
    "City": "Vijayawada",
    "Latitude": "16.5026",
    "Longitude": "80.6599",
    "RegionCode": "KADU",
    "State": "Andhra Pradesh",
    "SubRegionCode": "KADU",
    "VenueAddress": "3rd Floor, LEPL Icon, RTC Colony, Benz Circle, Patamata, Near Maris Stella College, Vijayawada, Andhra Pradesh 520010, India",
    "VenueCode": "INVP",
    "VenueName": "INOX: LEPL Icon, Patamata"
  },
  "IOCP": {
    "AvailableFormats": "2D|3D",
    "City": "Delhi",
    "Latitude": "28.6343",
    "Longitude": "77.2211",
    "RegionCode": "NCR",
    "State": "NCR",
    "SubRegionCode": "DELHI",
    "VenueAddress": "INOX Leisure Limited, Delhi Odeon, 2nd Floor, Odeon Cinema Complex, D-Block, Connaught Place, Delhi, NCR 110001, India",
    "VenueCode": "IOCP",
    "VenueName": "INOX: Odeon, Connaught Place"
  },
  "IPGM": {
    "AvailableFormats": "2D|3D",
    "City": "Dhanbad",
    "Latitude": "23.8292",
    "Longitude": "86.4333",
    "RegionCode": "DHAN",
    "State": "Jharkhand",
    "SubRegionCode": "DHAN",
    "VenueAddress": "3rd Floor, Prabhatam Grand Mall, Nagnagar, Barwadda, Dhaiya, Dhanbad, Jharkhand 826004, India",
    "VenueCode": "IPGM",
    "VenueName": "INOX: Prabhatam Grand Mall, Dhanbad"
  },
  "IRMR": {
    "AvailableFormats": "2D|3D",
    "City": "Rajkot",
    "Latitude": "22.2794",
    "Longitude": "70.7769",
    "RegionCode": "RAJK",
    "State": "Gujarat",
    "SubRegionCode": "RAJK",
    "VenueAddress": "INOX Leisure Ltd., 2nd Floor, Reliance Mall, 150 Feet Ring Road, Near Nana Mauva Circle, Rajkot, Gujarat 360005, India",
    "VenueCode": "IRMR",
    "VenueName": "INOX: Reliance Mega Mall, Rajkot"
  },
  "IUBS": {
    "AvailableFormats": "2D|3D",
    "City": "Udaipur",
    "Latitude": "24.6321",
    "Longitude": "73.7126",
    "RegionCode": "UDAI",
    "State": "Rajasthan",
    "SubRegionCode": "UDAI",
    "VenueAddress": "PVR INOX LTD, 3rd Floor Urban Square Mall, Plot No. F - 210 to 223, Udyog Vihar, Gaurav Path, RIICO Industrial Area, Sukher, Udaipur, Rajasthan 313001, India",
    "VenueCode": "IUBS",
    "VenueName": "INOX: Urban Square Mall, Udaipur"
  },
  "JAGG": {
    "AvailableFormats": "2D",
    "City": "Guna",
    "Latitude": "24.6499",
    "Longitude": "77.3141",
    "RegionCode": "GUNA",
    "State": "Madhya Pradesh",
    "SubRegionCode": "GUNA",
    "VenueAddress": "Karnal Ganj, Haat Road, Piproda Khurd, Guna, Madhya Pradesh 473001, India",
    "VenueCode": "JAGG",
    "VenueName": "Jagat Talkies: Guna"
  },
  "JCCZ": {
    "AvailableFormats": "2D",
    "City": "Forbesganj",
    "Latitude": "26.3014",
    "Longitude": "87.2607",
    "RegionCode": "FORB",
    "State": "Bihar",
    "SubRegionCode": "FORB",
    "VenueAddress": "Ram Manohar Lohiya Road, Hospital Road, Near India Breakfast Shop, Forbesganj, Bihar 854318, India",
    "VenueCode": "JCCZ",
    "VenueName": "Jyoti Cinema: Forbesganj"
  },
  "JCVM": {
    "AvailableFormats": "2D",
    "City": "Villupuram",
    "Latitude": "11.9412",
    "Longitude": "79.4939",
    "RegionCode": "VILL",
    "State": "Tamil Nadu",
    "SubRegionCode": "VILL",
    "VenueAddress": "716, Nehruji Road,Villupuram, Mandhakarai, Villupuram, Tamil Nadu 605602, India",
    "VenueCode": "JCVM",
    "VenueName": "Janas Cinemas: Maghalakshmi Plaazaa Villupuram"
  },
  "JHCJ": {
    "AvailableFormats": "2D",
    "City": "Jagdalpur",
    "Latitude": "19.0847",
    "Longitude": "82.0287",
    "RegionCode": "JAGD",
    "State": "Chhattisgarh",
    "SubRegionCode": "JAGD",
    "VenueAddress": "Balaji Ward, Suncity, Near Bank Of Baroda, Jagdalpur, Chhattisgarh 494001, India",
    "VenueCode": "JHCJ",
    "VenueName": "Jhankar Cinema: Jagdalpur"
  },
  "JKCT": {
    "AvailableFormats": "2D",
    "City": "Thrissur",
    "Latitude": "10.4195",
    "Longitude": "76.106",
    "RegionCode": "THAI",
    "State": "Kerala",
    "SubRegionCode": "THAI",
    "VenueAddress": "Ground Floor,Dheehini Shopping Complex, Nattika,Thriprayar, Near Sree Narayana Hall, Thrissur, Kerala 680566, India",
    "VenueCode": "JKCT",
    "VenueName": "JK Cinemas 4K Dolby Atmos: Thriprayar"
  },
  "JMJU": {
    "AvailableFormats": "2D",
    "City": "Jammu",
    "Latitude": "32.6993",
    "Longitude": "74.8583",
    "RegionCode": "JAMM",
    "State": "Jammu and Kashmir",
    "SubRegionCode": "JAMM",
    "VenueAddress": "Gandhi Nagar, Apsara Road, Jammu, Jammu and Kashmir 180004, India",
    "VenueCode": "JMJU",
    "VenueName": "Apsra Hospitality & Entertainment(Apsra Multiplex)"
  },
  "JRGF": {
    "AvailableFormats": "",
    "City": "Fatehpur(Rajasthan)",
    "FirstTracked": "2026-07-14",
    "Latitude": "27.98459",
    "Longitude": "74.95353",
    "RegionCode": "FATR",
    "State": "Rajasthan",
    "SubRegionCode": "FATR",
    "VenueAddress": "National Highway 11, Near to Gahlot Motors, Fatehpur(Rajasthan), Rajasthan 332301, India",
    "VenueCode": "JRGF",
    "VenueName": "JRG Movie Palace: Fatehpur"
  },
  "JTBP": {
    "AvailableFormats": "2D",
    "City": "Warangal",
    "Latitude": "18.000055",
    "Longitude": "79.588167",
    "RegionCode": "WAR",
    "State": "Telangana",
    "SubRegionCode": "WAR",
    "VenueAddress": "Hyderabad-Warangal-Bhopalpatnam Road, Rahamatnagar, Main Road, Warangal, Telangana 506003, India",
    "VenueCode": "JTBP",
    "VenueName": "Bhavani Picture Palace: Kazipet"
  },
  "JTLC": {
    "AvailableFormats": "2D",
    "City": "Chodavaram",
    "Latitude": "17.8299",
    "Longitude": "82.9374",
    "RegionCode": "CDVM",
    "State": "Andhra Pradesh",
    "SubRegionCode": "CDVM",
    "VenueAddress": "Gunisetti Vari Veedhi, Near Vinayak Temple Nowdu Veedhi, Chodavaram, Andhra Pradesh 531036, India",
    "VenueCode": "JTLC",
    "VenueName": "Lakshmi Theatre: Chodavaram"
  },
  "JTNP": {
    "AvailableFormats": "2D",
    "City": "Narsampet",
    "Latitude": "17.9291",
    "Longitude": "79.8887",
    "RegionCode": "NASP",
    "State": "Telangana",
    "SubRegionCode": "NASP",
    "VenueAddress": "Narsampet Main Road, Opposite State Bank Of India, Near Mee Seva Center, Narsampet, Telangana 506132, India",
    "VenueCode": "JTNP",
    "VenueName": "Jayasri Talkies: Narsampet"
  },
  "JTSB": {
    "AvailableFormats": "2D",
    "City": "Sathupally",
    "Latitude": "17.2113",
    "Longitude": "80.8334",
    "RegionCode": "SATH",
    "State": "Telangana",
    "SubRegionCode": "SATH",
    "VenueAddress": "Sathupally Main Road, Near State Bank of India, Sathupally, Telangana 507303, India",
    "VenueCode": "JTSB",
    "VenueName": "Sri Balaji Theater A/C Dts: Sathupally"
  },
  "JTTS": {
    "AvailableFormats": "2D",
    "City": "Sangareddy",
    "Latitude": "17.6148",
    "Longitude": "78.0788",
    "RegionCode": "SARE",
    "State": "Telangana",
    "SubRegionCode": "SARE",
    "VenueAddress": "2, Rajampet Road, Veerabhadranagar, Ahmed Nagar, Near Income Tax Office, Sangareddy, Telangana 502001, India",
    "VenueCode": "JTTS",
    "VenueName": "Rukmini Theatre: Sangareddy"
  },
  "JVTB": {
    "AvailableFormats": "2D",
    "City": "Bodinayakanur",
    "Latitude": "10.01",
    "Longitude": "77.3497",
    "RegionCode": "BODI",
    "State": "Tamil Nadu",
    "SubRegionCode": "BODI",
    "VenueAddress": "Ammankulam, Subanchetty Street, Near Pandyan Grama Bank, Bodinayakanur, Tamil Nadu 625513, India",
    "VenueCode": "JVTB",
    "VenueName": "Theatre Jivan: Bodi"
  },
  "KACI": {
    "AvailableFormats": "2D",
    "City": "Balurghat",
    "Latitude": "25.2256",
    "Longitude": "88.7754",
    "RegionCode": "BALU",
    "State": "West Bengal",
    "SubRegionCode": "BALU",
    "VenueAddress": "Chakbhabani, Near Head Post Office, Balurghat, West Bengal 733101, India",
    "VenueCode": "KACI",
    "VenueName": "Kalyani Balurghat(LaserProjector,5.1Digital Sound)"
  },
  "KASR": {
    "AvailableFormats": "2D",
    "City": "Sarni",
    "Latitude": "22.1044",
    "Longitude": "78.1665",
    "RegionCode": "SARN",
    "State": "Madhya Pradesh",
    "SubRegionCode": "SARN",
    "VenueAddress": "Near Nagar Palika, Sarni, Near Sami Bus Stand, Sarni, Madhya Pradesh 460447, India",
    "VenueCode": "KASR",
    "VenueName": "Kantishiva Cinemas: Sarni"
  },
  "KCAM": {
    "AvailableFormats": "",
    "City": "Nakodar",
    "FirstTracked": "2026-07-14",
    "Latitude": "31.119658",
    "Longitude": "75.509544",
    "RegionCode": "NAKO",
    "State": "Punjab",
    "SubRegionCode": "NAKO",
    "VenueAddress": "MDR48, Krishan Nagar, Nakodar - Nurmahal Road, Nakodar, Punjab 144040, India",
    "VenueCode": "KCAM",
    "VenueName": "KC Cineplex: Nakodar"
  },
  "KCMA": {
    "AvailableFormats": "2D|3D",
    "City": "Mumbai",
    "Latitude": "19.1879",
    "Longitude": "72.8475",
    "RegionCode": "MUMBAI",
    "State": "Maharashtra",
    "SubRegionCode": "MWEST",
    "VenueAddress": "Above Vasant Plaza Shopping Centre, Station Road, Opposite Natraj Market, Malad West, Mumbai, Maharashtra 400064, India",
    "VenueCode": "KCMA",
    "VenueName": "Kasturba Cinema (Newly Renovated): Malad"
  },
  "KCSR": {
    "AvailableFormats": "2D",
    "City": "Shrirampur",
    "Latitude": "19.6165",
    "Longitude": "74.6566",
    "RegionCode": "SHUR",
    "State": "Maharashtra",
    "SubRegionCode": "SHUR",
    "VenueAddress": "Kishor Cineplex, Shivaji Road, Shrirampur, Maharashtra 413709, India",
    "VenueCode": "KCSR",
    "VenueName": "Kishor Cineplex: Shrirampur"
  },
  "KDDF": {
    "AvailableFormats": "",
    "City": "Farrukhabad",
    "FirstTracked": "2026-07-14",
    "Latitude": "27.38537",
    "Longitude": "79.57575",
    "RegionCode": "FARU",
    "State": "Uttar Pradesh",
    "SubRegionCode": "FARU",
    "VenueAddress": "Rajeev Gandhi Nagar Road, Opposite to Entrance of Colony, Devrampur, Farrukhabad, Uttar Pradesh 209625, India",
    "VenueCode": "KDDF",
    "VenueName": "Krishna DD Cinema: Farrukhabad"
  },
  "KICM": {
    "AvailableFormats": "",
    "City": "Vizag",
    "FirstTracked": "2026-07-14",
    "Latitude": "17.73531",
    "Longitude": "83.31751",
    "RegionCode": "SABB",
    "State": "Andhra Pradesh",
    "SubRegionCode": "SABB",
    "VenueAddress": "D.No. 53-23-23, Beside Maddilapalem Bus Depot, Visakhapatnam, Vizag, Andhra Pradesh 530013, India",
    "VenueCode": "KICM",
    "VenueName": "Kinnera AC Laser 4K Projection 7.1Ultrasound:Vizag"
  },
  "KKMT": {
    "AvailableFormats": "2D",
    "City": "Navi Mumbai",
    "Latitude": "19.0124",
    "Longitude": "73.0897",
    "RegionCode": "MUMBAI",
    "State": "Maharashtra",
    "SubRegionCode": "THAN",
    "VenueAddress": "Shop No.01, Bhoomi Harmony, Plot No. 82, Sec-18, Kamothe, Panvel, Navi Mumbai, Maharashtra 410209, India",
    "VenueCode": "KKMT",
    "VenueName": "K.K. Cinema: Kamothe"
  },
  "KLRT": {
    "AvailableFormats": "2D",
    "City": "Palakkad",
    "Latitude": "10.7001",
    "Longitude": "76.7378",
    "RegionCode": "PLKK",
    "State": "Kerala",
    "SubRegionCode": "PLKK",
    "VenueAddress": "State Highway 25, Anikode, Chittur, Thathamangalam, Near Muthoottu Mini Financiers Ltd, Palakkad, Kerala 678101, India",
    "VenueCode": "KLRT",
    "VenueName": "Kairali Sree Theatre: Chittur"
  },
  "KMRM": {
    "AvailableFormats": "2D",
    "City": "Chennai",
    "Latitude": "12.9718",
    "Longitude": "80.1922",
    "RegionCode": "CHEN",
    "State": "Tamil Nadu",
    "SubRegionCode": "CHEN",
    "VenueAddress": "No 364, Mount - Madipakkam Road, Ullagaram, Puzhuthivakkam, Opposite to Muthoot Finance, Chennai, Tamil Nadu 600091, India",
    "VenueCode": "KMRM",
    "VenueName": "Kumaran Theatre PROVA 4K DOLBY ATMOS: Madipakkam"
  },
  "KPPB": {
    "AvailableFormats": "2D",
    "City": "Bahraich",
    "Latitude": "27.5715",
    "Longitude": "81.6027",
    "RegionCode": "BHRH",
    "State": "Uttar Pradesh",
    "SubRegionCode": "BHRH",
    "VenueAddress": "Kanoon Go Pura South, Brahmnipura, Near Disha Complex, Bahraich, Uttar Pradesh 271801, India",
    "VenueCode": "KPPB",
    "VenueName": "K Cinemas: Bahraich"
  },
  "KRIH": {
    "AvailableFormats": "2D",
    "City": "Rajnandgaon",
    "Latitude": "21.0942",
    "Longitude": "81.034",
    "RegionCode": "RAJA",
    "State": "Chhattisgarh",
    "SubRegionCode": "RAJA",
    "VenueAddress": "Cinema Lane, Near Manav Mandir Chowk, Rajnandgaon, Chhattisgarh 491441, India",
    "VenueCode": "KRIH",
    "VenueName": "Krishna Talkies: Rajnandgaon"
  },
  "KRVM": {
    "AvailableFormats": "2D",
    "City": "Kottayi",
    "Latitude": "10.7651",
    "Longitude": "76.5441",
    "RegionCode": "PLKK",
    "State": "Kerala",
    "SubRegionCode": "PLKK",
    "VenueAddress": "Mankara-Palakkad Road, Ayyappankaavu, Kottayi, Kerala 678572, India",
    "VenueCode": "KRVM",
    "VenueName": "KRV Movies: Kottayi"
  },
  "KSNT": {
    "AvailableFormats": "2D",
    "City": "Trivandrum",
    "Latitude": "8.48888",
    "Longitude": "76.9532",
    "RegionCode": "TRIV",
    "State": "Kerala",
    "SubRegionCode": "TRIV",
    "VenueAddress": "Aristo Junction, Thampanoor, Near Hotel Galaxy Park, Trivandrum, Kerala 695014, India",
    "VenueCode": "KSNT",
    "VenueName": "Kairali Sree Nila RGB Laser 4K Dolby Atmos"
  },
  "KTBH": {
    "AvailableFormats": "2D",
    "City": "Bhubaneswar",
    "Latitude": "20.2752",
    "Longitude": "85.8349",
    "RegionCode": "JATN",
    "State": "Odisha",
    "SubRegionCode": "JATN",
    "VenueAddress": "98, Unit-3, Sachivalaya Marg, OPTCL Colony, Anand Bazar, Kharbela Nagar, Bhubaneswar, Odisha 751001, India",
    "VenueCode": "KTBH",
    "VenueName": "Keshari Talkies (BARCO 4K LASER DOLBY ATMOS)"
  },
  "KTMV": {
    "AvailableFormats": "2D",
    "City": "Mumbai",
    "Latitude": "19.3785",
    "Longitude": "72.8287",
    "RegionCode": "MUMBAI",
    "State": "Maharashtra",
    "SubRegionCode": "MWEST",
    "VenueAddress": "Navghar Road, Anand Nagar, Opposite.West Panchal Nagar Walkway, Vasai West, Mumbai, Maharashtra 401202, India",
    "VenueCode": "KTMV",
    "VenueName": "KT Vision Cinema: Vasai (Screens)"
  },
  "KYBO": {
    "AvailableFormats": "",
    "City": "Bommidi",
    "FirstTracked": "2026-07-14",
    "Latitude": "11.979077",
    "Longitude": "78.251305",
    "RegionCode": "BOMM",
    "State": "Tamil Nadu",
    "SubRegionCode": "BOMM",
    "VenueAddress": "Bommudi Pappiredipatti Road, Near Raja Hospital, Bommidi, Tamil Nadu 635301, India",
    "VenueCode": "KYBO",
    "VenueName": "Kavitha Theatre: Bommidi"
  },
  "LALC": {
    "AvailableFormats": "2D",
    "City": "Jagraon",
    "Latitude": "30.8111",
    "Longitude": "75.4725",
    "RegionCode": "JGRO",
    "State": "Punjab",
    "SubRegionCode": "JGRO",
    "VenueAddress": "Moga Road, Kothe Fateh Din De, Jagraon, Punjab 142026, India",
    "VenueCode": "LALC",
    "VenueName": "Lal Palace Cineplex: Jagraon"
  },
  "LCBK": {
    "AvailableFormats": "2D",
    "City": "Kolkata",
    "Latitude": "22.7273",
    "Longitude": "88.48",
    "RegionCode": "BSRT",
    "State": "West Bengal",
    "SubRegionCode": "BSRT",
    "VenueAddress": "Krishnanagar Road, Norpara Halabot Tala, Barasat, Opposite Union Bank Of India Barasat Branch, Kolkata, West Bengal 700125, India",
    "VenueCode": "LCBK",
    "VenueName": "Lali Cinema: Barasat"
  },
  "LCSO": {
    "AvailableFormats": "2D",
    "City": "Ottapalam",
    "Latitude": "10.7734",
    "Longitude": "76.4259",
    "RegionCode": "PLKK",
    "State": "Kerala",
    "SubRegionCode": "PLKK",
    "VenueAddress": "Ponnani Road, Lakkidi Koottupatha, Ottapalam, Kerala 679301, India",
    "VenueCode": "LCSO",
    "VenueName": "Ladder Cinemas: Ottapalam - 4k Dolby Atmos/2k 7.1"
  },
  "LICL": {
    "AvailableFormats": "2D",
    "City": "Kolkata",
    "Latitude": "22.3431",
    "Longitude": "88.4554",
    "RegionCode": "KOLK",
    "State": "West Bengal",
    "SubRegionCode": "KOLK",
    "VenueAddress": "Baruipur - Champahati - Ghatakpukur Road, Phooltala Gate No.2, West Road South Par, Santoshpur, Baruipur - Canning Road, Kolkata, West Bengal 743387, India",
    "VenueCode": "LICL",
    "VenueName": "Lila Cinema: Baruipur"
  },
  "LKRT": {
    "AvailableFormats": "2D",
    "City": "Korutla",
    "Latitude": "18.8266",
    "Longitude": "78.7124",
    "RegionCode": "KCKA",
    "State": "Telangana",
    "SubRegionCode": "KCKA",
    "VenueAddress": "Indira Road, Raheempura, Korutla, Telangana 505326, India",
    "VenueCode": "LKRT",
    "VenueName": "Laxmi AC Deluxe Theatre: Korutla"
  },
  "LMCK": {
    "AvailableFormats": "2D",
    "City": "Kodungallur",
    "Latitude": "10.221",
    "Longitude": "76.2011",
    "RegionCode": "KODU",
    "State": "Kerala",
    "SubRegionCode": "KODU",
    "VenueAddress": "National Highway 66, Padakulam, Sringapuram, Kodungallur, Kerala 680664, India",
    "VenueCode": "LMCK",
    "VenueName": "LAKSHMI CINEMAS 4K LASER DOLBY ATMOS: KODUNGALLUR"
  },
  "LRCM": {
    "AvailableFormats": "2D",
    "City": "Manjeri",
    "Latitude": "11.1204",
    "Longitude": "76.1159",
    "RegionCode": "MAJR",
    "State": "Kerala",
    "SubRegionCode": "MAJR",
    "VenueAddress": "Indian Mall Road, Karuvambram, Manjeri, Kerala 676121, India",
    "VenueCode": "LRCM",
    "VenueName": "Ladder Cinemas: Manjeri"
  },
  "LTVB": {
    "AvailableFormats": "2D",
    "City": "Vijayapura (Bijapur)",
    "Latitude": "16.8284",
    "Longitude": "75.7165",
    "RegionCode": "VJPR",
    "State": "Karnataka",
    "SubRegionCode": "VJPR",
    "VenueAddress": "Godbole Mala, M. G. Road, Near Gandhi Chowk Police Station, Opposite Axis Bank, Vijayapura (Bijapur), Karnataka 586101, India",
    "VenueCode": "LTVB",
    "VenueName": "Sri Lakshmi Theatre: Vijayapura (Bijapur)"
  },
  "M2PP": {
    "AvailableFormats": "2D",
    "City": "Delhi",
    "Latitude": "28.6895",
    "Longitude": "77.1334",
    "RegionCode": "NCR",
    "State": "NCR",
    "SubRegionCode": "DELHI",
    "VenueAddress": "4 Community Centre, Road No. 44, Opposite Punjab National Bank, Delhi, NCR 110088, India",
    "VenueCode": "M2PP",
    "VenueName": "M2K: Pitampura"
  },
  "MACE": {
    "AvailableFormats": "3D|2D",
    "City": "Mumbai",
    "Latitude": "19.1655",
    "Longitude": "72.8512",
    "RegionCode": "MUMBAI",
    "State": "Maharashtra",
    "SubRegionCode": "MWEST",
    "VenueAddress": "Station Road, Goregaon East, Near Railway Station, Peru Baug, Jay Prakash Nagar, Mumbai, Maharashtra 400063, India",
    "VenueCode": "MACE",
    "VenueName": "Miraj Anupam Cinemas: Goregaon (E)"
  },
  "MAGX": {
    "AvailableFormats": "7D",
    "City": "Ghaziabad",
    "Latitude": "28.634",
    "Longitude": "77.3703",
    "RegionCode": "NCR",
    "State": "NCR",
    "SubRegionCode": "GHAZ",
    "VenueAddress": "2nd Floor, Shipra Mall, Plot No. 9, Vaibhav Land, Inirapuram, Ghaziabad, NCR 201014, India",
    "VenueCode": "MAGX",
    "VenueName": "7D Masti: Shipra Mall, Ghaziabad"
  },
  "MALO": {
    "AvailableFormats": "",
    "City": "Ludhiana",
    "FirstTracked": "2026-07-14",
    "Latitude": "30.885687",
    "Longitude": "75.788345",
    "RegionCode": "LUDH",
    "State": "Punjab",
    "SubRegionCode": "LUDH",
    "VenueAddress": "Second Floor,34 to 57, Wave Mall, Plot No. 2 and 3, Firozpur Road, Ludhiana, Punjab 141012, India",
    "VenueCode": "MALO",
    "VenueName": "7D Masti: Wave Mall, Ludhiana"
  },
  "MATE": {
    "AvailableFormats": "2D",
    "City": "Kallakurichi",
    "Latitude": "11.735",
    "Longitude": "78.9649",
    "RegionCode": "KALL",
    "State": "Tamil Nadu",
    "SubRegionCode": "KALL",
    "VenueAddress": "17J,Chidambaram Pillai St, Raja Nagar,Kallakurichi, Near Hotel SR Park, Kallakurichi, Tamil Nadu 606202, India",
    "VenueCode": "MATE",
    "VenueName": "Mahalakshmi Cinemas Dolby Atmos 4K Barco RGB Laser"
  },
  "MAYU": {
    "AvailableFormats": "",
    "City": "Kota",
    "FirstTracked": "2026-07-14",
    "Latitude": "25.191599",
    "Longitude": "75.850395",
    "RegionCode": "KOTA",
    "State": "Rajasthan",
    "SubRegionCode": "KOTA",
    "VenueAddress": "MDR7, Chatra Vilas Garden, Nayapura Circle, Nayapura, Kota, Rajasthan 324001, India",
    "VenueCode": "MAYU",
    "VenueName": "Mayur Cinema: Kota"
  },
  "MBSX": {
    "AvailableFormats": "",
    "City": "Ahmedabad",
    "Latitude": "22.9575",
    "Longitude": "72.6555",
    "RegionCode": "AHD",
    "State": "Gujarat",
    "SubRegionCode": "AHD",
    "VenueAddress": "5th Floor, C Block Shalin Square, SP Ring Road Vinzol, Hathijan Circle, Opposite Viva Farm, Ahmedabad, Gujarat 382445, India",
    "VenueCode": "MBSX",
    "VenueName": "Miraj Cinemas: Shalin Square, Hathijan"
  },
  "MCBS": {
    "AvailableFormats": "",
    "City": "Sikar",
    "FirstTracked": "2026-07-14",
    "Latitude": "27.600943",
    "Longitude": "75.14577",
    "RegionCode": "SIKR",
    "State": "Rajasthan",
    "SubRegionCode": "SIKR",
    "VenueAddress": "Rajasthan State Highway 8A, Dhodh, Rani Sati Road, Mahaveer Rodi Factory, Sikar, Rajasthan 332001, India",
    "VenueCode": "MCBS",
    "VenueName": "Miraj Bioscope Cinemas: Sikar"
  },
  "MCDV": {
    "AvailableFormats": "2D",
    "City": "Vizag (Visakhapatnam)",
    "Latitude": "17.6853",
    "Longitude": "83.2087",
    "RegionCode": "VIZA",
    "State": "Andhra Pradesh",
    "SubRegionCode": "VIZA",
    "VenueAddress": "Indira Colony, Gajuwaka, Near Alif Family Restaurant, Vizag (Visakhapatnam), Andhra Pradesh 500026, India",
    "VenueCode": "MCDV",
    "VenueName": "Mohini Cinemas Dolby Atmos: Gajuwaka"
  },
  "MCGR": {
    "AvailableFormats": "",
    "City": "Gurdaspur",
    "FirstTracked": "2026-07-14",
    "Latitude": "32.037926",
    "Longitude": "75.4062",
    "RegionCode": "GSPR",
    "State": "Punjab",
    "SubRegionCode": "GSPR",
    "VenueAddress": "AGM Mall, Tibri Road, Hanuman Chownk, Gurdaspur, Punjab 143521, India",
    "VenueCode": "MCGR",
    "VenueName": "Miraj Cinema: Gurdaspur"
  },
  "MCIX": {
    "AvailableFormats": "",
    "City": "Greater Noida",
    "FirstTracked": "2026-07-14",
    "Latitude": "28.4574",
    "Longitude": "77.4993",
    "RegionCode": "NCR",
    "State": "NCR",
    "SubRegionCode": "GRET",
    "VenueAddress": "Plot No. C-03, 04, Knowledge Park -II, Greater Noida, Greater Noida, NCR 201310, India",
    "VenueCode": "MCIX",
    "VenueName": "Miraj Cinemas: India Expo Plaza (Newly Opened)"
  },
  "MCMC": {
    "AvailableFormats": "2D",
    "City": "Singrauli",
    "Latitude": "24.0651",
    "Longitude": "82.6302",
    "RegionCode": "SNGR",
    "State": "Madhya Pradesh",
    "SubRegionCode": "SNGR",
    "VenueAddress": "Near Masjid Square, Talkies Road, Waidhan, Singrauli, Madhya Pradesh 486886, India",
    "VenueCode": "MCMC",
    "VenueName": "MCM Cineplex: Waidhan"
  },
  "MCPB": {
    "AvailableFormats": "2D|3D",
    "City": "Behror",
    "Latitude": "27.8948",
    "Longitude": "76.2976",
    "RegionCode": "BEHR",
    "State": "Rajasthan",
    "SubRegionCode": "BEHR",
    "VenueAddress": "Parv Plaza, 5th Floor, A-15 B1, Phase 1, Riico Industrial Area, Behror, Rajasthan 301701, India",
    "VenueCode": "MCPB",
    "VenueName": "Mukta A2 Cinemas: Parv Plaza, Behror"
  },
  "MCSK": {
    "AvailableFormats": "",
    "City": "Chennai",
    "Latitude": "12.9059",
    "Longitude": "80.2092",
    "RegionCode": "CHEN",
    "State": "Tamil Nadu",
    "SubRegionCode": "CHEN",
    "VenueAddress": "Sekaran Mall, 4th and 5th Floor, Survey No.452(3), Village Perumbakkam, Taluk Sholinganallur, Kancheepuram, Chennai, Tamil Nadu 600100, India",
    "VenueCode": "MCSK",
    "VenueName": "Miraj Cinemas: Sekaran Mall, Perrumbakkam"
  },
  "MCTG": {
    "AvailableFormats": "3D|2D",
    "City": "Mumbai",
    "Latitude": "19.1655",
    "Longitude": "72.8429",
    "RegionCode": "MUMBAI",
    "State": "Maharashtra",
    "SubRegionCode": "MWEST",
    "VenueAddress": "2nd Floor, Topiwala Center, Topiwala Lane, Near Goregaon Station (West), Mumbai, Maharashtra 400062, India",
    "VenueCode": "MCTG",
    "VenueName": "Topiwala Mukta A2 Cinemas, Goregaon"
  },
  "MDCA": {
    "AvailableFormats": "",
    "City": "Anjar",
    "FirstTracked": "2026-07-14",
    "Latitude": "23.101",
    "Longitude": "70.0353",
    "RegionCode": "ANJR",
    "State": "Gujarat",
    "SubRegionCode": "ANJR",
    "VenueAddress": "Chitrakut Circle, Vaishali Enclave, Anjar, Gujarat 370110, India",
    "VenueCode": "MDCA",
    "VenueName": "Modern Cineplex: Anjar"
  },
  "MDVA": {
    "AvailableFormats": "2D|3D",
    "City": "Mumbai",
    "Latitude": "19.3605",
    "Longitude": "72.8123",
    "RegionCode": "MUMBAI",
    "State": "Maharashtra",
    "SubRegionCode": "MWEST",
    "VenueAddress": "3rd Floor Dattani Square Mall, Stella Road, Vasai Road West, Near Papdy Talao And D Mart, Mumbai, Maharashtra 401202, India",
    "VenueCode": "MDVA",
    "VenueName": "Miraj Dattani Cinemas: Vasai"
  },
  "MEMR": {
    "AvailableFormats": "2D",
    "City": "Muzaffarnagar",
    "Latitude": "29.4865",
    "Longitude": "77.6966",
    "RegionCode": "MUZ",
    "State": "Uttar Pradesh",
    "SubRegionCode": "MUZ",
    "VenueAddress": "498, Opp Saharanpur Bus Stand, GT Road, Rampuri, Roorkee Road, Near Bajaj Agency, Muzaffarnagar, Uttar Pradesh 251001, India",
    "VenueCode": "MEMR",
    "VenueName": "Maya Multiplex: Muzaffarnagar"
  },
  "MGMD": {
    "AvailableFormats": "",
    "City": "Dhuri",
    "FirstTracked": "2026-07-14",
    "Latitude": "30.364855",
    "Longitude": "75.859245",
    "RegionCode": "DHRI",
    "State": "Punjab",
    "SubRegionCode": "DHRI",
    "VenueAddress": "Sangrur Road, Ward No 15B, Near Civil Hospital, Dhuri, Punjab 148024, India",
    "VenueCode": "MGMD",
    "VenueName": "Miraj Cinemas: Dhuri"
  },
  "MIDA": {
    "AvailableFormats": "7D",
    "City": "Greater Noida",
    "Latitude": "28.4529",
    "Longitude": "77.526",
    "RegionCode": "NCR",
    "State": "NCR",
    "SubRegionCode": "GRET",
    "VenueAddress": "Grand Venice Mall, 2nd Floor, SH 3, Site IV, Greater Noida, NCR 201308, India",
    "VenueCode": "MIDA",
    "VenueName": "7D Masti: The Grand Venice Mall, Greater Noida"
  },
  "MITD": {
    "AvailableFormats": "2D|3D",
    "City": "Nathdwara",
    "Latitude": "24.9166",
    "Longitude": "73.8238",
    "RegionCode": "NATW",
    "State": "Rajasthan",
    "SubRegionCode": "NATW",
    "VenueAddress": "5th Floor, Miraj Meridian Mall, Nathuwas Road, NH 8, Near Vallabh Ashram, Nathdwara, Rajasthan 313301, India",
    "VenueCode": "MITD",
    "VenueName": "Miraj Cinemas: Nathdwara"
  },
  "MKBG": {
    "AvailableFormats": "2D",
    "City": "Bengaluru",
    "Latitude": "13.0036",
    "Longitude": "77.6362",
    "RegionCode": "HOKT",
    "State": "Karnataka",
    "SubRegionCode": "HOKT",
    "VenueAddress": "No.30, Banaswadi Main Road, Marutiseva Nagar, Bengaluru, Karnataka 560033, India",
    "VenueCode": "MKBG",
    "VenueName": "Mukunda 4K Dolby Atmos: M.S.Nagar"
  },
  "MKSM": {
    "AvailableFormats": "2D|3D",
    "City": "Rajahmundry",
    "Latitude": "16.9508",
    "Longitude": "81.7829",
    "RegionCode": "RJMU",
    "State": "Andhra Pradesh",
    "SubRegionCode": "RJMU",
    "VenueAddress": "SH 41, VGTPS Colony, Near Dowlaiswaram Bus Stand, Rajahmundry, Andhra Pradesh 533125, India",
    "VenueCode": "MKSM",
    "VenueName": "Muralikrishna Cinema A/C 4K 3D: Dowlaiswaram"
  },
  "MMAA": {
    "AvailableFormats": "2D",
    "City": "Mumbai",
    "Latitude": "19.1165",
    "Longitude": "72.8565",
    "RegionCode": "MUMBAI",
    "State": "Maharashtra",
    "SubRegionCode": "MWEST",
    "VenueAddress": "MovieMax, Andheri-Kurla Road, Andheri(E), Behind Gurunanak Petrol Pump, Mumbai, Maharashtra 400059, India",
    "VenueCode": "MMAA",
    "VenueName": "MovieMax: Andheri (E)"
  },
  "MMEF": {
    "AvailableFormats": "2D",
    "City": "Jamnagar",
    "Latitude": "22.462",
    "Longitude": "70.0369",
    "RegionCode": "JAM",
    "State": "Gujarat",
    "SubRegionCode": "JAM",
    "VenueAddress": "15, Street No.4, Shivam Park, Ajanta Society, Near - Hotel Vishal International, Jamnagar, Gujarat 361006, India",
    "VenueCode": "MMEF",
    "VenueName": "Mehul Cinemax: Jamnagar"
  },
  "MMMD": {
    "AvailableFormats": "2D",
    "City": "Etawah",
    "Latitude": "26.7847",
    "Longitude": "79.0212",
    "RegionCode": "ETWH",
    "State": "Uttar Pradesh",
    "SubRegionCode": "ETWH",
    "VenueAddress": "Baba The Mall, Shastri Chauraha, Chogurjee Nagar, Near Hydel Colony, Etawah, Uttar Pradesh 206001, India",
    "VenueCode": "MMMD",
    "VenueName": "Mad Moviez: Etawah"
  },
  "MMSG": {
    "AvailableFormats": "3D|2D",
    "City": "Lucknow",
    "Latitude": "26.8194",
    "Longitude": "80.9072",
    "RegionCode": "LUCK",
    "State": "Uttar Pradesh",
    "SubRegionCode": "LUCK",
    "VenueAddress": "Shalimar Gateway Mall, Bus Stand, Alambagh, Near Alambagh, Railway Colony, Lucknow, Uttar Pradesh 226005, India",
    "VenueCode": "MMSG",
    "VenueName": "MovieMax: Shalimar Gateway"
  },
  "MMXA": {
    "AvailableFormats": "3D|2D",
    "City": "Pune",
    "Latitude": "18.5189",
    "Longitude": "73.9357",
    "RegionCode": "PUNE",
    "State": "Maharashtra",
    "SubRegionCode": "PUNE",
    "VenueAddress": "MovieMax, Amanora Town Centre, Amanora Park Town, Hadapsar, Pune, Maharashtra 411028, India",
    "VenueCode": "MMXA",
    "VenueName": "MovieMax Edition (Luxe): Amanora Town Center, Pune"
  },
  "MNJL": {
    "AvailableFormats": "",
    "City": "Ludhiana",
    "FirstTracked": "2026-07-14",
    "Latitude": "30.8963",
    "Longitude": "75.8665",
    "RegionCode": "LUDH",
    "State": "Punjab",
    "SubRegionCode": "LUDH",
    "VenueAddress": "Dholewal Chowk, G.T. Road, Ludhiana, Punjab 141001, India",
    "VenueCode": "MNJL",
    "VenueName": "Manju Theatre: Ludhiana"
  },
  "MPCH": {
    "AvailableFormats": "2D",
    "City": "Ahmedabad",
    "Latitude": "23.0638",
    "Longitude": "72.6775",
    "RegionCode": "AHD",
    "State": "Gujarat",
    "SubRegionCode": "AHD",
    "VenueAddress": "5th and 6th Floor, Fortune Sky, Fortune Circle, Nikol, Near - Goverdhan Galaxy Bungalows, Ahmedabad, Gujarat 382350, India",
    "VenueCode": "MPCH",
    "VenueName": "Mango Plus Cinemas: Nikol"
  },
  "MRCH": {
    "AvailableFormats": "2D",
    "City": "Haridwar",
    "Latitude": "29.9188",
    "Longitude": "78.0578",
    "RegionCode": "HRDR",
    "State": "Uttarakhand",
    "SubRegionCode": "HRDR",
    "VenueAddress": "3rd Floor, Raghunath City Mall, Bahadrabad, Haridwar, Uttarakhand 249402, India",
    "VenueCode": "MRCH",
    "VenueName": "Movietime Cinemas: Raghunath City Mall, Haridwar"
  },
  "MRRC": {
    "AvailableFormats": "",
    "City": "Raichur",
    "FirstTracked": "2026-07-14",
    "Latitude": "16.211191",
    "Longitude": "77.35692",
    "RegionCode": "RAUR",
    "State": "Karnataka",
    "SubRegionCode": "RAUR",
    "VenueAddress": "Miraj Cinemas, MPL No. 12-104 and 12-10-5, Situated at Siya Talab, Gunj Road, Raichur, Karnataka 584102, India",
    "VenueCode": "MRRC",
    "VenueName": "Miraj Cinemas: Raichur"
  },
  "MSCA": {
    "AvailableFormats": "",
    "City": "Amroha",
    "FirstTracked": "2026-07-14",
    "Latitude": "28.897",
    "Longitude": "78.4729",
    "RegionCode": "AMRO",
    "State": "Uttar Pradesh",
    "SubRegionCode": "AMRO",
    "VenueAddress": "2nd Floor, Madho Multiplex, Station Road, Azad Road,JP Nagar, Amroha, Uttar Pradesh 244221, India",
    "VenueCode": "MSCA",
    "VenueName": "Madho Starworld Cinemas: Amroha"
  },
  "MSMD": {
    "AvailableFormats": "2D",
    "City": "Bengaluru",
    "Latitude": "12.9899",
    "Longitude": "77.5005",
    "RegionCode": "BANG",
    "State": "Karnataka",
    "SubRegionCode": "BANG",
    "VenueAddress": "3, 6 / 1A, 1st Cross, Magadi Main Road, Sunkadakatte, Bengaluru, Karnataka 560091, India",
    "VenueCode": "MSMD",
    "VenueName": "Miraj Cinemas: TGN Lotus Elite, Magadi Road"
  },
  "MTBR": {
    "AvailableFormats": "3D|2D",
    "City": "Bahadurgarh",
    "Latitude": "28.6907",
    "Longitude": "76.9411",
    "RegionCode": "BAHD",
    "State": "Haryana",
    "SubRegionCode": "BAHD",
    "VenueAddress": "3rd Floor, Ammrta Arcade Mall, Rohtak Road, NH 10, Near Bahadurgarh Metro Station Pillar No. 816, Ram Nagar, Bahadurgarh, Haryana 124507, India",
    "VenueCode": "MTBR",
    "VenueName": "Movietime Cinemas: Bahadurgarh"
  },
  "MTHB": {
    "AvailableFormats": "3D|2D",
    "City": "Mumbai",
    "Latitude": "19.1548",
    "Longitude": "72.8563",
    "RegionCode": "MUMBAI",
    "State": "Maharashtra",
    "SubRegionCode": "MWEST",
    "VenueAddress": "3rd Floor, HUB, Western Express Highway, Goregaon (E), Mumbai, Maharashtra 400063, India",
    "VenueCode": "MTHB",
    "VenueName": "MOVIE TIME: HUB, Goregaon (E)"
  },
  "MTMD": {
    "AvailableFormats": "2D|3D",
    "City": "Moradabad",
    "Latitude": "28.8252",
    "Longitude": "78.7751",
    "RegionCode": "MORA",
    "State": "Uttar Pradesh",
    "SubRegionCode": "MORA",
    "VenueAddress": "Rampur Road, Near Old Bus Station, Gandhi Nagar, Moradabad, Uttar Pradesh 244001, India",
    "VenueCode": "MTMD",
    "VenueName": "Movietime Miglani Cinema: Moradabad"
  },
  "MTSU": {
    "AvailableFormats": "2D|3D",
    "City": "Mumbai",
    "Latitude": "19.061",
    "Longitude": "72.837",
    "RegionCode": "MUMBAI",
    "State": "Maharashtra",
    "SubRegionCode": "MWEST",
    "VenueAddress": "Suburbia Mall, 206 and 265 Junction of S V Road, And Linking Road, Bandra(W), Near Shoppers Stop, Mumbai, Maharashtra 400050, India",
    "VenueCode": "MTSU",
    "VenueName": "Movietime Suburbia: Bandra (W)"
  },
  "MUSC": {
    "AvailableFormats": "2D",
    "City": "Bhopal",
    "Latitude": "23.2651",
    "Longitude": "77.4141",
    "RegionCode": "BHOP",
    "State": "Madhya Pradesh",
    "SubRegionCode": "BHOP",
    "VenueAddress": "80 Feet Road, Station Chouraha, Bajariya, Bhopal, Madhya Pradesh 462010, India",
    "VenueCode": "MUSC",
    "VenueName": "Muskaan Cinema: Bhopal"
  },
  "MWSS": {
    "AvailableFormats": "2D",
    "City": "Ghaziabad",
    "Latitude": "28.6828",
    "Longitude": "77.4287",
    "RegionCode": "NCR",
    "State": "NCR",
    "SubRegionCode": "GHAZ",
    "VenueAddress": "1st Floor, Plot No. A-1/1-7,8, 9, 13, 14, 15, 16 and 17, Site-III, Sihani Chungi, Meerut Road, Ghaziabad, NCR 201003, India",
    "VenueCode": "MWSS",
    "VenueName": "US Cinemas: Movie World, Sihani Chungi, Ghaziabad"
  },
  "MXSN": {
    "AvailableFormats": "2D",
    "City": "Mumbai",
    "Latitude": "19.0934",
    "Longitude": "72.8838",
    "RegionCode": "MUMBAI",
    "State": "Maharashtra",
    "SubRegionCode": "MWEST",
    "VenueAddress": "90 Feet Road, Sakinaka Andheri(East), Opposite Jarimari Bus Stop, Mumbai, Maharashtra 400072, India",
    "VenueCode": "MXSN",
    "VenueName": "Maxus Cinemas: Saki Naka"
  },
  "MYEP": {
    "AvailableFormats": "",
    "City": "Patratu",
    "FirstTracked": "2026-07-14",
    "Latitude": "23.5892",
    "Longitude": "85.269",
    "RegionCode": "RANC",
    "State": "Jharkhand",
    "SubRegionCode": "RANC",
    "VenueAddress": "No.14 Plot No 347, Talatand, Patratu, Jharkhand 829119, India",
    "VenueCode": "MYEP",
    "VenueName": "Midwaay Cine Cafe: Patratu"
  },
  "NACS": {
    "AvailableFormats": "2D",
    "City": "Korba",
    "Latitude": "22.3606",
    "Longitude": "82.7256",
    "RegionCode": "KRBA",
    "State": "Chhattisgarh",
    "SubRegionCode": "KRBA",
    "VenueAddress": "Ghantaghar Niharika Road, Subhash Chowk, Near New Madhu Sweets, M P Nagar, Korba, Chhattisgarh 495677, India",
    "VenueCode": "NACS",
    "VenueName": "Niharika Cinema 2K Laser & Dolby 7.1 Sound: Korba"
  },
  "NCCI": {
    "AvailableFormats": "",
    "City": "Chhatrapati Sambhajinagar (Aurangabad)",
    "FirstTracked": "2026-07-14",
    "Latitude": "19.8752",
    "Longitude": "75.354",
    "RegionCode": "AURA",
    "State": "Maharashtra",
    "SubRegionCode": "AURA",
    "VenueAddress": "Jalna Road Nupur Cinetorium, Seven Hills Flyover Road, Near Fire Brigade Office, Chhatrapati Sambhajinagar (Aurangabad), Maharashtra 431009, India",
    "VenueCode": "NCCI",
    "VenueName": "Nupur Cinema: Chh.Sambhajinagar (Newly Renovated)"
  },
  "NCLM": {
    "AvailableFormats": "2D",
    "City": "Mokama",
    "Latitude": "25.3956",
    "Longitude": "85.9237",
    "RegionCode": "MOKA",
    "State": "Bihar",
    "SubRegionCode": "MOKA",
    "VenueAddress": "National Highway 31, Sakarwar Tola, Mokameh, Mokama, Bihar 803302, India",
    "VenueCode": "NCLM",
    "VenueName": "New Cinema (Lucky House): Mokama"
  },
  "NDGP": {
    "AvailableFormats": "",
    "City": "Vizag",
    "FirstTracked": "2026-07-14",
    "Latitude": "17.746363",
    "Longitude": "83.22072",
    "RegionCode": "SABB",
    "State": "Andhra Pradesh",
    "SubRegionCode": "SABB",
    "VenueAddress": "Gopalapatnam Main Road, Gopalapatnam, Simhachalam, Vizag, Andhra Pradesh 530027, India",
    "VenueCode": "NDGP",
    "VenueName": "Narasimha A/C 2K Dolby: Gopalapatnam"
  },
  "NFGD": {
    "AvailableFormats": "2D",
    "City": "Bengaluru",
    "Latitude": "12.9747",
    "Longitude": "77.6085",
    "RegionCode": "BANG",
    "State": "Karnataka",
    "SubRegionCode": "BANG",
    "VenueAddress": "Shop No. 201, 202, 203, Emporium Davanam, Ward No. 76, MG Road, Bengaluru, Karnataka 560001, India",
    "VenueCode": "NFGD",
    "VenueName": "Newfangled Miniplex (TWIN SEATED): MG Road"
  },