{
  "AACT": {
    "AvailableFormats": "",
    "City": "Tirur",
    "FirstTracked": "2026-07-14",
    "Latitude": "10.909439",
    "Longitude": "75.922585",
    "RegionCode": "ANDM",
    "State": "Kerala",
    "SubRegionCode": "ANDM",
    "VenueAddress": "Trikkandiyoor Road, Tirur, Near MDC BANK, Tirur, Kerala 676101, India",
    "VenueCode": "AACT",
    "VenueName": "Magic Frames Anoograha Cinemas: Tirur"
  },
  "AASH": {
    "AvailableFormats": "2D",
    "City": "Bhandara",
    "Latitude": "21.17",
    "Longitude": "79.6562",
    "RegionCode": "BHAA",
    "State": "Maharashtra",
    "SubRegionCode": "BHAA",
    "VenueAddress": "Gandhi Square, Gandhi Chowk, Santaji Nagar, Bhandara, Maharashtra 441904, India",
    "VenueCode": "AASH",
    "VenueName": "Adarsh Chitra Mandir: Bhandara"
  },
  "ABCS": {
    "AvailableFormats": "3D|2D",
    "City": "Hyderabad",
    "Latitude": "17.4005",
    "Longitude": "78.5548",
    "RegionCode": "HYD",
    "State": "Telangana",
    "SubRegionCode": "HYD",
    "VenueAddress": "DSL Virtue Mall, 3rd Floor, Plot No. B-1, B-2B and 2, Uppal Khlasa VRR, Near Indian Oil Petrol Pump, Hyderabad, Telangana 500039, India",
    "VenueCode": "ABCS",
    "VenueName": "Cinepolis: DSL Virtue Mall Uppal, Hyderabad"
  },
  "ABTS": {
    "AvailableFormats": "2D",
    "City": "Palakollu",
    "Latitude": "16.5167",
    "Longitude": "81.7258",
    "RegionCode": "PLKL",
    "State": "Andhra Pradesh",
    "SubRegionCode": "PLKL",
    "VenueAddress": "Money Market Road, Near Kanaka Durga Maa Temple, Palakollu, Andhra Pradesh 534260, India",
    "VenueCode": "ABTS",
    "VenueName": "Adabala Theatre Screen 1: Palakollu"
  },
  "ACDC": {
    "AvailableFormats": "2D",
    "City": "Chhatarpur",
    "Latitude": "24.8849",
    "Longitude": "79.5946",
    "RegionCode": "CHHT",
    "State": "Madhya Pradesh",
    "SubRegionCode": "CHHT",
    "VenueAddress": "Green Avenue Colony, Next to Dr. Radhakrishna Higher Secondary School, Chhatarpur, Madhya Pradesh 471001, India",
    "VenueCode": "ACDC",
    "VenueName": "Ashoka Cineplex: Chhatarpur"
  },
  "ACID": {
    "AvailableFormats": "",
    "City": "Idar",
    "FirstTracked": "2026-07-14",
    "Latitude": "23.80376",
    "Longitude": "72.993935",
    "RegionCode": "IDAR",
    "State": "Gujarat",
    "SubRegionCode": "IDAR",
    "VenueAddress": "Himatnagar Highway, Sapawada, Idar, Gujarat 383430, India",
    "VenueCode": "ACID",
    "VenueName": "Time Cinema: Idar"
  },
  "ACKZ": {
    "AvailableFormats": "2D",
    "City": "Kozhikode",
    "Latitude": "11.2554",
    "Longitude": "75.7847",
    "RegionCode": "KOZH",
    "State": "Kerala",
    "SubRegionCode": "KOZH",
    "VenueAddress": "No 17/256, Pavamani Road, Kozhikode, Kerala 673001, India",
    "VenueCode": "ACKZ",
    "VenueName": "ARC Coronation 4K Dolby Atmos"
  },
  "ACON": {
    "AvailableFormats": "2D",
    "City": "Chennai",
    "Latitude": "12.8505",
    "Longitude": "80.2257",
    "RegionCode": "CHEN",
    "State": "Tamil Nadu",
    "SubRegionCode": "CHEN",
    "VenueAddress": "Vivira Mall, 5th Floor, Navalur, Old Mahabalipuram Road, Near ETA Techno Park Entrance, Chennai, Tamil Nadu 603103, India",
    "VenueCode": "ACON",
    "VenueName": "AGS Cinemas OMR: Navlur"
  },
  "ACTC": {
    "AvailableFormats": "",
    "City": "Trivandrum",
    "FirstTracked": "2026-07-14",
    "Latitude": "8.497059",
    "Longitude": "76.937096",
    "RegionCode": "TRIV",
    "State": "Kerala",
    "SubRegionCode": "TRIV",
    "VenueAddress": "SRA-24, Vanchiyoor, Thiruvananthapuram, Trivandrum, Kerala 695035, India",
    "VenueCode": "ACTC",
    "VenueName": "Artech Cinemas: Trivandrum"
  },
  "ACXK": {
    "AvailableFormats": "2D",
    "City": "Kichha",
    "Latitude": "28.9107",
    "Longitude": "79.5144",
    "RegionCode": "KCHA",
    "State": "Uttarakhand",
    "SubRegionCode": "KCHA",
    "VenueAddress": "Bareilly Road, Main Market, Kichha, Uttarakhand 263148, India",
    "VenueCode": "ACXK",
    "VenueName": "Anupam Cineplex: Kichha"
  },
  "ADGR": {
    "AvailableFormats": "2D|3D",
    "City": "Gorakhpur",
    "Latitude": "26.7564",
    "Longitude": "83.3668",
    "RegionCode": "GRKP",
    "State": "Uttar Pradesh",
    "SubRegionCode": "GRKP",
    "VenueAddress": "2nd and 3rd Floor, Ad Mall, Cinema Road, Gorakhpur, Uttar Pradesh 273001, India",
    "VenueCode": "ADGR",
    "VenueName": "AD Cinemas: Gorakhpur"
  },
  "AGCD": {
    "AvailableFormats": "2D",
    "City": "Dindigul",
    "Latitude": "10.3655",
    "Longitude": "77.9815",
    "RegionCode": "DIND",
    "State": "Tamil Nadu",
    "SubRegionCode": "DIND",
    "VenueAddress": "15 A, Aarthi Theatre Road, Dindigul, Tamil Nadu 624001, India",
    "VenueCode": "AGCD",
    "VenueName": "Aarthi Grand Cineplex: Dindigul"
  },
  "AJCI": {
    "AvailableFormats": "",
    "City": "Chintamani",
    "FirstTracked": "2026-07-14",
    "Latitude": "13.3946",
    "Longitude": "78.0505",
    "RegionCode": "CHTI",
    "State": "Karnataka",
    "SubRegionCode": "CHTI",
    "VenueAddress": "Malapally Road, Beside Old LIC Building, Gandhi Nagar, Chintamani, Karnataka 563125, India",
    "VenueCode": "AJCI",
    "VenueName": "Anjani Theatre: Chintamani"
  },
  "AKTB": {
    "AvailableFormats": "2D|3D",
    "City": "Burhanpur",
    "Latitude": "21.3031",
    "Longitude": "76.2225",
    "RegionCode": "BRHP",
    "State": "Madhya Pradesh",
    "SubRegionCode": "BRHP",
    "VenueAddress": "Amrawati Road, Near Kamal Plaza, Burhanpur, Madhya Pradesh 450331, India",
    "VenueCode": "AKTB",
    "VenueName": "Ankita Multiplex: Burhanpur"
  },
  "ALCT": {
    "AvailableFormats": "",
    "City": "Taliparamba",
    "FirstTracked": "2026-07-14",
    "Latitude": "12.039735",
    "Longitude": "75.356735",
    "RegionCode": "TALI",
    "State": "Kerala",
    "SubRegionCode": "TALI",
    "VenueAddress": "National Highway, Taliparamba Payyanur, Main Road, Taliparamba, Kerala 670141, India",
    "VenueCode": "ALCT",
    "VenueName": "Alinkeel Cinemas 2K Atmos 7.1: Taliparamba"
  },
  "AMBT": {
    "AvailableFormats": "3D|2D",
    "City": "Nagpur",
    "Latitude": "21.1163",
    "Longitude": "79.0128",
    "RegionCode": "NAGP",
    "State": "Maharashtra",
    "SubRegionCode": "NAGP",
    "VenueAddress": "Bansi Nagar, S R P Camp, Digdoh, Nagpur, Maharashtra 440016, India",
    "VenueCode": "AMBT",
    "VenueName": "AM Cinema: Bansi Nagar, Nagpur"
  },
  "AMGD": {
    "AvailableFormats": "2D",
    "City": "Ahmedabad",
    "Latitude": "23.0922",
    "Longitude": "72.5457",
    "RegionCode": "AHD",
    "State": "Gujarat",
    "SubRegionCode": "AHD",
    "VenueAddress": "Vandematram, 6th Floor, Block A, Shakti Etc, Nr. D-Mart, Gota Road, Opp Nayra Petrol Pump, Gota, Ahmedabad, Gujarat 382481, India",
    "VenueCode": "AMGD",
    "VenueName": "Apple Multiplex: Gota, Ahmedabad"
  },
  "AMOE": {
    "AvailableFormats": "3D|2D",
    "City": "Amravati",
    "Latitude": "20.8983",
    "Longitude": "77.7477",
    "RegionCode": "AMRA",
    "State": "Maharashtra",
    "SubRegionCode": "AMRA",
    "VenueAddress": "Elite Mall, Guruchhaya Colony, Saturna, Sai Nagar,Badnera Road, Near Bhakti Dham Mandir, Amravati, Maharashtra 444607, India",
    "VenueCode": "AMOE",
    "VenueName": "E Orbit Multiplex: Amravati"
  },
  "ANAC": {
    "AvailableFormats": "",
    "City": "Chennai",
    "FirstTracked": "2026-07-14",
    "Latitude": "13.067187",
    "Longitude": "80.27129",
    "RegionCode": "CHEN",
    "State": "Tamil Nadu",
    "SubRegionCode": "CHEN",
    "VenueAddress": "New No 21,Anna Salai, Mount Road, Near Gee Gee Complex, Chennai, Tamil Nadu 600014, India",
    "VenueCode": "ANAC",
    "VenueName": "Anna Cinemas: Mount Road"
  },
  "ANES": {
    "AvailableFormats": "3D|2D",
    "City": "Chhatrapati Sambhajinagar (Aurangabad)",
    "Latitude": "19.879",
    "Longitude": "75.3355",
    "RegionCode": "AURA",
    "State": "Maharashtra",
    "SubRegionCode": "AURA",
    "VenueAddress": "Near Central Telegraph Office, Bahadurpura Mondha Road, Aurangabad HO, Near Jafar Gate, Chhatrapati Sambhaji Nagar, Near Jaffer Gate, Chhatrapati Sambhajinagar (Aurangabad), Maharashtra 431001, India",
    "VenueCode": "ANES",
    "VenueName": "Abhinay: Chhatrapati Sambhaji Nagar"
  },
  "ANRS": {
    "AvailableFormats": "2D",
    "City": "Sircilla",
    "Latitude": "18.3863",
    "Longitude": "78.8129",
    "RegionCode": "SIRC",
    "State": "Telangana",
    "SubRegionCode": "SIRC",
    "VenueAddress": "Sircilla - Siddipet Road, Near Andhra Bank, Sircilla, Telangana 505301, India",
    "VenueCode": "ANRS",
    "VenueName": "Asian Natraj Deluxe Theatre A/c: Sircilla"
  },
  "APAA": {
    "AvailableFormats": "2D",
    "City": "Mathabhanga",
    "Latitude": "26.3397",
    "Longitude": "89.2157",
    "RegionCode": "MABH",
    "State": "West Bengal",
    "SubRegionCode": "MABH",
    "VenueAddress": "Sitalkuchi Road, Near MINA Jewellary, Opposite Digital World, Mathabhanga, West Bengal 736146, India",
    "VenueCode": "APAA",
    "VenueName": "Apsara Cinema: Mathabhanga"
  },
  "APLP": {
    "AvailableFormats": "2D",
    "City": "Surat",
    "Latitude": "21.1812",
    "Longitude": "72.7679",
    "RegionCode": "SURT",
    "State": "Gujarat",
    "SubRegionCode": "SURT",
    "VenueAddress": "4th Floor, Zircon Arena, Pal Bhatha, Surat, Gujarat 394510, India",
    "VenueCode": "APLP",
    "VenueName": "Apple Cinema: Pal Bhatha"
  },
  "APST": {
    "AvailableFormats": "",
    "City": "Vijayapura",
    "FirstTracked": "2026-07-14",
    "Latitude": "16.831915",
    "Longitude": "75.72379",
    "RegionCode": "VJPR",
    "State": "Karnataka",
    "SubRegionCode": "VJPR",
    "VenueAddress": "Jadar Galli, Near Loyola Institute, Vijayapura, Karnataka 586101, India",
    "VenueCode": "APST",
    "VenueName": "Apsara Cineplex 70 mm: Bijapur"
  },
  "ARCB": {
    "AvailableFormats": "",
    "City": "Bardoli",
    "FirstTracked": "2026-07-14",
    "Latitude": "21.13157",
    "Longitude": "73.10262",
    "RegionCode": "BRDL",
    "State": "Gujarat",
    "SubRegionCode": "BRDL",
    "VenueAddress": "Alankar Cineplex, Station Road, Ramnagar,Opp Bardoli Sugar Factory, Near Bardoli Railway Station, Bardoli, Gujarat 394601, India",
    "VenueCode": "ARCB",
    "VenueName": "Alankar Cineplex: Bardoli"
  },
  "ARRO": {
    "AvailableFormats": "2D",
    "City": "Ooty",
    "Latitude": "11.4145",
    "Longitude": "76.709",
    "RegionCode": "OOTY",
    "State": "Tamil Nadu",
    "SubRegionCode": "OOTY",
    "VenueAddress": "Garden Road, Pudumund, Ooty, Tamil Nadu 643001, India",
    "VenueCode": "ARRO",
    "VenueName": "The Assembly Rooms: Ooty"
  },
  "ASBL": {
    "AvailableFormats": "2D",
    "City": "Siddipet",
    "Latitude": "18.1039",
    "Longitude": "78.8569",
    "RegionCode": "SDDP",
    "State": "Telangana",
    "SubRegionCode": "SDDP",
    "VenueAddress": "Srinivas Nagar, Siddipet - Karimnagar Road, Siddipet, Telangana 502103, India",
    "VenueCode": "ASBL",
    "VenueName": "Asian Balaji 70MM A/C: Siddipet"
  },
  "ASHN": {
    "AvailableFormats": "2D",
    "City": "Hyderabad",
    "Latitude": "17.5107",
    "Longitude": "78.2952",
    "RegionCode": "HYD",
    "State": "Telangana",
    "SubRegionCode": "HYD",
    "VenueAddress": "Sy. No. 101AA, 101 E, 105 E, Ramchandra Puram, Hyderabad, Telangana 500133, India",
    "VenueCode": "ASHN",
    "VenueName": "Asian Cinemart: RC Puram"
  },
  "ASMS": {
    "AvailableFormats": "2D",
    "City": "Salem",
    "Latitude": "11.6481",
    "Longitude": "78.1618",
    "RegionCode": "SALM",
    "State": "Tamil Nadu",
    "SubRegionCode": "SALM",
    "VenueAddress": "194/55, Kallarampatty Main Road, Erumapalayam, Near Municipal Office, Salem, Tamil Nadu 636015, India",
    "VenueCode": "ASMS",
    "VenueName": "Aascars Multiplex: Salem"
  },
  "ASSK": {
    "AvailableFormats": "2D",
    "City": "Khammam",
    "Latitude": "17.25",
    "Longitude": "80.1403",
    "RegionCode": "KHAM",
    "State": "Telangana",
    "SubRegionCode": "KHAM",
    "VenueAddress": "9-2-15/A, Station Road, Braman Bazar, Khammam, Telangana 507001, India",
    "VenueCode": "ASSK",
    "VenueName": "Asian Srinivasa: Khammam"
  },
  "ASVS": {
    "AvailableFormats": "2D",
    "City": "Siddipet",
    "Latitude": "18.1047",
    "Longitude": "78.8598",
    "RegionCode": "SDDP",
    "State": "Telangana",
    "SubRegionCode": "SDDP",
    "VenueAddress": "Karimnagar Road, Srinivas Nagar, Near Honda Showroom, Siddipet, Telangana 502103, India",
    "VenueCode": "ASVS",
    "VenueName": "Asian Venkateshwara: Siddipet"
  },
  "ATCL": {
    "AvailableFormats": "2D",
    "City": "Mandapeta",
    "Latitude": "16.8707",
    "Longitude": "81.9254",
    "RegionCode": "MAND",
    "State": "Andhra Pradesh",
    "SubRegionCode": "MAND",
    "VenueAddress": "Cinema Road, Gandhi Nagar, Near Municipality Compost Yard, Mandapeta, Andhra Pradesh 533308, India",
    "VenueCode": "ATCL",
    "VenueName": "Ambica Theaters 2K A/c DTS: Mandapeta"
  },
  "ATMG": {
    "AvailableFormats": "2D",
    "City": "Chennai",
    "Latitude": "12.5051",
    "Longitude": "79.8799",
    "RegionCode": "CHEN",
    "State": "Tamil Nadu",
    "SubRegionCode": "CHEN",
    "VenueAddress": "National Highway Service Road, Maduranthakam, Tamil Nadu, Near Lake View Hotal, Chennai, Tamil Nadu 603306, India",
    "VenueCode": "ATMG",
    "VenueName": "Anand Theatre Madhuranthagam RGB LASER 4k"
  },
  "ATUN": {
    "AvailableFormats": "2D",
    "City": "Khachrod",
    "Latitude": "23.4255",
    "Longitude": "75.2856",
    "RegionCode": "KHCU",
    "State": "Madhya Pradesh",
    "SubRegionCode": "KHCU",
    "VenueAddress": "36, Ujjain Gate, Near Gopal Mandir, Khachrod, Madhya Pradesh 456224, India",
    "VenueCode": "ATUN",
    "VenueName": "Ashok Cineplex: Khachrod"
  },
  "AVCK": {
    "AvailableFormats": "2D",
    "City": "Kozhikode",
    "Latitude": "11.2596",
    "Longitude": "75.7883",
    "RegionCode": "KOZH",
    "State": "Kerala",
    "SubRegionCode": "KOZH",
    "VenueAddress": "R.P.Mall, Mavoor Road, Opposite - Moffusil Bus Stand, Arayidathupalam, Kozhikode, Kerala 673001, India",
    "VenueCode": "AVCK",
    "VenueName": "Aashirvad Cineplexx: Kozhikode"
  },
  "AWND": {
    "AvailableFormats": "",
    "City": "Piduguralla",
    "FirstTracked": "2026-07-14",
    "Latitude": "16.48054",
    "Longitude": "79.89087",
    "RegionCode": "PIDU",
    "State": "Andhra Pradesh",
    "SubRegionCode": "PIDU",
    "VenueAddress": "FVJR+69R, Tangeda Road, Piduguralla, Andhra Pradesh 522413, India",
    "VenueCode": "AWND",
    "VenueName": "Aswani Deluxe A/C: Piduguralla"
  },
  "AYYA": {
    "AvailableFormats": "2D",
    "City": "Pattukkottai",
    "Latitude": "10.4238",
    "Longitude": "79.3149",
    "RegionCode": "PATU",
    "State": "Tamil Nadu",
    "SubRegionCode": "PATU",
    "VenueAddress": "54 South Kali, Amman Mobil st, Nadimuthu Nagar, Pattukkottai, Tamil Nadu 614601, India",
    "VenueCode": "AYYA",
    "VenueName": "Ayya A/C theatre 2K Dolby 7.1: Pattukkottai"
  },
  "BASK": {
    "AvailableFormats": "2D",
    "City": "Sivasagar",
    "Latitude": "26.953",
    "Longitude": "94.5718",
    "RegionCode": "SVSG",
    "State": "Assam",
    "SubRegionCode": "SVSG",
    "VenueAddress": "AT Road, Bhatiapar, Near Bhatiapar Petrol Pump, Sivasagar, Assam 785697, India",
    "VenueCode": "BASK",
    "VenueName": "Bhaskarjyoti Cinema: Sivasagar"
  },
  "BBTS": {
    "AvailableFormats": "",
    "City": "Siruguppa",
    "FirstTracked": "2026-07-14",
    "Latitude": "15.632644",
    "Longitude": "76.89329",
    "RegionCode": "SPPA",
    "State": "Karnataka",
    "SubRegionCode": "SPPA",
    "VenueAddress": "Sadashiv Nagar, Near Syndicate Bank, Siruguppa, Karnataka 583121, India",
    "VenueCode": "BBTS",
    "VenueName": "Balaji Theatre: Siruguppa"
  },
  "BDCG": {
    "AvailableFormats": "2D",
    "City": "Bengaluru",
    "Latitude": "12.974",
    "Longitude": "77.5798",
    "RegionCode": "HOKT",
    "State": "Karnataka",
    "SubRegionCode": "HOKT",
    "VenueAddress": "23, Kempegowda Road, Mysore Bank Colony, Gandhi Nagar, Bengaluru, Karnataka 560009, India",
    "VenueCode": "BDCG",
    "VenueName": "Bhumika Digital 2K Cinema: Gandhinagar"
  },
  "BHCS": {
    "AvailableFormats": "2D|3D",
    "City": "Manipal",
    "Latitude": "13.353",
    "Longitude": "74.7903",
    "RegionCode": "MANI",
    "State": "Karnataka",
    "SubRegionCode": "MANI",
    "VenueAddress": "Canara Mall, Hebri Road, Near Hotel Green Park, Manipal, Karnataka 576104, India",
    "VenueCode": "BHCS",
    "VenueName": "Bharath Cinemas: Canara Mall, Manipal"
  },
  "BIJO": {
    "AvailableFormats": "2D",
    "City": "Shillong",
    "Latitude": "25.5764",
    "Longitude": "91.8816",
    "RegionCode": "SHLG",
    "State": "Meghalaya",
    "SubRegionCode": "SHLG",
    "VenueAddress": "Police Bazar, Near Bank of India Shillong, Shillong, Meghalaya 793001, India",
    "VenueCode": "BIJO",
    "VenueName": "Bijou Cinema: Shillong"
  },
  "BKCG": {
    "AvailableFormats": "",
    "City": "Gandhinagar",
    "FirstTracked": "2026-07-14",
    "Latitude": "23.267239",
    "Longitude": "72.66759",
    "RegionCode": "GNAGAR",
    "State": "Gujarat",
    "SubRegionCode": "GNAGAR",
    "VenueAddress": "2nd Floor, Bosky the City Mall, Pethpur Cross Road, Pethapur, Gandhinagar, Gujarat 382610, India",
    "VenueCode": "BKCG",
    "VenueName": "Bosky Cineplex: Gandhinagar"
  },
  "BLLD": {
    "AvailableFormats": "2D",
    "City": "Nalbari",
    "Latitude": "26.4544",
    "Longitude": "91.4091",
    "RegionCode": "NALB",
    "State": "Assam",
    "SubRegionCode": "NALB",
    "VenueAddress": "Bella Luna Cinemas, Q Green Hotel 5th Floor, Haripur Highway, Nalbari, Assam 781340, India",
    "VenueCode": "BLLD",
    "VenueName": "Bella Luna Cinemas: Nalbari"
  },
  "BMXA": {
    "AvailableFormats": "2D",
    "City": "Ulhasnagar",
    "Latitude": "19.2201",
    "Longitude": "73.1723",
    "RegionCode": "MUMBAI",
    "State": "Maharashtra",
    "SubRegionCode": "ULHA",
    "VenueAddress": "GNP Galaxy, Vadol Gaon, Waldhuni, Ambernath, Ulhasnagar, Ulhasnagar, Maharashtra 421501, India",
    "VenueCode": "BMXA",
    "VenueName": "BMX Cinemas: Ambernath (New)"
  },
  "BRKH": {
    "AvailableFormats": "2D",
    "City": "Hyderabad",
    "Latitude": "17.5002",
    "Longitude": "78.3866",
    "RegionCode": "HYD",
    "State": "Telangana",
    "SubRegionCode": "HYD",
    "VenueAddress": "Jai Bharat Nagar, Hyder Nagar, Vasantha Nagar, Kukatpally, Near Karachi Bakery, Hyderabad, Telangana 500072, India",
    "VenueCode": "BRKH",
    "VenueName": "Bhramaramba 70MM A/C 4K Dolby: Kukatpally"
  },
  "BSPC": {
    "AvailableFormats": "2D",
    "City": "Dhampur",
    "Latitude": "29.3028",
    "Longitude": "78.5065",
    "RegionCode": "DHPR",
    "State": "Uttar Pradesh",
    "SubRegionCode": "DHPR",
    "VenueAddress": "Near Champa Devi Temple, Udaipur, Dhampur, Uttar Pradesh 246761, India",
    "VenueCode": "BSPC",
    "VenueName": "Bansal Cineplex: Dhampur"
  },
  "BTDP": {
    "AvailableFormats": "2D",
    "City": "Dammapeta",
    "Latitude": "17.2667",
    "Longitude": "81.0117",
    "RegionCode": "DMPT",
    "State": "Telangana",
    "SubRegionCode": "DMPT",
    "VenueAddress": "Balaji Center, Dammapeta Main Road, Dammapeta, Telangana 507306, India",
    "VenueCode": "BTDP",
    "VenueName": "Balaji Talkies: Dammapeta"
  },
  "BWST": {
    "AvailableFormats": "2D",
    "City": "Surat",
    "Latitude": "21.1792",
    "Longitude": "72.9627",
    "RegionCode": "SURT",
    "State": "Gujarat",
    "SubRegionCode": "SURT",
    "VenueAddress": "574/2/1/ Chhatrala City Centre, MC Donalds Kadodara At - Umbhel, Near NH 8, Surat, Gujarat 394325, India",
    "VenueCode": "BWST",
    "VenueName": "Bollywood Cinema, Kadodara: Surat"
  },
  "CAML": {
    "AvailableFormats": "3D|2D",
    "City": "Kolkata",
    "Latitude": "22.5147",
    "Longitude": "88.3932",
    "RegionCode": "KOLK",
    "State": "West Bengal",
    "SubRegionCode": "KOLK",
    "VenueAddress": "3rd Floor, Acropolis Mall, 1858 Rajdanga Main Road, Beside Geetanjali stadium, Kolkata, West Bengal 700107, India",
    "VenueCode": "CAML",
    "VenueName": "Cinepolis: Acropolis Mall, Kolkata"
  },
  "CCAT": {
    "AvailableFormats": "2D",
    "City": "Coimbatore",
    "Latitude": "11.1121",
    "Longitude": "76.9355",
    "RegionCode": "COIM",
    "State": "Tamil Nadu",
    "SubRegionCode": "COIM",
    "VenueAddress": "2A/12, Padmalaya Nagar, Narasimhanaickenpalayam, Coimbatore, Tamil Nadu 641031, India",
    "VenueCode": "CCAT",
    "VenueName": "Cosmo Cinemas: NARASIMANAIKEN PALAYAM, AC 4k ATMOS"
  },
  "CCEJ": {
    "AvailableFormats": "2D",
    "City": "Jharsuguda",
    "Latitude": "21.8501",
    "Longitude": "84.0135",
    "RegionCode": "JRSG",
    "State": "Odisha",
    "SubRegionCode": "JRSG",
    "VenueAddress": "MS Khata No 635, Sarbahal Road, Jharsuguda, Odisha 768201, India",
    "VenueCode": "CCEJ",
    "VenueName": "Chhotu Maharaj CineCafe: Jharsuguda"
  },
  "CCKS": {
    "AvailableFormats": "2D|3D",
    "City": "Surat",
    "Latitude": "21.2319",
    "Longitude": "72.8362",
    "RegionCode": "SURT",
    "State": "Gujarat",
    "SubRegionCode": "SURT",
    "VenueAddress": "6th floor, Laxmi Enclave 2, Near Gajera School, Surat, Gujarat 395004, India",
    "VenueCode": "CCKS",
    "VenueName": "Cineverse Cinema: Katargam, Surat"
  },
  "CCMU": {
    "AvailableFormats": "2D|3D",
    "City": "Mysuru (Mysore)",
    "Latitude": "12.3585",
    "Longitude": "76.6361",
    "RegionCode": "MYS",
    "State": "Karnataka",
    "SubRegionCode": "MYS",
    "VenueAddress": "No 119 Metagalli Industrial Area, Metagalli, Behind GRS Fantasy Park, Opposite J K Golden Embassy, Mysuru (Mysore), Karnataka 570016, India",
    "VenueCode": "CCMU",
    "VenueName": "Mysuru VISION Cinemas, Behind GRS Fantasy Park"
  },
  "CCPP": {
    "AvailableFormats": "2D",
    "City": "Phaltan",
    "Latitude": "17.9881",
    "Longitude": "74.4302",
    "RegionCode": "PHAL",
    "State": "Maharashtra",
    "SubRegionCode": "PHAL",
    "VenueAddress": "Namvaibhav Chitra mandir, Gajanan Chowk, Satara, Phaltan, Maharashtra 415523, India",
    "VenueCode": "CCPP",
    "VenueName": "Cinea City Pride: Phaltan"
  },
  "CCTA": {
    "AvailableFormats": "",
    "City": "Taliparamba",
    "FirstTracked": "2026-07-14",
    "Latitude": "12.034475",
    "Longitude": "75.362724",
    "RegionCode": "TALI",
    "State": "Kerala",
    "SubRegionCode": "TALI",
    "VenueAddress": "Trichambaram Temple Road, Trichambaram, Near State Bank of India, Taliparamba, Kerala 670141, India",
    "VenueCode": "CCTA",
    "VenueName": "Classic Cinema 4K Dolby Atmos: Taliparamba"
  },
  "CDRT": {
    "AvailableFormats": "",
    "City": "Dharmajigudem",
    "FirstTracked": "2026-07-14",
    "Latitude": "16.8857",
    "Longitude": "80.9918",
    "RegionCode": "ELRU",
    "State": "Andhra Pradesh",
    "SubRegionCode": "ELRU",
    "VenueAddress": "Chintalapudi - Eluru Road, Near to Primary Health Centre, Dharmajigudem, Andhra Pradesh 534462, India",
    "VenueCode": "CDRT",
    "VenueName": "SRI LAKSHMI AC 2K LASER DOLBY ATMOS: DHARMAJIGUDEM"
  },
  "CEST": {
    "AvailableFormats": "2D|3D",
    "City": "Delhi",
    "Latitude": "28.6372",
    "Longitude": "77.2869",
    "RegionCode": "NCR",
    "State": "NCR",
    "SubRegionCode": "DELHI",
    "VenueAddress": "Laxmi Nagar Commercial Complex, Swasthya Vihar, Delhi, NCR 110092, India",
    "VenueCode": "CEST",
    "VenueName": "Cinepolis: V3S East Centre (New)"
  },
  "CGCO": {
    "AvailableFormats": "",
    "City": "Olpad",
    "FirstTracked": "2026-07-14",
    "Latitude": "21.328",
    "Longitude": "72.7558",
    "RegionCode": "SURT",
    "State": "Gujarat",
    "SubRegionCode": "SURT",
    "VenueAddress": "Krishnam Arcade, Olpad-Sayan Road, Opposite Mali Fadiya, Olpad, Gujarat 394045, India",
    "VenueCode": "CGCO",
    "VenueName": "Cinemagic Cinema: Olpad"
  },
  "CGPM": {
    "AvailableFormats": "2D|3D",
    "City": "Patna",
    "Latitude": "25.6028",
    "Longitude": "85.1535",
    "RegionCode": "PATN",
    "State": "Bihar",
    "SubRegionCode": "PATN",
    "VenueAddress": "No. 294, The Gravity Mall, Old Bypass Road, Bechar Main Road, Kankarbagh, Patna, Bihar 800020, India",
    "VenueCode": "CGPM",
    "VenueName": "Cinepolis: Gravity Mall, Patna"
  },
  "CHOE": {
    "AvailableFormats": "2D",
    "City": "Vellakoil",
    "Latitude": "10.9596",
    "Longitude": "77.7168",
    "RegionCode": "VELI",
    "State": "Tamil Nadu",
    "SubRegionCode": "VELI",
    "VenueAddress": "1197/A1A2B, Kamala Mill, Bus Stop, Vellakoil, Tamil Nadu 638111, India",
    "VenueCode": "CHOE",
    "VenueName": "Chhotu Maharaj Cine Cafe: Vellakoil"
  },
  "CIBU": {
    "AvailableFormats": "",
    "City": "Baramulla",
    "FirstTracked": "2026-07-14",
    "Latitude": "34.20528",
    "Longitude": "74.34683",
    "RegionCode": "BRML",
    "State": "Jammu and Kashmir",
    "SubRegionCode": "BRML",
    "VenueAddress": "Sherwani Hall, National Highway 1A, Baramulla, Jammu and Kashmir 193101, India",
    "VenueCode": "CIBU",
    "VenueName": "Citara Cinemas: Baramulla"
  },
  "CINL": {
    "AvailableFormats": "",
    "City": "Saharanpur",
    "FirstTracked": "2026-07-14",
    "Latitude": "29.968603",
    "Longitude": "77.5315",
    "RegionCode": "SAHA",
    "State": "Uttar Pradesh",
    "SubRegionCode": "SAHA",
    "VenueAddress": "1-249, National Highway 73, Patel Nagar, Saharanpur, Uttar Pradesh 247001, India",
    "VenueCode": "CINL",
    "VenueName": "Cineluv Multiplex Cinema: Saharanpur"
  },
  "CKPP": {
    "AvailableFormats": "",
    "City": "Pune",
    "FirstTracked": "2026-07-14",
    "Latitude": "18.6373",
    "Longitude": "73.847",
    "RegionCode": "PUNE",
    "State": "Maharashtra",
    "SubRegionCode": "PUNE",
    "VenueAddress": "Plot No-87/1/5, Sector-1, 24 Proxima, Lakshmi Road Indrayani Nagar, Pune, Maharashtra 411039, India",
    "VenueCode": "CKPP",
    "VenueName": "Cinemark 24 Proxima: Indryani Nagar, Bhosari-Pune"
  },
  "CLGM": {
    "AvailableFormats": "2D",
    "City": "Bengaluru",
    "Latitude": "12.9817",
    "Longitude": "77.5638",
    "RegionCode": "BANG",
    "State": "Karnataka",
    "SubRegionCode": "BANG",
    "VenueAddress": "3rd Floor, Lulu Mall, Rajajinagar, Bengaluru, Karnataka 560023, India",
    "VenueCode": "CLGM",
    "VenueName": "Cinepolis: Lulu Mall, Bengaluru"
  },
  "CLTP": {
    "AvailableFormats": "",
    "City": "Pune",
    "FirstTracked": "2026-07-14",
    "Latitude": "18.4768",
    "Longitude": "73.9083",
    "RegionCode": "PUNE",
    "State": "Maharashtra",
    "SubRegionCode": "PUNE",
    "VenueAddress": "1st Floor, Tribeca Highstreet, NIBM Post Office Road, Pune, Maharashtra 411048, India",
    "VenueCode": "CLTP",
    "VenueName": "Connplex Cinemas (Luxuriance): Tribeca Highstreet"
  },
  "CMDA": {
    "AvailableFormats": "",
    "City": "Dahod",
    "FirstTracked": "2026-07-14",
    "Latitude": "22.841972",
    "Longitude": "74.250916",
    "RegionCode": "DAHO",
    "State": "Gujarat",
    "SubRegionCode": "DAHO",
    "VenueAddress": "GLK Tower, Godi Road, Mohammadi Society, Alefiya Colony, Near Hotel Laxmiinn, Dahod, Gujarat 389151, India",
    "VenueCode": "CMDA",
    "VenueName": "Cinemera Multiplex: Dahod"
  },
  "CMMK": {
    "AvailableFormats": "2D",
    "City": "Medak",
    "Latitude": "18.0507",
    "Longitude": "78.2634",
    "RegionCode": "NRPR",
    "State": "Telangana",
    "SubRegionCode": "NRPR",
    "VenueAddress": "Chaman Road, Fathe Nagar, Thimmaipalli, Medak, Telangana 502110, India",
    "VenueCode": "CMMK",
    "VenueName": "Cinemax Theatre: Medak"
  },
  "CMSG": {
    "AvailableFormats": "2D",
    "City": "Suriya",
    "Latitude": "24.1623",
    "Longitude": "85.8825",
    "RegionCode": "GIRI",
    "State": "Jharkhand",
    "SubRegionCode": "GIRI",
    "VenueAddress": "Rajdhanwar Road, Bank of India, Barki Suriya, Suriya, Jharkhand 825320, India",
    "VenueCode": "CMSG",
    "VenueName": "Chhotu Maharaj Cine Cafe: Suriya, Giridi"
  },
  "CMVP": {
    "AvailableFormats": "2D",
    "City": "Pune",
    "Latitude": "18.7887",
    "Longitude": "73.7717",
    "RegionCode": "PUNE",
    "State": "Maharashtra",
    "SubRegionCode": "PUNE",
    "VenueAddress": "Ground, Plot No.PAP-V-74, Vasuli, Chakan MIDC, Phase 2, Khed, Pune, Maharashtra 410501, India",
    "VenueCode": "CMVP",
    "VenueName": "Chhotu Maharaj Cine Cafe, Vasuli Phata: Pune"
  },
  "CNCL": {
    "AvailableFormats": "2D",
    "City": "Lonavala",
    "Latitude": "18.747",
    "Longitude": "73.409",
    "RegionCode": "LNVL",
    "State": "Maharashtra",
    "SubRegionCode": "LNVL",
    "VenueAddress": "Neelkamal, Siddharth Nagar, Near DTDC - Pune-Lonavala, Lonavala, Maharashtra 410401, India",
    "VenueCode": "CNCL",
    "VenueName": "Cinebliss Neelkamal Cinema: Lonavala"
  },
  "CNGE": {
    "AvailableFormats": "2D",
    "City": "Trivandrum",
    "Latitude": "8.57061",
    "Longitude": "76.8841",
    "RegionCode": "VKAL",
    "State": "Kerala",
    "SubRegionCode": "VKAL",
    "VenueAddress": "Green Field Stadium, Karyavattom.P.O, Near The Sports Hub, Trivandrum, Kerala 695581, India",
    "VenueCode": "CNGE",
    "VenueName": "Greenfield Moviemax Cinemas: Trivandrum"
  },
  "CNPT": {
    "AvailableFormats": "2D",
    "City": "Tirupur",
    "Latitude": "11.0989",
    "Longitude": "77.3775",
    "RegionCode": "TIRP",
    "State": "Tamil Nadu",
    "SubRegionCode": "TIRP",
    "VenueAddress": "Rakkiapalayam Road, Cheran Nagar, Valliammai Nagar, Near Hp Petrol Pump, Tirupur, Tamil Nadu 641606, India",
    "VenueCode": "CNPT",
    "VenueName": "Cine Park Theatre: Tirupur"
  },
  "CNVS": {
    "AvailableFormats": "2D",
    "City": "Surat",
    "Latitude": "21.1484",
    "Longitude": "72.7747",
    "RegionCode": "SURT",
    "State": "Gujarat",
    "SubRegionCode": "SURT",
    "VenueAddress": "4th Floor, Atlanta Shoppers, Vesu, Near Reliance Market, Surat, Gujarat 395007, India",
    "VenueCode": "CNVS",
    "VenueName": "Cineverse Cinema: Vesu"
  },
  "COOC": {
    "AvailableFormats": "2D|3D",
    "City": "Chandannagar",
    "Latitude": "22.8606",
    "Longitude": "88.3693",
    "RegionCode": "CHDD",
    "State": "West Bengal",
    "SubRegionCode": "CHDD",
    "VenueAddress": "Barabazar, Burabazar Main Road, Chandannagar, West Bengal 712136, India",
    "VenueCode": "COOC",
    "VenueName": "Cinema Hut: Chandannagar"
  },
  "CPCL": {
    "AvailableFormats": "2D|3D",
    "City": "Hyderabad",
    "Latitude": "17.4572",
    "Longitude": "78.5369",
    "RegionCode": "HYD",
    "State": "Telangana",
    "SubRegionCode": "HYD",
    "VenueAddress": "CCPL Mall, Malkajgiri Road, Vimala Devi Nagar Colony, Malkajgiri, Hyderabad, Telangana 500047, India",
    "VenueCode": "CPCL",
    "VenueName": "Cinepolis: CCPL Mall Malkajgiri, Hyderabad"
  },
  "CPHY": {
    "AvailableFormats": "2D",
    "City": "Hyderabad",
    "Latitude": "17.5296",
    "Longitude": "78.4858",
    "RegionCode": "HYD",
    "State": "Telangana",
    "SubRegionCode": "HYD",
    "VenueAddress": "Satyam Enclave, Medchal Road, Kompally, Hyderabad, Telangana 500014, India",
    "VenueCode": "CPHY",
    "VenueName": "Asian Cineplanet Multiplex: Kompally"
  },
  "CPLC": {
    "AvailableFormats": "2D",
    "City": "Ahmedabad",
    "Latitude": "23.092",
    "Longitude": "72.6865",
    "RegionCode": "AHD",
    "State": "Gujarat",
    "SubRegionCode": "AHD",
    "VenueAddress": "601, Sixth Floor, Vishala Empire, Naroda Dehgam Circle, SP Ring Road, Near Muthia Toll Tax, Ahmedabad, Gujarat 382330, India",
    "VenueCode": "CPLC",
    "VenueName": "Cineprime Cinema: Luxuriance, Hanspura"
  },
  "CPNL": {
    "AvailableFormats": "2D|3D",
    "City": "Ludhiana",
    "Latitude": "30.8826",
    "Longitude": "75.782",
    "RegionCode": "LUDH",
    "State": "Punjab",
    "SubRegionCode": "LUDH",
    "VenueAddress": "2nd Floor, MBD Neopolis Mall, Ferozepur Road, Ludhiana, Punjab 141004, India",
    "VenueCode": "CPNL",
    "VenueName": "Cinepolis: Nexus MBD, Ludhiana"
  },
  "CPRT": {
    "AvailableFormats": "2D|3D",
    "City": "Ratnagiri",
    "Latitude": "16.9915",
    "Longitude": "73.3238",
    "RegionCode": "RATN",
    "State": "Maharashtra",
    "SubRegionCode": "RATN",
    "VenueAddress": "Siddhivinayak City Center, Shivajinagar, Ratnagiri, Maharashtra 415612, India",
    "VenueCode": "CPRT",
    "VenueName": "City Pride Multiplex: Shivaji Nagar, Ratnagiri"
  },
  "CPVJ": {
    "AvailableFormats": "3D|2D",
    "City": "Vijayawada",
    "Latitude": "16.5024",
    "Longitude": "80.6424",
    "RegionCode": "KADU",
    "State": "Andhra Pradesh",
    "SubRegionCode": "KADU",
    "VenueAddress": "4th Floor, PVP Square Mall, Mahatma Gandhi Road, Labbipet, Mogalrajapuram, Vijayawada, Andhra Pradesh 520010, India",
    "VenueCode": "CPVJ",
    "VenueName": "Cinepolis: PVP Square Mall, Vijayawada"
  },
  "CRPR": {
    "AvailableFormats": "2D",
    "City": "Puthoor",
    "Latitude": "9.040496",
    "Longitude": "76.715786",
    "RegionCode": "PUTR",
    "State": "Kerala",
    "SubRegionCode": "PUTR",
    "VenueAddress": "Cheerankavu, Maranadu, Puthoor, Kerala 691507, India",
    "VenueCode": "CRPR",
    "VenueName": "Chellam Theatre 4K Laser Dolby Atmos: Puthoor"
  },
  "CSEP": {
    "AvailableFormats": "2D",
    "City": "Ahmedabad",
    "Latitude": "23.0189",
    "Longitude": "72.5564",
    "RegionCode": "AHD",
    "State": "Gujarat",
    "SubRegionCode": "AHD",
    "VenueAddress": "Parimal Garden, Chimanlal Girdharlal R, Besides Ambuja House Oppo, Ahmedabad, Gujarat 380006, India",
    "VenueCode": "CSEP",
    "VenueName": "Connplex Cinemas: Parimal"
  },
  "CSSL": {
    "AvailableFormats": "2D",
    "City": "Asansol",
    "Latitude": "23.7034",
    "Longitude": "86.9483",
    "RegionCode": "ASANSOL",
    "State": "West Bengal",
    "SubRegionCode": "ASANSOL",
    "VenueAddress": "Sentrum Mall, Lions Club Road, Shristinagar, Asansol, West Bengal 713305, India",
    "VenueCode": "CSSL",
    "VenueName": "CineCosmo: Sentrum Mall, Asansol"
  },
  "CSUB": {
    "AvailableFormats": "2D",
    "City": "Cumbum",
    "Latitude": "9.75236",
    "Longitude": "77.2795",
    "RegionCode": "CMBM",
    "State": "Tamil Nadu",
    "SubRegionCode": "CMBM",
    "VenueAddress": "1587/3A, RJMS Danube Building, Uthamapuram, Theni, Cumbum, Tamil Nadu 625516, India",
    "VenueCode": "CSUB",
    "VenueName": "Cine Square Cinemas 2K DOLBY A/C: Cumbum"
  },
  "CTMG": {
    "AvailableFormats": "2D",
    "City": "Mundargi",
    "Latitude": "15.199",
    "Longitude": "75.8778",
    "RegionCode": "MNDR",
    "State": "Karnataka",
    "SubRegionCode": "MNDR",
    "VenueAddress": "O Block No.27, No.22, Shrihatti Road, District Gadag, Mundargi, Karnataka 582118, India",
    "VenueCode": "CTMG",
    "VenueName": "Chhotu Maharaj CineCafe: Mundargi,Karnataka"
  },
  "CTPR": {
    "AvailableFormats": "",
    "City": "Puthoor",
    "FirstTracked": "2026-07-14",
    "Latitude": "9.040554",
    "Longitude": "76.7158",
    "RegionCode": "PUTR",
    "State": "Kerala",
    "SubRegionCode": "PUTR",
    "VenueAddress": "Cheerankavu - Maranadu - Puthoor Road, Near St. Kuriakose Orthodox Syrian Church, Puthoor, Kerala 691507, India",
    "VenueCode": "CTPR",
    "VenueName": "Chellam Theatre: Puthoor"
  },
  "CUJC": {
    "AvailableFormats": "2D",
    "City": "Hisar",
    "Latitude": "29.0998",
    "Longitude": "75.9068",
    "RegionCode": "HISR",
    "State": "Haryana",
    "SubRegionCode": "HISR",
    "VenueAddress": "Green Valley Lodge, Delhi Hisar Road, Indian Oil Petrol Pump, Hansi, Near Miyar Toll Plaza, Hisar, Haryana 125033, India",
    "VenueCode": "CUJC",
    "VenueName": "Chhotu Maharaj Cine Cafe: Hansi"
  },
  "CVRN": {
    "AvailableFormats": "3D|2D",
    "City": "Nagpur",
    "Latitude": "21.1327",
    "Longitude": "79.0957",
    "RegionCode": "NAGP",
    "State": "Maharashtra",
    "SubRegionCode": "NAGP",
    "VenueAddress": "City Survey No. 362/1, Ward No 90 (New), Mouza Jat - Tarodi, Near Medical Square, Rambagh Road, Nagpur, Maharashtra 440003, India",
    "VenueCode": "CVRN",
    "VenueName": "Cinepolis: VR Mall, Nagpur"
  },
  "CXKR": {
    "AvailableFormats": "2D",
    "City": "Rourkela",
    "Latitude": "22.2342",
    "Longitude": "84.8724",
    "RegionCode": "RKOR",
    "State": "Odisha",
    "SubRegionCode": "RKOR",
    "VenueAddress": "Railway Colony, Ring Road, Rourkela, Odisha 769001, India",
    "VenueCode": "CXKR",
    "VenueName": "Cineplexx: Beside Hotel Deepti, Rourkela"
  },
  "CZZA": {
    "AvailableFormats": "",
    "City": "Anand",
    "FirstTracked": "2026-07-14",
    "Latitude": "22.567154",
    "Longitude": "72.94332",
    "RegionCode": "AND",
    "State": "Gujarat",
    "SubRegionCode": "AND",
    "VenueAddress": "Lambhvel Road, Opposite New Sanket, Purushottam Nagar, Anand, Gujarat 388001, India",
    "VenueCode": "CZZA",
    "VenueName": "Infinity Cinemas: Anand"
  },
  "DCBH": {
    "AvailableFormats": "2D",
    "City": "Bargarh",
    "Latitude": "21.3315",
    "Longitude": "83.6185",
    "RegionCode": "BARG",
    "State": "Odisha",
    "SubRegionCode": "BARG",
    "VenueAddress": "Haat Padaa Road, Near Sai Temple, Next To State Bank Of India, Bargarh, Odisha 768028, India",
    "VenueCode": "DCBH",
    "VenueName": "Deepali Cinemax: Bargarh"
  },
  "DCKC": {
    "AvailableFormats": "2D",
    "City": "Kanichar",
    "Latitude": "11.9054",
    "Longitude": "75.7844",
    "RegionCode": "KANC",
    "State": "Kerala",
    "SubRegionCode": "KANC",
    "VenueAddress": "Dev Associates, Kottiyar Road, Kanichar, Near Kanichar Sree Subrahmanya Temple, Kanichar, Kerala 670674, India",
    "VenueCode": "DCKC",
    "VenueName": "Dev Cinemas: Kanichar"
  },
  "DCTW": {
    "AvailableFormats": "2D",
    "City": "Thane",
    "Latitude": "19.254465",
    "Longitude": "72.985121",
    "RegionCode": "THNE",
    "State": "Maharashtra",
    "SubRegionCode": "THNE",
    "VenueAddress": "Hiranandani Estate, Villa Grand Road, Thane, Maharashtra 400607, India",
    "VenueCode": "DCTW",
    "VenueName": "Devgn CineX: The Walk, Thane"
  },
  "DEES": {
    "AvailableFormats": "2D",
    "City": "Markapur",
    "Latitude": "15.7435",
    "Longitude": "79.2716",
    "RegionCode": "MARK",
    "State": "Andhra Pradesh",
    "SubRegionCode": "MARK",
    "VenueAddress": "Bharathi Vidya Nikethan Road, Near Viswa Shanthi School Hostel, Markapur, Andhra Pradesh 523316, India",
    "VenueCode": "DEES",
    "VenueName": "Jagadeeswari Theatre A/C 4K Dolby Atmos: Markapur"
  },
  "DGCA": {
    "AvailableFormats": "2D",
    "City": "Rangia",
    "Latitude": "26.4422",
    "Longitude": "91.6094",
    "RegionCode": "RAAA",
    "State": "Assam",
    "SubRegionCode": "RAAA",
    "VenueAddress": "Ward No. 2, Station Road, Kamrup, Rangia, Assam 781365, India",
    "VenueCode": "DGCA",
    "VenueName": "Delight Gold Cinema Hall: Rangia"
  },
  "DJYA": {
    "AvailableFormats": "2D",
    "City": "Angul",
    "Latitude": "20.8326",
    "Longitude": "85.0889",
    "RegionCode": "ANGL",
    "State": "Odisha",
    "SubRegionCode": "ANGL",
    "VenueAddress": "Hatisalapada, National Highway 42, Angul, Odisha 759106, India",
    "VenueCode": "DJYA",
    "VenueName": "Divyajyoti Multiplex 2 (Dolby Atmos): Angul"
  },
  "DMAN": {
    "AvailableFormats": "2D",
    "City": "Anand",
    "Latitude": "22.5632",
    "Longitude": "72.9527",
    "RegionCode": "PETL",
    "State": "Gujarat",
    "SubRegionCode": "PETL",
    "VenueAddress": "100 Feet Road, Beside Vegetable Market, Ganesh Colony, Anand, Gujarat 388001, India",
    "VenueCode": "DMAN",
    "VenueName": "Diya Cinema: Anand"
  },
  "DNKM": {
    "AvailableFormats": "2D",
    "City": "Kollam",
    "Latitude": "8.89143",
    "Longitude": "76.6034",
    "RegionCode": "KOLM",
    "State": "Kerala",
    "SubRegionCode": "KOLM",
    "VenueAddress": "Kadapakkada, Kappalandimukku - Kadappakkada Road, Near The Hindu News Paper, Kollam, Kerala 691008, India",
    "VenueCode": "DNKM",
    "VenueName": "Dhanya Remya: Kollam"
  },
  "DRCR": {
    "AvailableFormats": "",
    "City": "Mansa",
    "FirstTracked": "2026-07-14",
    "Latitude": "30.020473",
    "Longitude": "75.39797",
    "RegionCode": "MNSA",
    "State": "Punjab",
    "SubRegionCode": "MNSA",
    "VenueAddress": "Grand Mall, Barnala - Mansa Sisra Road, Near Nehru Collage, Mansa, Punjab 151505, India",
    "VenueCode": "DRCR",
    "VenueName": "Dream Reality Cinema: Mansa"
  },
  "DTCK": {
    "AvailableFormats": "2D",
    "City": "Kalimpong",
    "Latitude": "27.0648",
    "Longitude": "88.4667",
    "RegionCode": "KALI",
    "State": "West Bengal",
    "SubRegionCode": "KALI",
    "VenueAddress": "9th Mile, Trimoti Shopping complex, Mongbol Busty, Alipurduar Road, Rishi Road, Near Hotel Jiwan Jyoti, Kalimpong, West Bengal 734301, India",
    "VenueCode": "DTCK",
    "VenueName": "Dream Theatre Cineplex: Kalimpong"
  },
  "DURG": {
    "AvailableFormats": "2D",
    "City": "Banki",
    "Latitude": "20.3791",
    "Longitude": "85.531",
    "RegionCode": "BANK",
    "State": "Odisha",
    "SubRegionCode": "BANK",
    "VenueAddress": "Near SBI Bank, Cuttack - Banki Road, Banki, Odisha 754008, India",
    "VenueCode": "DURG",
    "VenueName": "Durga Talkies: Banki"
  },
  "DYPK": {
    "AvailableFormats": "3D|2D",
    "City": "Kolhapur",
    "Latitude": "16.7035",
    "Longitude": "74.2503",
    "RegionCode": "KOLH",
    "State": "Maharashtra",
    "SubRegionCode": "KOLH",
    "VenueAddress": "DYP City Mall, 3rd Floor, 2104/5, E-Ward, Near Opal Hotel, Kavala Naka, Kolhapur, Maharashtra 416003, India",
    "VenueCode": "DYPK",
    "VenueName": "PVR: DYP City, Kolhapur"
  },
  "ECRR": {
    "AvailableFormats": "2D",
    "City": "Ramgarh",
    "Latitude": "23.6398",
    "Longitude": "85.5119",
    "RegionCode": "GGHH",
    "State": "Jharkhand",
    "SubRegionCode": "GGHH",
    "VenueAddress": "Emvee Square, Opposite FBB, Near Balaji Bazar, Ramgarh Cantonment, Ramgarh, Jharkhand 829122, India",
    "VenueCode": "ECRR",
    "VenueName": "Eylex Cinemas: Ramgarh"
  },
  "ELKC": {
    "AvailableFormats": "2D",
    "City": "Koderma",
    "Latitude": "24.4367",
    "Longitude": "85.5349",
    "RegionCode": "KODZ",
    "State": "Jharkhand",
    "SubRegionCode": "KODZ",
    "VenueAddress": "Eylex Cinemas, Jhumri Telaiya, Ujala complex, Ranchi Patna Road, Koderma, Jharkhand 825409, India",
    "VenueCode": "ELKC",
    "VenueName": "Eylex Cinemas: Jhumri Telaiya, Koderma"
  },
  "EMPS": {
    "AvailableFormats": "2D|3D",
    "City": "Gurugram (Gurgaon)",
    "Latitude": "28.4157",
    "Longitude": "76.963",
    "RegionCode": "NCR",
    "State": "NCR",
    "SubRegionCode": "GURG",
    "VenueAddress": "3rd Floor, Elan Miracle, Dwarka Expressway, Sector 84, Gurugram (Gurgaon), NCR 122004, India",
    "VenueCode": "EMPS",
    "VenueName": "PVR: Elan Miracle, Sec 84, Gurugram"
  },
  "ESBW": {
    "AvailableFormats": "2D|3D",
    "City": "Pune",
    "Latitude": "18.5471",
    "Longitude": "73.9294",
    "RegionCode": "PUNE",
    "State": "Maharashtra",
    "SubRegionCode": "PUNE",
    "VenueAddress": "Old Mundhwa Road, Sector Number 3, Maruti Nagar, Kharadi, Wadgaon Sheri Bypass, Pune, Maharashtra 411014, India",
    "VenueCode": "ESBW",
    "VenueName": "Bollywood Multiplex: Kharadi"
  },
  "ESYL": {
    "AvailableFormats": "",
    "City": "Latur",
    "FirstTracked": "2026-07-14",
    "Latitude": "18.40879",
    "Longitude": "76.56909",
    "RegionCode": "LAT",
    "State": "Maharashtra",
    "SubRegionCode": "LAT",
    "VenueAddress": "Papvinash Mandir Road, Vyankatesh Nagar, Sawe Wadi, Near Old Renapur Naka, Latur, Maharashtra 413512, India",
    "VenueCode": "ESYL",
    "VenueName": "E-SQUARE Yashoda: Latur"
  },
  "EXCA": {
    "AvailableFormats": "2D",
    "City": "Ahilyanagar (Ahmednagar)",
    "Latitude": "19.3845",
    "Longitude": "74.7821",
    "RegionCode": "AHMED",
    "State": "Maharashtra",
    "SubRegionCode": "AHMED",
    "VenueAddress": "Kalyanam Lawns, A/P: Wanjarwadi Sonai, Tal: Nevasa, Ahilyanagar (Ahmednagar), Maharashtra 414105, India",
    "VenueCode": "EXCA",
    "VenueName": "Eylex Cinema: Sonai"
  },
  "FCLK": {
    "AvailableFormats": "2D",
    "City": "Lakhimpur Kheri",
    "Latitude": "27.9286",
    "Longitude": "80.7807",
    "RegionCode": "LKPK",
    "State": "Uttar Pradesh",
    "SubRegionCode": "LKPK",
    "VenueAddress": "Maharaj Nagar, LRP Road, Fun Mall, Lakhimpur Kheri, Uttar Pradesh 262701, India",
    "VenueCode": "FCLK",
    "VenueName": "Fun Cinemas: Lakhimpur Kheri"
  },
  "FDDH": {
    "AvailableFormats": "2D",
    "City": "Etawah",
    "Latitude": "26.7709",
    "Longitude": "79.0256",
    "RegionCode": "ETWH",
    "State": "Uttar Pradesh",
    "SubRegionCode": "ETWH",
    "VenueAddress": "Ram Lila Road, Anand Nagar, Lalpura, Etawah, Uttar Pradesh 206001, India",
    "VenueCode": "FDDH",
    "VenueName": "Fun DD Cinema: Etawah"
  },
  "FMJP": {
    "AvailableFormats": "3D|2D",
    "City": "Pune",
    "Latitude": "18.6486",
    "Longitude": "73.7847",
    "RegionCode": "PUNE",
    "State": "Maharashtra",
    "SubRegionCode": "PUNE",
    "VenueAddress": "Jai Ganesh Vision Mall, Akurdi Chowk, Ganga Nagar, Behind Greaves Cotton Company, Pune, Maharashtra 411035, India",
    "VenueCode": "FMJP",
    "VenueName": "INOX: Jai Ganesh, Akurdi"
  },
  "FNAM": {
    "AvailableFormats": "2D|3D",
    "City": "Ambala",
    "Latitude": "30.3743",
    "Longitude": "76.7822",
    "RegionCode": "AMB",
    "State": "Haryana",
    "SubRegionCode": "AMB",
    "VenueAddress": "Sector-7, Opposite Police Lines, Ambala, Haryana 134003, India",
    "VenueCode": "FNAM",
    "VenueName": "Fun Cinemas: Galaxy Mall, Ambala"
  },
  "FNDB": {
    "AvailableFormats": "2D|3D",
    "City": "Dibrugarh",
    "Latitude": "27.4801",
    "Longitude": "94.9053",
    "RegionCode": "DIB",
    "State": "Assam",
    "SubRegionCode": "DIB",
    "VenueAddress": "RKB, RKB Path, Sohum Mal, Dibrugarh, Assam 786001, India",
    "VenueCode": "FNDB",
    "VenueName": "Galleria Cinema: Junction Mall, Dibrugarh"
  },
  "FPKA": {
    "AvailableFormats": "2D",
    "City": "Kotkapura",
    "Latitude": "30.592",
    "Longitude": "74.8582",
    "RegionCode": "KOTK",
    "State": "Punjab",
    "SubRegionCode": "KOTK",
    "VenueAddress": "Moga Road, Kotkapura HO, Kotkapura, Punjab 151204, India",
    "VenueCode": "FPKA",
    "VenueName": "Fun Plaza: Kotkapura"
  },
  "FSCW": {
    "AvailableFormats": "2D",
    "City": "Pune",
    "Latitude": "18.5125",
    "Longitude": "73.6747",
    "RegionCode": "PUNE",
    "State": "Maharashtra",
    "SubRegionCode": "PUNE",
    "VenueAddress": "Ghotawade Phata, Pirangut, Pune, Maharashtra 412115, India",
    "VenueCode": "FSCW",
    "VenueName": "Funsquare Cinema: Ghotawade Phata"
  },
  "GABA": {
    "AvailableFormats": "2D",
    "City": "Babra",
    "Latitude": "21.8448",
    "Longitude": "71.3052",
    "RegionCode": "BABT",
    "State": "Gujarat",
    "SubRegionCode": "BABT",
    "VenueAddress": "City Survey No. 2791, Patidar Complex, Bhavnagar Road, Kalal Chowk Babra Amreli, Babra, Gujarat 365421, India",
    "VenueCode": "GABA",
    "VenueName": "Galaxy Cinema: Babra"
  },
  "GATH": {
    "AvailableFormats": "2D",
    "City": "Athagarh",
    "Latitude": "20.5146",
    "Longitude": "85.622",
    "RegionCode": "ATHG",
    "State": "Odisha",
    "SubRegionCode": "ATHG",
    "VenueAddress": "Near Lord Shiva Temple, Dorada Road, Athagarh, Odisha 754029, India",
    "VenueCode": "GATH",
    "VenueName": "Ganesh Talkies: Athagarh"
  },
  "GCAK": {
    "AvailableFormats": "2D",
    "City": "Kothamangalam",
    "Latitude": "10.0634",
    "Longitude": "76.6279",
    "RegionCode": "KTMM",
    "State": "Kerala",
    "SubRegionCode": "KTMM",
    "VenueAddress": "Hotel Kavery Road, Kothamangalam, Near State Bank Of India Kothamangalam Branch, Kothamangalam, Kerala 686666, India",
    "VenueCode": "GCAK",
    "VenueName": "G Cinemas: Kothamangalam 4K 3D Dolby Atmos"
  },
  "GCDM": {
    "AvailableFormats": "2D|3D",
    "City": "Mumbai",
    "Latitude": "19.2229",
    "Longitude": "73.0853",
    "RegionCode": "MUMBAI",
    "State": "Maharashtra",
    "SubRegionCode": "MCENT",
    "VenueAddress": "Vishnu Nagar, Nana Shanker Seth Road, Dombivali West, Near Fish Market, Mumbai, Maharashtra 421202, India",
    "VenueCode": "GCDM",
    "VenueName": "Gopi Cinema: Dombivali"
  },
  "GCGP": {
    "AvailableFormats": "2D|3D",
    "City": "Silchar",
    "Latitude": "24.8229",
    "Longitude": "92.8001",
    "RegionCode": "SIL",
    "State": "Assam",
    "SubRegionCode": "SIL",
    "VenueAddress": "Gold Digital Cinema, Goldighi Municipal Mall, Nazirpatty, Silchar, Assam 788001, India",
    "VenueCode": "GCGP",
    "VenueName": "Gold Cinema: Goldighi Municipal Mall, Silchar"
  },
  "GCMI": {
    "AvailableFormats": "2D",
    "City": "Mangaldoi",
    "Latitude": "26.4506",
    "Longitude": "92.0291",
    "RegionCode": "MANG",
    "State": "Assam",
    "SubRegionCode": "MANG",
    "VenueAddress": "Mangaldai Bhutiachang Road, No.1 Bezpara, Opposite Maa Bhandar, Mangaldoi, Assam 784125, India",
    "VenueCode": "GCMI",
    "VenueName": "Gold Cinema: Mangaldoi"
  },
  "GCSE": {
    "AvailableFormats": "2D",
    "City": "Hooghly",
    "Latitude": "22.7538",
    "Longitude": "88.3401",
    "RegionCode": "CHDD",
    "State": "West Bengal",
    "SubRegionCode": "CHDD",
    "VenueAddress": "180 N.S. Avenue, 3rd Floor Manasi Bazar, Near Bawarchi Biryani, Hooghly, West Bengal 712201, India",
    "VenueCode": "GCSE",
    "VenueName": "Goodwin Cineplex: Serampore"
  },
  "GDAW": {
    "AvailableFormats": "2D",
    "City": "Alwar",
    "Latitude": "27.5806",
    "Longitude": "76.6156",
    "RegionCode": "ALWR",
    "State": "Rajasthan",
    "SubRegionCode": "ALWR",
    "VenueAddress": "Near, Jail Circle, Cross Point Mall, Alwar, Rajasthan 301001, India",
    "VenueCode": "GDAW",
    "VenueName": "Gold Cinema: Alwar Crosspoint Mall"
  },
  "GDCV": {
    "AvailableFormats": "2D",
    "City": "Vidisha",
    "Latitude": "23.5086",
    "Longitude": "77.7824",
    "RegionCode": "VIDI",
    "State": "Madhya Pradesh",
    "SubRegionCode": "VIDI",
    "VenueAddress": "Sanchi Road, Rangai, Karaiya Haweli, Vidisha, Madhya Pradesh 464001, India",
    "VenueCode": "GDCV",
    "VenueName": "Gold Cinema: Vidisha"
  },
  "GDTY": {
    "AvailableFormats": "2D",
    "City": "Bengaluru",
    "Latitude": "13.0216",
    "Longitude": "77.5513",
    "RegionCode": "BANG",
    "State": "Karnataka",
    "SubRegionCode": "BANG",
    "VenueAddress": "46/2, Industrial Surab, Tumkur Road, Yeshwanthpur, Near Yeshwantpur Railway Station, Bengaluru, Karnataka 560022, India",
    "VenueCode": "GDTY",
    "VenueName": "Goverdhan Theatre: Yeshwantpur"
  },
  "GGCV": {
    "AvailableFormats": "2D",
    "City": "Vapi",
    "Latitude": "20.3756",
    "Longitude": "72.9212",
    "RegionCode": "VAPI",
    "State": "Gujarat",
    "SubRegionCode": "VAPI",
    "VenueAddress": "CM O No 11, Geet Cinema, Gunjan Road, GIDC, Vapi, Gujarat 396195, India",
    "VenueCode": "GGCV",
    "VenueName": "Gunjan Geet Cinema: Vapi"
  },
  "GIBH": {
    "AvailableFormats": "2D",
    "City": "Bharuch",
    "Latitude": "21.701",
    "Longitude": "72.9914",
    "RegionCode": "BHAR",
    "State": "Gujarat",
    "SubRegionCode": "BHAR",
    "VenueAddress": "2nd Floor,Shalimar Mall, Railway Station Road, Bharuch, Gujarat 392001, India",
    "VenueCode": "GIBH",
    "VenueName": "Gold Cinema, Shalimar: Bharuch"
  },
  "GLCA": {
    "AvailableFormats": "2D",
    "City": "Agra",
    "Latitude": "27.2009",
    "Longitude": "78.0089",
    "RegionCode": "AGRA",
    "State": "Uttar Pradesh",
    "SubRegionCode": "AGRA",
    "VenueAddress": "7th Floor, Ashok Cosmos Mall, 119/8-120/8, Sanjay Place, Wazirpura Road, Agra, Uttar Pradesh 282002, India",
    "VenueCode": "GLCA",
    "VenueName": "Gold Cinema: Agra"
  },
  "GMKU": {
    "AvailableFormats": "2D",
    "City": "Kollam",
    "Latitude": "8.88947",
    "Longitude": "76.5868",
    "RegionCode": "KOLM",
    "State": "Kerala",
    "SubRegionCode": "KOLM",
    "VenueAddress": "Poilakada Road, Parmeswar Nagar, Kollam, Kerala 691001, India",
    "VenueCode": "GMKU",
    "VenueName": "Gmax 4k Utsav Aradhana Complex"
  },
  "GOLC": {
    "AvailableFormats": "",
    "City": "Jaipur",
    "FirstTracked": "2026-07-14",
    "Latitude": "26.917025",
    "Longitude": "75.82133",
    "RegionCode": "JAIP",
    "State": "Rajasthan",
    "SubRegionCode": "JAIP",
    "VenueAddress": "New Gate, SMS Highway, Bapu Bazar, Chaura Rasta, Jaipur, Rajasthan 302003, India",
    "VenueCode": "GOLC",
    "VenueName": "Golcha Cinema: Jaipur"
  },
  "GPMF": {
    "AvailableFormats": "2D",
    "City": "Faridkot",
    "Latitude": "30.6768",
    "Longitude": "74.7611",
    "RegionCode": "DKOT",
    "State": "Punjab",
    "SubRegionCode": "DKOT",
    "VenueAddress": "Gills Palace, Circular Road, Balbir Basti, Faridkot, Punjab 151203, India",
    "VenueCode": "GPMF",
    "VenueName": "Gill Plaza Multiplex: Faridkot"
  },
  "GRGA": {
    "AvailableFormats": "3D|2D",
    "City": "Guwahati",
    "Latitude": "26.1288",
    "Longitude": "91.811",
    "RegionCode": "GUW",
    "State": "Assam",
    "SubRegionCode": "GUW",
    "VenueAddress": "6th Floor, NRB City Mall, GS Raod, Sixmile, Khanapara, Guwahati, Assam 781022, India",
    "VenueCode": "GRGA",
    "VenueName": "Grand Royal Cines, Sixmile: Guwahati"
  },
  "GTAD": {
    "AvailableFormats": "2D",
    "City": "Yerragondapalem",
    "Latitude": "16.04",
    "Longitude": "79.3096",
    "RegionCode": "YERA",
    "State": "Andhra Pradesh",
    "SubRegionCode": "YERA",
    "VenueAddress": "28R5+2V6, Yerragondapalem, Yerragondapalem, Andhra Pradesh 523327, India",
    "VenueCode": "GTAD",
    "VenueName": "Gayathri Theater 2K Dolby: Yerragondapalem"
  },
  "GTEM": {
    "AvailableFormats": "2D",
    "City": "Mandya",
    "Latitude": "12.5279",
    "Longitude": "76.8884",
    "RegionCode": "MND",
    "State": "Karnataka",
    "SubRegionCode": "MND",
    "VenueAddress": "National Highway 275, BM Road, Mandya, Karnataka 571401, India",
    "VenueCode": "GTEM",
    "VenueName": "Theatre Gurushree 2K: Mandya"
  },
  "GTUR": {
    "AvailableFormats": "2D",
    "City": "Tezpur",
    "Latitude": "26.6311",
    "Longitude": "92.8103",
    "RegionCode": "TEZP",
    "State": "Assam",
    "SubRegionCode": "TEZP",
    "VenueAddress": "Arhaans Royal Sensation, Barikachuburi, Near LGBRIMH New Gate, Ex Police Line Road, Tezpur, Assam 784001, India",
    "VenueCode": "GTUR",
    "VenueName": "Gold Cinema: Tezpur"
  },
  "GYBU": {
    "AvailableFormats": "2D|3D",
    "City": "Bengaluru",
    "Latitude": "13.0977",
    "Longitude": "77.5839",
    "RegionCode": "HOKT",
    "State": "Karnataka",
    "SubRegionCode": "HOKT",
    "VenueAddress": "INOX Leisure Ltd, 4th Floor, Garuda Yelahanka, 1st A Main Road, Yelahanka New Town, Bengaluru, Karnataka 560064, India",
    "VenueCode": "GYBU",
    "VenueName": "INOX: Garuda Yelahanka, Bengaluru"
  },
  "HCAJ": {
    "AvailableFormats": "2D",
    "City": "Jewar",
    "Latitude": "28.1206",
    "Longitude": "77.5563",
    "RegionCode": "JEWR",
    "State": "Uttar Pradesh",
    "SubRegionCode": "JEWR",
    "VenueAddress": "Amba Mall, Goyal Bhawan, Khurja Road, Noida, Opposite HDFC Bank, Jewar, Uttar Pradesh 203135, India",
    "VenueCode": "HCAJ",
    "VenueName": "Amba Cineplex: Jewar"
  },
  "HGSM": {
    "AvailableFormats": "2D",
    "City": "Muvattupuzha",
    "Latitude": "9.97568",
    "Longitude": "76.5801",
    "RegionCode": "MUVA",
    "State": "Kerala",
    "SubRegionCode": "MUVA",
    "VenueAddress": "Bus Stand, 130 Junction, MC Road, Near KSRTC, Thottumkalpeedika, Muvattupuzha, Kerala 686673, India",
    "VenueCode": "HGSM",
    "VenueName": "Highstreet Cinema: Canton Highstreet, Muvattupuzha"
  },
  "HMMW": {
    "AvailableFormats": "2D|3D",
    "City": "Washim",
    "Latitude": "20.1096",
    "Longitude": "77.1269",
    "RegionCode": "WASH",
    "State": "Maharashtra",
    "SubRegionCode": "WASH",
    "VenueAddress": "Upper Ground Floor,B-Wing, Patni Commercial Comple, Washim, Maharashtra 444505, India",
    "VenueCode": "HMMW",
    "VenueName": "H2M Movieplex: Washim"
  },
  "HVCD": {
    "AvailableFormats": "",
    "City": "Gurugram (Gurgaon)",
    "Latitude": "28.403",
    "Longitude": "76.9739",
    "RegionCode": "NCR",
    "State": "NCR",
    "SubRegionCode": "GURG",
    "VenueAddress": "SVH Metro Street, 2nd Floor, Sector 83, Gurugram (Gurgaon), NCR 122012, India",
    "VenueCode": "HVCD",
    "VenueName": "Cineport Cinemas: SVH Metro Street, Sector 83"
  },
  "IDRM": {
    "AvailableFormats": "2D|3D",
    "City": "Bhubaneswar",
    "Latitude": "20.241",
    "Longitude": "85.7585",
    "RegionCode": "JATN",
    "State": "Odisha",
    "SubRegionCode": "JATN",
    "VenueAddress": "2nd Floor, DN Regalia Mall, IDCO Plot No 1/A, Bhagabanpur Industrial Estate, Patrapada, Bhubaneswar, Odisha 751019, India",
    "VenueCode": "IDRM",
    "VenueName": "INOX: DN Regalia Mall"
  },
  "ILKS": {
    "AvailableFormats": "2D",
    "City": "Hyderabad",
    "Latitude": "17.477071",
    "Longitude": "78.422257",
    "RegionCode": "HYD",
    "State": "Telangana",
    "SubRegionCode": "HYD",
    "VenueAddress": "2nd Floor, Lake Shore Mall, IDA Kukatpally, Hyderabad, Telangana 500072, India",
    "VenueCode": "ILKS",
    "VenueName": "PVR Lakeshore PXL 4K Laser ATMOS DTS-X Y Junction"
  },
  "IMKN": {
    "AvailableFormats": "2D|3D",
    "City": "Kolkata",
    "Latitude": "22.7032",
    "Longitude": "88.4718",
    "RegionCode": "KOLK",
    "State": "West Bengal",
    "SubRegionCode": "KOLK",
    "VenueAddress": "3rd Floor, Star Mall, 74/Mall/1 Jessore Road (North), Sisir Kunja,Madhyamgram, Kolkata, West Bengal 700129, India",
    "VenueCode": "IMKN",
    "VenueName": "INOX: Star Mall, Madhyamgram"
  },
  "INAG": {
    "AvailableFormats": "3D|2D",
    "City": "Guwahati",
    "Latitude": "26.1495",
    "Longitude": "91.7858",
    "RegionCode": "GUW",
    "State": "Assam",
    "SubRegionCode": "GUW",
    "VenueAddress": "Aurus Mall, 5th Floor, G.S. Road, Dispur, Guwahati, Assam 781006, India",
    "VenueCode": "INAG",
    "VenueName": "INOX: Aurus, Guwahati"
  },
  "INBM": {
    "AvailableFormats": "2D|3D",
    "City": "Bengaluru",
    "Latitude": "12.966",
    "Longitude": "77.7179",
    "RegionCode": "HOKT",
    "State": "Karnataka",
    "SubRegionCode": "HOKT",
    "VenueAddress": "INOX Leisure Ltd, 4th Floor, Brookefield Mall, Kundalahalli Main Road, Bengaluru, Karnataka 560037, India",
    "VenueCode": "INBM",
    "VenueName": "INOX: Brookefield Mall"
  },
  "INEL": {
    "AvailableFormats": "2D|3D",
    "City": "Lucknow",
    "Latitude": "26.788",
    "Longitude": "80.9105",
    "RegionCode": "LUCK",
    "State": "Uttar Pradesh",
    "SubRegionCode": "LUCK",
    "VenueAddress": "3rd Floor, Emerald Mall, CP 138, Sector D1, LDA Colony, Ashiyana, Lucknow, Uttar Pradesh 226012, India",
    "VenueCode": "INEL",
    "VenueName": "INOX: Megaplex Emerald, Lucknow"
  },
  "INHD": {
    "AvailableFormats": "2D",
    "City": "Kolkata",
    "Latitude": "22.5649",
    "Longitude": "88.3592",
    "RegionCode": "KOLK",
    "State": "West Bengal",
    "SubRegionCode": "KOLK",
    "VenueAddress": "76, Ganesh Chandra Avenue, Bow Bazaar, Dharmatala, Near Chandni Chowk Metro Station, Kolkata, West Bengal 700013, India",
    "VenueCode": "INHD",
    "VenueName": "Hind INOX: Kolkata"
  },
  "INMB": {
    "AvailableFormats": "2D|IMAX 2D|3D",
    "City": "Bengaluru",
    "Latitude": "12.9922",
    "Longitude": "77.5703",
    "RegionCode": "HOKT",
    "State": "Karnataka",
    "SubRegionCode": "HOKT",
    "VenueAddress": "Mantri Square Mall, Sampige Road, Malleswaram, Bengaluru, Karnataka 560052, India",
    "VenueCode": "INMB",
    "VenueName": "INOX: Mantri Square, Malleshwaram"
  },
  "INOG": {
    "AvailableFormats": "2D|3D",
    "City": "Kalaburagi (Gulbarga)",
    "Latitude": "17.3287",
    "Longitude": "76.8337",
    "RegionCode": "GULB",
    "State": "Karnataka",
    "SubRegionCode": "GULB",
    "VenueAddress": "Mahaveer Nagar, Khuba Plot, Brhampur, Kalaburagi (Gulbarga), Karnataka 585105, India",
    "VenueCode": "INOG",
    "VenueName": "INOX: Orchid Mall, Kalaburagi"
  },
  "INPT": {
    "AvailableFormats": "2D|3D",
    "City": "Coimbatore",
    "Latitude": "11.0548",
    "Longitude": "76.9943",
    "RegionCode": "COIM",
    "State": "Tamil Nadu",
    "SubRegionCode": "COIM",
    "VenueAddress": "S.F. No. 201, Sathy Main Road, Coimbatore, Tamil Nadu 641035, India",
    "VenueCode": "INPT",
    "VenueName": "INOX: Prozone Mall, Coimbatore"
  },
  "INRZ": {
    "AvailableFormats": "IMAX 2D|2D",
    "City": "Bengaluru",
    "Latitude": "13.0943",
    "Longitude": "77.5956",
    "RegionCode": "HOKT",
    "State": "Karnataka",
    "SubRegionCode": "HOKT",
    "VenueAddress": "INOX Leisure Ltd.,2nd Floor, Galleria Mall, Ambedkar Colony, Yelahanka, Bengaluru, Karnataka 560064, India",
    "VenueCode": "INRZ",
    "VenueName": "INOX: Galleria Mall, Yelahanka"
  },
  "INTM": {
    "AvailableFormats": "3D|2D",
    "City": "Nagpur",
    "Latitude": "21.173",
    "Longitude": "79.1004",
    "RegionCode": "NAGP",
    "State": "Maharashtra",
    "SubRegionCode": "NAGP",
    "VenueAddress": "1st floor, Jaswant Tuli Mall, Indora Square, Kamptee Road, Near Indora Chowk, Nagpur, Maharashtra 440017, India",
    "VenueCode": "INTM",
    "VenueName": "INOX: Jaswant Tuli Mall, Kamptee Road"
  },
  "INVM": {
    "AvailableFormats": "2D|3D|IMAX 2D",
    "City": "Delhi",
    "Latitude": "28.6508",
    "Longitude": "77.1206",
    "RegionCode": "NCR",
    "State": "NCR",
    "SubRegionCode": "DELHI",
    "VenueAddress": "1st Floor, Vishal Cinema Complex, Plot No 1, District Center Rajouri Garden, Delhi, NCR 110027, India",
    "VenueCode": "INVM",
    "VenueName": "INOX: Vishal Mall, Rajouri Garden"
  },
  "INZS": {
    "AvailableFormats": "2D|3D",
    "City": "Kanpur",
    "Latitude": "26.473",
    "Longitude": "80.353",
    "RegionCode": "KANP",
    "State": "Uttar Pradesh",
    "SubRegionCode": "KANP",
    "VenueAddress": "3rd Floor, Z Square Mall, Bada Chauraha, Mahatma Gandhi Road, Mall Road, Downtown, Kanpur, Uttar Pradesh 208001, India",
    "VenueCode": "INZS",
    "VenueName": "INOX: Z Square, Bada Chauraha"
  },
  "IPCM": {
    "AvailableFormats": "2D",
    "City": "Varanasi",
    "Latitude": "25.2975",
    "Longitude": "83.0012",
    "RegionCode": "VAR",
    "State": "Uttar Pradesh",
    "SubRegionCode": "VAR",
    "VenueAddress": "Vijaya Mall, Bhelupur Crossing, Durgakund Road, Varanasi, Uttar Pradesh 221010, India",
    "VenueCode": "IPCM",
    "VenueName": "IP Cinemas: IP Vijaya Mall, Varanasi"
  },
  "IRMM": {
    "AvailableFormats": "2D|3D",
    "City": "Vadodara",
    "Latitude": "22.2851",
    "Longitude": "73.1641",
    "RegionCode": "VAD",
    "State": "Gujarat",
    "SubRegionCode": "VAD",
    "VenueAddress": "Reliance Mega Mall, Old Padra Road, Muj Mahuda, Vadodara, Gujarat 390020, India",
    "VenueCode": "IRMM",
    "VenueName": "INOX: Reliance Mega Mall, Vadodara"
  },
  "ISTN": {
    "AvailableFormats": "2D|3D",
    "City": "Hyderabad",
    "Latitude": "17.4237",
    "Longitude": "78.4951",
    "RegionCode": "HYD",
    "State": "Telangana",
    "SubRegionCode": "HYD",
    "VenueAddress": "INOX Leisure Ltd, 4th Floor, Sattva Necklace Mall, Kavadiguda Main Road, Secunderabad, Hyderabad, Telangana 500080, India",
    "VenueCode": "ISTN",
    "VenueName": "INOX: Sattva Necklace Mall, Kavadiguda"
  },
  "JACS": {
    "AvailableFormats": "2D",
    "City": "Madurai",
    "Latitude": "9.92872",
    "Longitude": "78.1488",
    "RegionCode": "MADU",
    "State": "Tamil Nadu",
    "SubRegionCode": "MADU",
    "VenueAddress": "5, 80 Feet Road, Deputy Collector Colony, k.k.Nagar, Madurai, Tamil Nadu 625020, India",
    "VenueCode": "JACS",
    "VenueName": "Jazz And Arsh Cinemas A/C Sony 4K: Madurai"
  },
  "JCCB": {
    "AvailableFormats": "2D|3D",
    "City": "Cooch Behar",
    "Latitude": "26.3451",
    "Longitude": "89.4559",
    "RegionCode": "COBE",
    "State": "West Bengal",
    "SubRegionCode": "COBE",
    "VenueAddress": "City Mall, Near 133 KVA Electric Substation, East Khagrabari, New Cooch Behar Road, Cooch Behar, West Bengal 736179, India",
    "VenueCode": "JCCB",
    "VenueName": "Jaya Cinemas, City Mall: Cooch Behar"
  },
  "JCRJ": {
    "AvailableFormats": "2D",
    "City": "Jamnagar",
    "Latitude": "22.4451",
    "Longitude": "70.1166",
    "RegionCode": "JAM",
    "State": "Gujarat",
    "SubRegionCode": "JAM",
    "VenueAddress": "JCR Drive-In Cinema, Theba Chokdi, Jamnagar-Dwarka Bypass Road, Jamnagar, Gujarat 361120, India",
    "VenueCode": "JCRJ",
    "VenueName": "JCR Drive-In Cinema: Jamnagar, Gujarat"
  },
  "JGTK": {
    "AvailableFormats": "2D",
    "City": "Jayamkondacholapuram",
    "Latitude": "11.2136",
    "Longitude": "79.3569",
    "RegionCode": "JYAM",
    "State": "Tamil Nadu",
    "SubRegionCode": "JYAM",
    "VenueAddress": "National Highway 227, Jayankondam, Near Mangalam mahal, Jayamkondacholapuram, Tamil Nadu 621802, India",
    "VenueCode": "JGTK",
    "VenueName": "JANAGAR CINEMAS A/C DOLBY 7.1"
  },
  "JKCM": {
    "AvailableFormats": "2D",
    "City": "Irinjalakuda",
    "Latitude": "10.3651",
    "Longitude": "76.1944",
    "RegionCode": "IRNK",
    "State": "Kerala",
    "SubRegionCode": "IRNK",
    "VenueAddress": "Kizhuthani, Irinjalakuda Kattoor Road, Near JK Theatres, Irinjalakuda, Kerala 680125, India",
    "VenueCode": "JKCM",
    "VenueName": "JK Cinemas 4K Dolby Atmos: Kizhuthani"
  },
  "JMJR": {
    "AvailableFormats": "2D|3D",
    "City": "Kolkata",
    "Latitude": "22.7127",
    "Longitude": "88.4753",
    "RegionCode": "BSRT",
    "State": "West Bengal",
    "SubRegionCode": "BSRT",
    "VenueAddress": "1/3 Jessore Road, Barasat, Near Duck Banglow More, Kolkata, West Bengal 700124, India",
    "VenueCode": "JMJR",
    "VenueName": "Jaya Cinemas: City Mall, Barasat"
  },
  "JRCR": {
    "AvailableFormats": "2D",
    "City": "Raghopur",
    "Latitude": "26.3047",
    "Longitude": "86.8414",
    "RegionCode": "RAHO",
    "State": "Bihar",
    "SubRegionCode": "RAHO",
    "VenueAddress": "Raghopur Police Station, Piprahi, National Highway 106, Near Ganesh Electronics, Raghopur, Bihar 852111, India",
    "VenueCode": "JRCR",
    "VenueName": "Jai Rajan Cinema: Raghopur"
  },
  "JTBL": {
    "AvailableFormats": "2D",
    "City": "Vizag (Visakhapatnam)",
    "Latitude": "17.7217",
    "Longitude": "83.2032",
    "RegionCode": "SABB",
    "State": "Andhra Pradesh",
    "SubRegionCode": "SABB",
    "VenueAddress": "No.6-175/20, Sheela Nagar, Beside Ayyapa Swamy Temple, Vizag, Andhra Pradesh 530012, India",
    "VenueCode": "JTBL",
    "VenueName": "STBL Cine World, Sheelanagar: Vizag"
  },
  "JTKZ": {
    "AvailableFormats": "2D",
    "City": "Kozhikode",
    "Latitude": "11.1781",
    "Longitude": "75.8658",
    "RegionCode": "KOZH",
    "State": "Kerala",
    "SubRegionCode": "KOZH",
    "VenueAddress": "3rd Floor, Surabhi Mall, Kozhikode-Palakkad Highway, Ramanattukara, Kozhikode, Kerala 673633, India",
    "VenueCode": "JTKZ",
    "VenueName": "Surabhi Cinemas 4K Dolby Atmos: Kozhikode"
  },
  "JTNM": {
    "AvailableFormats": "2D",
    "City": "Martur",
    "Latitude": "15.9869",
    "Longitude": "80.1031",
    "RegionCode": "MART",
    "State": "Andhra Pradesh",
    "SubRegionCode": "MART",
    "VenueAddress": "Konidena Road, Near Andhra Pragati Grameena Bank, Martur, Andhra Pradesh 523301, India",
    "VenueCode": "JTNM",
    "VenueName": "NR Cinemas A/C Dts: Martur"
  },
  "JTSA": {
    "AvailableFormats": "",
    "City": "Sathupally",
    "FirstTracked": "2026-07-14",
    "Latitude": "17.209696",
    "Longitude": "80.83479",
    "RegionCode": "SATH",
    "State": "Telangana",
    "SubRegionCode": "SATH",
    "VenueAddress": "Aswaraopeta, Srinivasa Theatre Road, Sathupally, Telangana 507303, India",
    "VenueCode": "JTSA",
    "VenueName": "Srinivasa Picture Palace: Sathupally"
  },
  "JTTR": {
    "AvailableFormats": "2D",
    "City": "Jaisalmer",
    "Latitude": "26.9178",
    "Longitude": "70.9136",
    "RegionCode": "JSMR",
    "State": "Rajasthan",
    "SubRegionCode": "JSMR",
    "VenueAddress": "Patwon Ki Haveliyan Road,Amar Sagar Pol,Jaisalmer, Rajasthan 345001, India",
    "VenueCode": "JTTR",
    "VenueName": "Ramesh Talkies: Jaisalmer"
  },
  "JVRM": {
    "AvailableFormats": "2D",
    "City": "Pondicherry",
    "Latitude": "11.9371",
    "Longitude": "79.8226",
    "RegionCode": "AURV",
    "State": "Tamil Nadu",
    "SubRegionCode": "AURV",
    "VenueAddress": "No. 65, Kamaraj Salai, Opposite Hotel Jayaram, Near Punjab National Bank, Pondicherry, Tamil Nadu 605011, India",
    "VenueCode": "JVRM",
    "VenueName": "Jeeva Rukmani Cinemas 4K RGB ATMOS: Pondicherry"
  },
  "KACC": {
    "AvailableFormats": "2D",
    "City": "Coimbatore",
    "Latitude": "10.8806",
    "Longitude": "76.9057",
    "RegionCode": "COIM",
    "State": "Tamil Nadu",
    "SubRegionCode": "COIM",
    "VenueAddress": "K.G.Chavadi Bypass Road, Kandhe Gounden Chavadi, Coimbatore, Tamil Nadu 641105, India",
    "VenueCode": "KACC",
    "VenueName": "Kavitha Cinemas 4K Dolby Atmos: K.G. Chavadi"
  },
  "KARP": {
    "AvailableFormats": "2D",
    "City": "Coimbatore",
    "Latitude": "11.0194",
    "Longitude": "76.9638",
    "RegionCode": "COIM",
    "State": "Tamil Nadu",
    "SubRegionCode": "COIM",
    "VenueAddress": "No-161, 100 Feet Road, Gandhi Puram, Opposite Bharath Electronics, Coimbatore, Tamil Nadu 641012, India",
    "VenueCode": "KARP",
    "VenueName": "Karpagam Theatres 4K Dolby Atmos: Coimbatore"
  },
  "KBTT": {
    "AvailableFormats": "2D",
    "City": "Trivandrum",
    "Latitude": "8.49955",
    "Longitude": "76.958",
    "RegionCode": "VKAL",
    "State": "Kerala",
    "SubRegionCode": "VKAL",
    "VenueAddress": "Womens College Road, Chalachitra Kalabhavan CV Raman Pillai Road, Near Dianby Kids World, Trivandrum, Kerala 695014, India",
    "VenueCode": "KBTT",
    "VenueName": "Kalabhavan Theatre Triple Beam 3D: Trivandrum"
  },
  "KCKN": {
    "AvailableFormats": "2D",
    "City": "Kondagaon",
    "Latitude": "19.5952",
    "Longitude": "81.6674",
    "RegionCode": "KNGN",
    "State": "Chhattisgarh",
    "SubRegionCode": "KNGN",
    "VenueAddress": "Bazar para, Near Sahu Communication, Kondagaon, Chhattisgarh 494226, India",
    "VenueCode": "KCKN",
    "VenueName": "Kishore Cineplex: Kondagaon"
  },
  "KCSN": {
    "AvailableFormats": "",
    "City": "Namakkal",
    "FirstTracked": "2026-07-14",
    "Latitude": "11.22639",
    "Longitude": "78.16373",
    "RegionCode": "NMKL",
    "State": "Tamil Nadu",
    "SubRegionCode": "NMKL",
    "VenueAddress": "49, R.P Pudur, Salem - Namakkal Road, Namakkal, Tamil Nadu 637001, India",
    "VenueCode": "KCSN",
    "VenueName": "KS Cineplex Screen 2 by DNC Theatres: Namakkal"
  },
  "KDCU": {
    "AvailableFormats": "",
    "City": "Surat",
    "FirstTracked": "2026-07-14",
    "Latitude": "21.179148",
    "Longitude": "72.962944",
    "RegionCode": "SURT",
    "State": "Gujarat",
    "SubRegionCode": "SURT",
    "VenueAddress": "Chhatrala City Centre Near NH8, Mc Donalds Kadodara At - Umbhel, Kamrej, Surat, Gujarat 394325, India",
    "VenueCode": "KDCU",
    "VenueName": "K.D. Cinema: Chhatrala Mall, Kadodara-Surat"
  },
  "KHNN": {
    "AvailableFormats": "",
    "City": "Khanna",
    "FirstTracked": "2026-07-14",
    "Latitude": "30.68618",
    "Longitude": "76.25217",
    "RegionCode": "KHAN",
    "State": "Punjab",
    "SubRegionCode": "KHAN",
    "VenueAddress": "The Celebration Bazaar, 15, Near PVR, Khanna, Punjab 141401, India",
    "VenueCode": "KHNN",
    "VenueName": "12D Cinema: Khanna"
  },
  "KKMB": {
    "AvailableFormats": "2D",
    "City": "Navi Mumbai",
    "Latitude": "19.101",
    "Longitude": "73.0102",
    "RegionCode": "MUMBAI",
    "State": "Maharashtra",
    "SubRegionCode": "THAN",
    "VenueAddress": "Bonkode Road, Near Railway Station,Sector 8, RS Regency Road, Kopar Khairane, Navi Mumbai, Maharashtra 400709, India",
    "VenueCode": "KKMB",
    "VenueName": "BMX Cinemas (Balaji Movieplex): Koparkhairane"
  },
  "KLPA": {
    "AvailableFormats": "2D",
    "City": "Udupi",
    "Latitude": "13.3362",
    "Longitude": "74.7505",
    "RegionCode": "MANI",
    "State": "Karnataka",
    "SubRegionCode": "MANI",
    "VenueAddress": "Kadekoppala, Chitpady, Udupi, Karnataka 576101, India",
    "VenueCode": "KLPA",
    "VenueName": "Kalpana Theatre: Udupi"
  },
  "KMPV": {
    "AvailableFormats": "",
    "City": "Vizag (Visakhapatnam)",
    "FirstTracked": "2026-07-14",
    "Latitude": "17.808105",
    "Longitude": "83.388985",
    "RegionCode": "VIZA",
    "State": "Andhra Pradesh",
    "SubRegionCode": "VIZA",
    "VenueAddress": "Infosys lane, Beside Area 51 Coffee Shop, Rushikonda, Near IT Sez, Hill no. 2, Vizag (Visakhapatnam), Andhra Pradesh 530045, India",
    "VenueCode": "KMPV",
    "VenueName": "Krishna Miniplex 2K Dolby, IT Sez: Madhurawada"
  },
  "KPGN": {
    "AvailableFormats": "",
    "City": "Guntakal",
    "FirstTracked": "2026-07-14",
    "Latitude": "15.1665",
    "Longitude": "77.3779",
    "RegionCode": "GUNL",
    "State": "Andhra Pradesh",
    "SubRegionCode": "GUNL",
    "VenueAddress": "Tilak Nagar, Near Hotel Ashok Paradise, Guntakal, Andhra Pradesh 515801, India",
    "VenueCode": "KPGN",
    "VenueName": "KPS Movie: Guntakal"
  },
  "KRIC": {
    "AvailableFormats": "2D",
    "City": "Songadh",
    "Latitude": "21.1669",
    "Longitude": "73.5642",
    "RegionCode": "SONG",
    "State": "Gujarat",
    "SubRegionCode": "SONG",
    "VenueAddress": "3rd and 4th Floor Krishna Mall, SBI Road, Navagam Fort Songadh Tapi, Near Vijaya Bank, Songadh, Gujarat 394670, India",
    "VenueCode": "KRIC",
    "VenueName": "Sanskruti Krishna Multiplex: Songadh"
  },
  "KRTT": {
    "AvailableFormats": "3D",
    "City": "Tirupati",
    "Latitude": "13.6303",
    "Longitude": "79.4239",
    "RegionCode": "TIRU",
    "State": "Andhra Pradesh",
    "SubRegionCode": "TIRU",
    "VenueAddress": "Jayasam Road, Tata Nagar, Tirupati, Andhra Pradesh 517501, India",
    "VenueCode": "KRTT",
    "VenueName": "KrishnaTeja A/C 4K Dolby(Newly Renovated):Tirupati"
  },
  "KSNP": {
    "AvailableFormats": "2D",
    "City": "Kochi",
    "Latitude": "10.1449",
    "Longitude": "76.2355",
    "RegionCode": "PALY",
    "State": "Kerala",
    "SubRegionCode": "PALY",
    "VenueAddress": "North Paravur, Pullomkulam, Near Dr Ambedkar Park, Kochi, Kerala 683513, India",
    "VenueCode": "KSNP",
    "VenueName": "Kairali Sree Theater: North Parvur"
  },
  "KSTT": {
    "AvailableFormats": "2D",
    "City": "Thrissur",
    "Latitude": "10.5281",
    "Longitude": "76.2141",
    "RegionCode": "MANR",
    "State": "Kerala",
    "SubRegionCode": "MANR",
    "VenueAddress": "Karunakaran Nambiar Road, Round North, Patturaikkal, Near Bini Bakers, Thrissur, Kerala 680001, India",
    "VenueCode": "KSTT",
    "VenueName": "Kairali Sree RGB Laser 4K Dolby Atmos: Thrissur"
  },
  "KTKT": {
    "AvailableFormats": "",
    "City": "Hyderabad",
    "FirstTracked": "2026-07-14",
    "Latitude": "17.3888",
    "Longitude": "78.4962",
    "RegionCode": "HYD",
    "State": "Telangana",
    "SubRegionCode": "HYD",
    "VenueAddress": "3-2-1/1, Kachiguda Main Road, Mahalaxmi Nilayam, Kachiguda, Hyderabad, Telangana 500027, India",
    "VenueCode": "KTKT",
    "VenueName": "Kumar Theatre: Kachiguda"
  },
  "KVSW": {
    "AvailableFormats": "2D",
    "City": "Chhatrapati Sambhajinagar (Aurangabad)",
    "Latitude": "19.8379",
    "Longitude": "75.2524",
    "RegionCode": "AURA",
    "State": "Maharashtra",
    "SubRegionCode": "AURA",
    "VenueAddress": "Khinvasara Business centre lot No. X-310/1 MIDC Waluj, More Chawk, Beside Police station, Chhatrapati Sambhaji Nagar, Chhatrapati Sambhajinagar (Aurangabad), Maharashtra 431136, India",
    "VenueCode": "KVSW",
    "VenueName": "Khinvasara Cineplex: Waluj"
  },
  "LAKC": {
    "AvailableFormats": "",
    "City": "Perambalur",
    "FirstTracked": "2026-07-14",
    "Latitude": "11.23471",
    "Longitude": "78.8724",
    "RegionCode": "ARIY",
    "State": "Tamil Nadu",
    "SubRegionCode": "ARIY",
    "VenueAddress": "No 145, Perambalur Road, Venkatesapuram, Sungu Pettai, Near Vasan Medicals Care, Perambalur, Tamil Nadu 621212, India",
    "VenueCode": "LAKC",
    "VenueName": "LA Krishna Cinemas: Perambalur"
  },
  "LBDL": {
    "AvailableFormats": "2D",
    "City": "Delhi",
    "Latitude": "28.6592",
    "Longitude": "77.1897",
    "RegionCode": "NCR",
    "State": "NCR",
    "SubRegionCode": "DELHI",
    "VenueAddress": "19-B, New Rohtak Road Karol Bagh, Near Indian Oil Petrol Pump, Delhi, NCR 110005, India",
    "VenueCode": "LBDL",
    "VenueName": "Liberty Cinema: Karol Bagh"
  },
  "LCSH": {
    "AvailableFormats": "2D|3D",
    "City": "Surat",
    "Latitude": "21.1529",
    "Longitude": "72.7761",
    "RegionCode": "SURT",
    "State": "Gujarat",
    "SubRegionCode": "SURT",
    "VenueAddress": "Second floor, Homeland City, Sai Kutir Society, Piplod, Surat, Gujarat 395007, India",
    "VenueCode": "LCSH",
    "VenueName": "Loop Cinemas Homeland City: Vesu"
  },
  "LHDF": {
    "AvailableFormats": "2D",
    "City": "Ahmedabad",
    "Latitude": "23.1245",
    "Longitude": "72.5837",
    "RegionCode": "GNAGAR",
    "State": "Gujarat",
    "SubRegionCode": "GNAGAR",
    "VenueAddress": "5th Floor,Sai Sapphire Square, BRTS Zundal Chandkheda, Opposite Indian Oil Petrol Pump, Ahmedabad, Gujarat 382424, India",
    "VenueCode": "LHDF",
    "VenueName": "LHD Cinemas: Chandkheda"
  },
  "LKOP": {
    "AvailableFormats": "2D",
    "City": "Chennai",
    "Latitude": "12.6806",
    "Longitude": "79.9805",
    "RegionCode": "CHEN",
    "State": "Tamil Nadu",
    "SubRegionCode": "CHEN",
    "VenueAddress": "56, Alagesan Nagar, Varadharaja Nagar, Chennai, Tamil Nadu 603031, India",
    "VenueCode": "LKOP",
    "VenueName": "Lathaa Cinemas A/C Atmos 2K 3D: Chengalpattu"
  },
  "LMCI": {
    "AvailableFormats": "2D",
    "City": "Ichchapuram",
    "Latitude": "19.1297",
    "Longitude": "84.6921",
    "RegionCode": "ICPR",
    "State": "Andhra Pradesh",
    "SubRegionCode": "ICPR",
    "VenueAddress": "Amin Sahib Peta, Oppsite NECC Office, Ichchapuram, Andhra Pradesh 532312, India",
    "VenueCode": "LMCI",
    "VenueName": "L Max Cinemas AC (2K JBL Dolby Digital 7.1)"
  },
  "LPTY": {
    "AvailableFormats": "2D",
    "City": "Thalassery",
    "Latitude": "11.7463",
    "Longitude": "75.4954",
    "RegionCode": "THAY",
    "State": "Kerala",
    "SubRegionCode": "THAY",
    "VenueAddress": "AVK Nair Road, Pilakool, Thalassery, Kerala 670103, India",
    "VenueCode": "LPTY",
    "VenueName": "Liberty Paradise: Thalassery"
  },
  "LTTR": {
    "AvailableFormats": "2D",
    "City": "Tiptur",
    "Latitude": "13.254",
    "Longitude": "76.4778",
    "RegionCode": "TIPT",
    "State": "Karnataka",
    "SubRegionCode": "TIPT",
    "VenueAddress": "Keragodi Road, Chamundeshwari, Tiptur, Karnataka 572201, India",
    "VenueCode": "LTTR",
    "VenueName": "Lakshmi Talkies: Tiptur"
  },
  "LYMS": {
    "AvailableFormats": "2D",
    "City": "Mysuru (Mysore)",
    "Latitude": "12.3088",
    "Longitude": "76.6595",
    "RegionCode": "MYS",
    "State": "Karnataka",
    "SubRegionCode": "MYS",
    "VenueAddress": "Mandi Mohalla, Bangalore Nilgiri Road, Mysuru (Mysore), Karnataka 570001, India",
    "VenueCode": "LYMS",
    "VenueName": "Lido Theatre: Mysuru"
  },
  "MACD": {
    "AvailableFormats": "",
    "City": "Dehradun",
    "FirstTracked": "2026-07-14",
    "Latitude": "30.327717",
    "Longitude": "78.06602",
    "RegionCode": "DEH",
    "State": "Uttarakhand",
    "SubRegionCode": "DEH",
    "VenueAddress": "Times Square Mall, Sahastradhara Road, Near The Host Restaurant, Dehradun, Uttarakhand 248001, India",
    "VenueCode": "MACD",
    "VenueName": "Mukta A2 Cinemas: Times Square Mall, Dehradun"
  },
  "MAGH": {
    "AvailableFormats": "2D",
    "City": "Station Ghanpur",
    "Latitude": "17.8528",
    "Longitude": "79.3762",
    "RegionCode": "STGH",
    "State": "Telangana",
    "SubRegionCode": "STGH",
    "VenueAddress": "Palakurthy Road, Uppugal - Ghanpur Road, Station Ghanpur, Telangana 506144, India",
    "VenueCode": "MAGH",
    "VenueName": "Mahalaxmi Cinemas: Station Ghanpur"
  },
  "MALB": {
    "AvailableFormats": "",
    "City": "Bhopal",
    "Latitude": "23.2745",
    "Longitude": "77.3703",
    "RegionCode": "BHOP",
    "State": "Madhya Pradesh",
    "SubRegionCode": "BHOP",
    "VenueAddress": "Miraj Cinemas, 4th Floor, Alark Square, Lalghati, Bhopal, Madhya Pradesh 462030, India",
    "VenueCode": "MALB",
    "VenueName": "Miraj Cinemas: Alark Square, Bhopal"
  },
  "MATE": {
    "AvailableFormats": "2D",
    "City": "Kallakurichi",
    "Latitude": "11.735",
    "Longitude": "78.9649",
    "RegionCode": "KALL",
    "State": "Tamil Nadu",
    "SubRegionCode": "KALL",
    "VenueAddress": "17J,Chidambaram Pillai St, Raja Nagar,Kallakurichi, Near Hotel SR Park, Kallakurichi, Tamil Nadu 606202, India",
    "VenueCode": "MATE",
    "VenueName": "Mahalakshmi Cinemas Dolby Atmos 4K Barco RGB Laser"
  },
  "MAYU": {
    "AvailableFormats": "",
    "City": "Kota",
    "FirstTracked": "2026-07-14",
    "Latitude": "25.191599",
    "Longitude": "75.850395",
    "RegionCode": "KOTA",
    "State": "Rajasthan",
    "SubRegionCode": "KOTA",
    "VenueAddress": "MDR7, Chatra Vilas Garden, Nayapura Circle, Nayapura, Kota, Rajasthan 324001, India",
    "VenueCode": "MAYU",
    "VenueName": "Mayur Cinema: Kota"
  },
  "MBSX": {
    "AvailableFormats": "",
    "City": "Ahmedabad",
    "Latitude": "22.9575",
    "Longitude": "72.6555",
    "RegionCode": "AHD",
    "State": "Gujarat",
    "SubRegionCode": "AHD",
    "VenueAddress": "5th Floor, C Block Shalin Square, SP Ring Road Vinzol, Hathijan Circle, Opposite Viva Farm, Ahmedabad, Gujarat 382445, India",
    "VenueCode": "MBSX",
    "VenueName": "Miraj Cinemas: Shalin Square, Hathijan"
  },
  "MCBS": {
    "AvailableFormats": "",
    "City": "Sikar",
    "FirstTracked": "2026-07-14",
    "Latitude": "27.600943",
    "Longitude": "75.14577",
    "RegionCode": "SIKR",
    "State": "Rajasthan",
    "SubRegionCode": "SIKR",
    "VenueAddress": "Rajasthan State Highway 8A, Dhodh, Rani Sati Road, Mahaveer Rodi Factory, Sikar, Rajasthan 332001, India",
    "VenueCode": "MCBS",
    "VenueName": "Miraj Bioscope Cinemas: Sikar"
  },
  "MCDV": {
    "AvailableFormats": "2D",
    "City": "Vizag (Visakhapatnam)",
    "Latitude": "17.6853",
    "Longitude": "83.2087",
    "RegionCode": "VIZA",
    "State": "Andhra Pradesh",
    "SubRegionCode": "VIZA",
    "VenueAddress": "Indira Colony, Gajuwaka, Near Alif Family Restaurant, Vizag (Visakhapatnam), Andhra Pradesh 500026, India",
    "VenueCode": "MCDV",
    "VenueName": "Mohini Cinemas Dolby Atmos: Gajuwaka"
  },
  "MCGR": {
    "AvailableFormats": "",
    "City": "Gurdaspur",
    "FirstTracked": "2026-07-14",
    "Latitude": "32.037926",
    "Longitude": "75.4062",
    "RegionCode": "GSPR",
    "State": "Punjab",
    "SubRegionCode": "GSPR",
    "VenueAddress": "AGM Mall, Tibri Road, Hanuman Chownk, Gurdaspur, Punjab 143521, India",
    "VenueCode": "MCGR",
    "VenueName": "Miraj Cinema: Gurdaspur"
  },
  "MCIX": {
    "AvailableFormats": "",
    "City": "Greater Noida",
    "FirstTracked": "2026-07-14",
    "Latitude": "28.4574",
    "Longitude": "77.4993",
    "RegionCode": "NCR",
    "State": "NCR",
    "SubRegionCode": "GRET",
    "VenueAddress": "Plot No. C-03, 04, Knowledge Park -II, Greater Noida, Greater Noida, NCR 201310, India",
    "VenueCode": "MCIX",
    "VenueName": "Miraj Cinemas: India Expo Plaza (Newly Opened)"
  },
  "MCMC": {
    "AvailableFormats": "2D",
    "City": "Singrauli",
    "Latitude": "24.0651",
    "Longitude": "82.6302",
    "RegionCode": "SNGR",
    "State": "Madhya Pradesh",
    "SubRegionCode": "SNGR",
    "VenueAddress": "Near Masjid Square, Talkies Road, Waidhan, Singrauli, Madhya Pradesh 486886, India",
    "VenueCode": "MCMC",
    "VenueName": "MCM Cineplex: Waidhan"
  },
  "MCPB": {
    "AvailableFormats": "2D|3D",
    "City": "Behror",
    "Latitude": "27.8948",
    "Longitude": "76.2976",
    "RegionCode": "BEHR",
    "State": "Rajasthan",
    "SubRegionCode": "BEHR",
    "VenueAddress": "Parv Plaza, 5th Floor, A-15 B1, Phase 1, Riico Industrial Area, Behror, Rajasthan 301701, India",
    "VenueCode": "MCPB",
    "VenueName": "Mukta A2 Cinemas: Parv Plaza, Behror"
  },
  "MCSK": {
    "AvailableFormats": "",
    "City": "Chennai",
    "Latitude": "12.9059",
    "Longitude": "80.2092",
    "RegionCode": "CHEN",
    "State": "Tamil Nadu",
    "SubRegionCode": "CHEN",
    "VenueAddress": "Sekaran Mall, 4th and 5th Floor, Survey No.452(3), Village Perumbakkam, Taluk Sholinganallur, Kancheepuram, Chennai, Tamil Nadu 600100, India",
    "VenueCode": "MCSK",
    "VenueName": "Miraj Cinemas: Sekaran Mall, Perrumbakkam"
  },
  "MCTG": {
    "AvailableFormats": "3D|2D",
    "City": "Mumbai",
    "Latitude": "19.1655",
    "Longitude": "72.8429",
    "RegionCode": "MUMBAI",
    "State": "Maharashtra",
    "SubRegionCode": "MWEST",
    "VenueAddress": "2nd Floor, Topiwala Center, Topiwala Lane, Near Goregaon Station (West), Mumbai, Maharashtra 400062, India",
    "VenueCode": "MCTG",
    "VenueName": "Topiwala Mukta A2 Cinemas, Goregaon"
  },
  "MDCD": {
    "AvailableFormats": "",
    "City": "Ghaziabad",
    "FirstTracked": "2026-07-14",
    "Latitude": "28.6835",
    "Longitude": "77.5174",
    "RegionCode": "NCR",
    "State": "NCR",
    "SubRegionCode": "GHAZ",
    "VenueAddress": "N.H.9, Mussoorie Gulawathi Road Industrial Area, Near - State Bank of India, Ghaziabad, NCR 201015, India",
    "VenueCode": "MDCD",
    "VenueName": "Madhuban Cinema: Dasna"
  },
  "MECB": {
    "AvailableFormats": "",
    "City": "Bellary",
    "FirstTracked": "2026-07-14",
    "Latitude": "15.142982",
    "Longitude": "76.93244",
    "RegionCode": "BLRY",
    "State": "Karnataka",
    "SubRegionCode": "BLRY",
    "VenueAddress": "SLN Mall, 4th Floor, Sanganakal Road, Bellary, Karnataka 583101, India",
    "VenueCode": "MECB",
    "VenueName": "Movietime Cinemas: SLN Mall, Bellary"
  },
  "MENL": {
    "AvailableFormats": "2D",
    "City": "Ghaziabad",
    "Latitude": "28.7081",
    "Longitude": "77.2916",
    "RegionCode": "NCR",
    "State": "NCR",
    "SubRegionCode": "GHAZ",
    "VenueAddress": "Loni Road, Harijan Basti, Raj Nagar, Gokalpur, Ghaziabad, NCR 110094, India",
    "VenueCode": "MENL",
    "VenueName": "Meenakshi Multiplex Cinema: Loni"
  },
  "MGMF": {
    "AvailableFormats": "",
    "City": "Dhuri",
    "FirstTracked": "2026-07-14",
    "Latitude": "30.3649",
    "Longitude": "75.8591",
    "RegionCode": "DHRI",
    "State": "Punjab",
    "SubRegionCode": "DHRI",
    "VenueAddress": "MGM Mall, Sangrur-Dhuri Road, Near Civil Hospital, Dhuri, Punjab 148024, India",
    "VenueCode": "MGMF",
    "VenueName": "MGM Filmiplex Cinema: Dhuri"
  },
  "MIDL": {
    "AvailableFormats": "2D",
    "City": "Madurai",
    "Latitude": "9.93085",
    "Longitude": "78.0907",
    "RegionCode": "MADU",
    "State": "Tamil Nadu",
    "SubRegionCode": "MADU",
    "VenueAddress": "116/2, Sammattipuram Main Road, Opposite to Big Bazaar, Madurai, Tamil Nadu 625016, India",
    "VenueCode": "MIDL",
    "VenueName": "Midlaand Cinemas A/C 4K Dolby Digital 7.1: Madurai"
  },
  "MJCS": {
    "AvailableFormats": "3D|2D",
    "City": "Akola",
    "Latitude": "20.6983",
    "Longitude": "77.0168",
    "RegionCode": "AKOL",
    "State": "Maharashtra",
    "SubRegionCode": "AKOL",
    "VenueAddress": "Murtizapur Road, Kirti Nagar, Near TVS Showroom, Akola, Maharashtra 444005, India",
    "VenueCode": "MJCS",
    "VenueName": "Miraj Cinemas: Radha Krishna, Akola"
  },
  "MKCK": {
    "AvailableFormats": "2D",
    "City": "Aravakurichi",
    "Latitude": "10.7803",
    "Longitude": "77.9122",
    "RegionCode": "ARAV",
    "State": "Tamil Nadu",
    "SubRegionCode": "ARAV",
    "VenueAddress": "Aravakurichi Main Road, Aravakurichi, Tamil Nadu, Aravakurichi, Tamil Nadu 639201, India",
    "VenueCode": "MKCK",
    "VenueName": "Makkal Cinemas A/C: Aravakurichi"
  },
  "MLAM": {
    "AvailableFormats": "2D",
    "City": "Siliguri",
    "Latitude": "26.7299",
    "Longitude": "88.4321",
    "RegionCode": "SILI",
    "State": "West Bengal",
    "SubRegionCode": "SILI",
    "VenueAddress": "6th Floor, Himalayan Builders, ML Acropolis Mall, Sevoke Road, 2nd Mile, Opposite - Anandalok Hospital, Siliguri, West Bengal 734001, India",
    "VenueCode": "MLAM",
    "VenueName": "INOX: ML Acropolis Mall, Siliguri"
  },
  "MMAH": {
    "AvailableFormats": "2D|3D",
    "City": "Hyderabad",
    "Latitude": "17.4631",
    "Longitude": "78.5607",
    "RegionCode": "HYD",
    "State": "Telangana",
    "SubRegionCode": "HYD",
    "VenueAddress": "AMR Planet Mall,1,Rd,373/1 and 373.3, Trimulgherry, ECIL Road, Extn -  Moula Ali, Secunderabad, Extn - Moula Ali, Secunderabad, Hyderabad, Telangana 500040, India",
    "VenueCode": "MMAH",
    "VenueName": "MovieMax: AMR, ECIL Secunderabad"
  },
  "MMEN": {
    "AvailableFormats": "3D|2D",
    "City": "Nagpur",
    "Latitude": "21.143",
    "Longitude": "79.0803",
    "RegionCode": "NAGP",
    "State": "Maharashtra",
    "SubRegionCode": "NAGP",
    "VenueAddress": "MovieMax, 4th Floor, Variety Square, Sitabuldi, Nagpur, Maharashtra 440012, India",
    "VenueCode": "MMEN",
    "VenueName": "MovieMax: Eternity, Nagpur"
  },
  "MMMR": {
    "AvailableFormats": "2D",
    "City": "Mumbai",
    "Latitude": "19.2928",
    "Longitude": "72.8717",
    "RegionCode": "MUMBAI",
    "State": "Maharashtra",
    "SubRegionCode": "MWEST",
    "VenueAddress": "MovieMax, Prime Mall, Beverly Park, Mira-Bhayander Road, Mira Road (East), Near Shivar Garden, Mumbai, Maharashtra 401107, India",
    "VenueCode": "MMMR",
    "VenueName": "MovieMax: Mira Road"
  },
  "MMSR": {
    "AvailableFormats": "",
    "City": "Pochampally",
    "FirstTracked": "2026-07-14",
    "Latitude": "17.34488",
    "Longitude": "78.81876",
    "RegionCode": "POCH",
    "State": "Telangana",
    "SubRegionCode": "POCH",
    "VenueAddress": "M.G Road, Near Apollo Pharmacy, Pochampally, Telangana 508284, India",
    "VenueCode": "MMSR",
    "VenueName": "MRR Sri Sai Ram Theatre: Pochampally"
  },
  "MMXI": {
    "AvailableFormats": "2D",
    "City": "Indore",
    "Latitude": "22.7481",
    "Longitude": "75.8905",
    "RegionCode": "IND",
    "State": "Madhya Pradesh",
    "SubRegionCode": "IND",
    "VenueAddress": "Gravity Mall Ware House Road Bhamor, Vijay Nagar, Indore, Madhya Pradesh 452010, India",
    "VenueCode": "MMXI",
    "VenueName": "Manmandir Miniplex: Indore"
  },
  "MNKC": {
    "AvailableFormats": "2D",
    "City": "Akola",
    "Latitude": "20.7143",
    "Longitude": "76.9974",
    "RegionCode": "AKOL",
    "State": "Maharashtra",
    "SubRegionCode": "AKOL",
    "VenueAddress": "Manek Talkies, Tilak Road, Near Akot Bus Stand, Akola, Maharashtra 444001, India",
    "VenueCode": "MNKC",
    "VenueName": "Manek Cinema: Akola"
  },
  "MPDB": {
    "AvailableFormats": "3D|2D",
    "City": "Bhubaneswar",
    "Latitude": "20.2962",
    "Longitude": "85.835",
    "RegionCode": "JATN",
    "State": "Odisha",
    "SubRegionCode": "JATN",
    "VenueAddress": "Bhoi Nagar, Service Road, Vani Vihar, Near Sky Automobile, Bhubaneswar, Odisha 751022, India",
    "VenueCode": "MPDB",
    "VenueName": "Maharaja (Christie 4K, DOLBY ATMOS 64 CHANNEL)"
  },
  "MRCL": {
    "AvailableFormats": "2D",
    "City": "Sangli",
    "Latitude": "16.8198",
    "Longitude": "74.6424",
    "RegionCode": "ASMA",
    "State": "Maharashtra",
    "SubRegionCode": "ASMA",
    "VenueAddress": "Pandharpur Wal, Shivaji Road, Near City Bus Stand, Miraj, Sangli, Maharashtra 416410, India",
    "VenueCode": "MRCL",
    "VenueName": "Amar Cinema: Miraj"
  },
  "MRRG": {
    "AvailableFormats": "",
    "City": "Hyderabad",
    "Latitude": "17.4513",
    "Longitude": "78.5359",
    "RegionCode": "HYD",
    "State": "Telangana",
    "SubRegionCode": "HYD",
    "VenueAddress": "Bus Stand, Raghavendra Theatre Road, Malkajgiri, Hyderabad, Telangana 500047, India",
    "VenueCode": "MRRG",
    "VenueName": "Miraj Cinemas: Raghavendra, Malkajgiri"
  },
  "MSCM": {
    "AvailableFormats": "2D|3D",
    "City": "Pune",
    "Latitude": "18.6504",
    "Longitude": "73.8393",
    "RegionCode": "PUNE",
    "State": "Maharashtra",
    "SubRegionCode": "PUNE",
    "VenueAddress": "Sector No. 9, Sant Nagar, Spine Road, Pune, Maharashtra 412105, India",
    "VenueCode": "MSCM",
    "VenueName": "Miraj Cinemas: Spine City Mall, Pune"
  },
  "MSRM": {
    "AvailableFormats": "",
    "City": "Punganur",
    "FirstTracked": "2026-07-14",
    "Latitude": "13.363947",
    "Longitude": "78.56852",
    "RegionCode": "PGNR",
    "State": "Andhra Pradesh",
    "SubRegionCode": "PGNR",
    "VenueAddress": "Vidya Nagar, Vet Hospital Road, Nagapyam, Punganur, Andhra Pradesh 517247, India",
    "VenueCode": "MSRM",
    "VenueName": "MSR Movie Land: Punganur"
  },
  "MTCM": {
    "AvailableFormats": "2D",
    "City": "Chidambaram",
    "Latitude": "11.3949",
    "Longitude": "79.7012",
    "RegionCode": "CHID",
    "State": "Tamil Nadu",
    "SubRegionCode": "CHID",
    "VenueAddress": "SP Kovil Street, OP Main Road, Near Gm Vandayar Thirumana Mahal, Chidambaram, Tamil Nadu 608001, India",
    "VenueCode": "MTCM",
    "VenueName": "Mariyappa Theatre: Chidambaram"
  },
  "MTJA": {
    "AvailableFormats": "2D",
    "City": "Jammu",
    "Latitude": "32.7274",
    "Longitude": "74.8458",
    "RegionCode": "JAMM",
    "State": "Jammu and Kashmir",
    "SubRegionCode": "JAMM",
    "VenueAddress": "K C Central, Indira Theater, Canal Road, Jammu Tawi, Near The Raymond Shop, Jammu, Jammu and Kashmir 180002, India",
    "VenueCode": "MTJA",
    "VenueName": "Movietime Cinemas: Jammu"
  },
  "MTND": {
    "AvailableFormats": "2D|3D",
    "City": "Noida",
    "Latitude": "28.5717",
    "Longitude": "77.3225",
    "RegionCode": "NCR",
    "State": "NCR",
    "SubRegionCode": "NOIDA",
    "VenueAddress": "Tulsi Marg, K Block, Pocket E, Dharam Palace Mall, Sector 18, Noida, NCR 201301, India",
    "VenueCode": "MTND",
    "VenueName": "Movietime Cinemas: Sector 18, Noida"
  },
  "MTYA": {
    "AvailableFormats": "",
    "City": "Nandigama",
    "FirstTracked": "2026-07-14",
    "Latitude": "16.7752",
    "Longitude": "80.2837",
    "RegionCode": "NDGM",
    "State": "Andhra Pradesh",
    "SubRegionCode": "NDGM",
    "VenueAddress": "Mayuri Theatre Road, Ramannapet Road, Nandigama, Andhra Pradesh 521185, India",
    "VenueCode": "MTYA",
    "VenueName": "Mayuri Theater A/c Dolby 7.1 Surround: Nandigama"
  },
  "MUTB": {
    "AvailableFormats": "2D",
    "City": "Bengaluru",
    "Latitude": "13.0385",
    "Longitude": "77.5529",
    "RegionCode": "BANG",
    "State": "Karnataka",
    "SubRegionCode": "BANG",
    "VenueAddress": "Muthyala Nagar, 19th Cross, 2nd Stage, Mathikere, Near Railway Gate and J.P.Park, Near Mega Mart, Bengaluru, Karnataka 560054, India",
    "VenueCode": "MUTB",
    "VenueName": "Murali Cinemas(Gokula)4K Dolby7.1 A/C 3D:Mathikere"
  },
  "MXBO": {
    "AvailableFormats": "2D",
    "City": "Mumbai",
    "Latitude": "19.232",
    "Longitude": "72.8287",
    "RegionCode": "MUMBAI",
    "State": "Maharashtra",
    "SubRegionCode": "MWEST",
    "VenueAddress": "Zoom Plaza Mall, 4th Floor,L.T. Road, Borivali (W), Opposite Gorai Depot, Mumbai, Maharashtra 400092, India",
    "VenueCode": "MXBO",
    "VenueName": "Maxus Cinemas: Borivali (W)"
  },
  "MYBG": {
    "AvailableFormats": "2D",
    "City": "Balaghat",
    "Latitude": "21.8109",
    "Longitude": "80.1954",
    "RegionCode": "BLGT",
    "State": "Madhya Pradesh",
    "SubRegionCode": "BLGT",
    "VenueAddress": "Chitragupt Nagar, Gondia Road, Near HDFC Bank, Balaghat, Madhya Pradesh 481001, India",
    "VenueCode": "MYBG",
    "VenueName": "Mayur Talkies: Balaghat"
  },
  "MYRP": {
    "AvailableFormats": "2D",
    "City": "Kollam",
    "Latitude": "8.88953",
    "Longitude": "76.5858",
    "RegionCode": "KOLM",
    "State": "Kerala",
    "SubRegionCode": "KOLM",
    "VenueAddress": "RP Mall, Level 5, Salem-Kochi Highway, Near Reliance Trends, Kollam, Kerala 691001, India",
    "VenueCode": "MYRP",
    "VenueName": "MY Cinemas, RP Mall: Kollam"
  },
  "NAGO": {
    "AvailableFormats": "2D",
    "City": "Nagaur",
    "Latitude": "27.1957",
    "Longitude": "73.7501",
    "RegionCode": "NAGR",
    "State": "Rajasthan",
    "SubRegionCode": "NAGR",
    "VenueAddress": "NH 65, Hanuman Bagh Colony,Bassi Mohalla, Nagaur, Rajasthan 341001, India",
    "VenueCode": "NAGO",
    "VenueName": "Laxmi Tara Cinema: Nagaur"
  },
  "NCCW": {
    "AvailableFormats": "2D",
    "City": "Wai",
    "Latitude": "17.9525",
    "Longitude": "73.8873",
    "RegionCode": "WAIP",
    "State": "Maharashtra",
    "SubRegionCode": "WAIP",
    "VenueAddress": "Chota Pul, Gangapuri Road, Danebazar, Ganpati Ali, Wai, Maharashtra 412803, India",
    "VenueCode": "NCCW",
    "VenueName": "New Chitra Cinema: Wai"
  },
  "NCMD": {
    "AvailableFormats": "2D",
    "City": "Doraha",
    "Latitude": "30.7867",
    "Longitude": "76.0467",
    "RegionCode": "DORH",
    "State": "Punjab",
    "SubRegionCode": "DORH",
    "VenueAddress": "West View Plaza, GT Road, Doraha, Near Mcdonalds, Doraha, Punjab 141421, India",
    "VenueCode": "NCMD",
    "VenueName": "Nova Cinemaz: Doraha"
  },
  "NECB": {
    "AvailableFormats": "2D",
    "City": "Billawar",
    "Latitude": "32.6136",
    "Longitude": "75.6041",
    "RegionCode": "BILL",
    "State": "Jammu and Kashmir",
    "SubRegionCode": "BILL",
    "VenueAddress": "Tilla Billawar, Near Bharat Stone Crusher, Billawar, Jammu and Kashmir 184203, India",
    "VenueCode": "NECB",
    "VenueName": "Neelam Cinema: Billawar"
  },
  "NHCG": {
    "AvailableFormats": "2D",
    "City": "Mumbai",
    "Latitude": "18.962",
    "Longitude": "72.824",
    "RegionCode": "MUMBAI",
    "State": "Maharashtra",
    "SubRegionCode": "MWEST",
    "VenueAddress": "Plot no: 266, Nishat Talkies, Maulana shaukatali Road, Mumbai, Maharashtra 400008, India",
    "VenueCode": "NHCG",
    "VenueName": "Nishat Cinema: Grant Road"
  },
  "NLPS": {
    "AvailableFormats": "",
    "City": "Perundurai",
    "FirstTracked": "2026-07-14",
    "Latitude": "11.286024",
    "Longitude": "77.58599",
    "RegionCode": "PEDR",
    "State": "Tamil Nadu",
    "SubRegionCode": "PEDR",
    "VenueAddress": "Thiruvenkadampalayam, Nallapa Theatre Road, Opposite Sri Vishnu Car Wash, Perundurai, Tamil Nadu 638052, India",
    "VenueCode": "NLPS",
    "VenueName": "Nallappas Cinemas: Perundurai"
  },
  "NNCZ": {
    "AvailableFormats": "2D",
    "City": "Moga",
    "Latitude": "30.8191",
    "Longitude": "75.2143",
    "RegionCode": "MOGA",
    "State": "Punjab",
    "SubRegionCode": "MOGA",
    "VenueAddress": "Kartar Nagar, G.T Road, Moga - Ludhiana Road, Near Bugipura Chowk, Moga, Punjab 142001, India",
    "VenueCode": "NNCZ",
    "VenueName": "Neelam Nova Cinemaz: Moga"
  },
  "NPSE": {
    "AvailableFormats": "2D|3D",
    "City": "Pune",
    "Latitude": "18.538",
    "Longitude": "73.8356",
    "RegionCode": "PUNE",
    "State": "Maharashtra",
    "SubRegionCode": "PUNE",
    "VenueAddress": "East Square Flyover, Premnagar, Ashok Nagar, Pune, Maharashtra 411016, India",
    "VenueCode": "NPSE",
    "VenueName": "E-SQUARE: University Road, Pune (Newly Renovated)"
  },