{
  "AAEE": {
    "AvailableFormats": "",
    "City": "Eluru",
    "Latitude": "16.7079",
    "Longitude": "81.1028",
    "RegionCode": "ELRU",
    "State": "Andhra Pradesh",
    "SubRegionCode": "ELRU",
    "VenueAddress": "Dongala Mandapam Road, Southen Street, Agraharam, Eluru, Andhra Pradesh 534001, India",
    "VenueCode": "AAEE",
    "VenueName": "Ambica Complex: Eluru"
  },
  "AATV": {
    "AvailableFormats": "2D",
    "City": "Vadanappally",
    "Latitude": "10.4752",
    "Longitude": "76.0784",
    "RegionCode": "VADN",
    "State": "Kerala",
    "SubRegionCode": "VADN",
    "VenueAddress": "No 66, National Highway, Vadanappally, Kerala 680619, India",
    "VenueCode": "AATV",
    "VenueName": "Ashoka Theatre: Vadanappally"
  },
  "ABDE": {
    "AvailableFormats": "2D",
    "City": "Palakollu",
    "Latitude": "16.5167",
    "Longitude": "81.7258",
    "RegionCode": "PLKL",
    "State": "Andhra Pradesh",
    "SubRegionCode": "PLKL",
    "VenueAddress": "Money Market Road, Near Kanaka Durga Maa Temple, Palakollu, Andhra Pradesh 534260, India",
    "VenueCode": "ABDE",
    "VenueName": "Adabala Theatre Screen 2: Palakollu"
  },
  "ACAS": {
    "AvailableFormats": "2D",
    "City": "Hyderabad",
    "Latitude": "17.4371",
    "Longitude": "78.4486",
    "RegionCode": "HYD",
    "State": "Telangana",
    "SubRegionCode": "HYD",
    "VenueAddress": "Asian Allu Arjun Cinemas, Satyam Theatre Road, X Road Kumar Basti, Ameerpet, Hyderabad, Telangana 500082, India",
    "VenueCode": "ACAS",
    "VenueName": "AAA Cinemas: Ameerpet"
  },
  "ACGA": {
    "AvailableFormats": "2D",
    "City": "Guwahati",
    "Latitude": "26.1839",
    "Longitude": "91.7825",
    "RegionCode": "GUW",
    "State": "Assam",
    "SubRegionCode": "GUW",
    "VenueAddress": "Bamachal Road, West Jyotinagar, Bamunimaidan, Guwahati, Assam 781021, India",
    "VenueCode": "ACGA",
    "VenueName": "Anuradha Cineplex: Guwahati"
  },
  "ACKL": {
    "AvailableFormats": "2D",
    "City": "Khila",
    "Latitude": "22.6733",
    "Longitude": "88.0003",
    "RegionCode": "KHIL",
    "State": "West Bengal",
    "SubRegionCode": "KHIL",
    "VenueAddress": "Udaynarayanpur, Munshirhat Road, Khila, West Bengal 711410, India",
    "VenueCode": "ACKL",
    "VenueName": "Aparupa Cinema: Khila"
  },
  "ACNC": {
    "AvailableFormats": "2D",
    "City": "Vadakara",
    "Latitude": "11.5998",
    "Longitude": "75.5859",
    "RegionCode": "VDKR",
    "State": "Kerala",
    "SubRegionCode": "VDKR",
    "VenueAddress": "Main Road Vadakara, Badagara, Vadakara, Near Taluk Office Vadakara, Vadakara, Kerala 673101, India",
    "VenueCode": "ACNC",
    "VenueName": "Ashok CNC 4K Dolby Atmos Tripple Beam 3D: Vadakara"
  },
  "ACSI": {
    "AvailableFormats": "2D",
    "City": "Shamli",
    "Latitude": "29.4176",
    "Longitude": "77.2509",
    "RegionCode": "SHAM",
    "State": "Uttar Pradesh",
    "SubRegionCode": "SHAM",
    "VenueAddress": "Shamli-Kairana Road, Near Shubh Lagan Marriage Hall, Shamli, Uttar Pradesh 247776, India",
    "VenueCode": "ACSI",
    "VenueName": "Adhiraj Cinemas: Shamli"
  },
  "ACXK": {
    "AvailableFormats": "2D",
    "City": "Kichha",
    "Latitude": "28.9107",
    "Longitude": "79.5144",
    "RegionCode": "KCHA",
    "State": "Uttarakhand",
    "SubRegionCode": "KCHA",
    "VenueAddress": "Bareilly Road, Main Market, Kichha, Uttarakhand 263148, India",
    "VenueCode": "ACXK",
    "VenueName": "Anupam Cineplex: Kichha"
  },
  "ADKM": {
    "AvailableFormats": "2D",
    "City": "Kamareddy",
    "Latitude": "18.3286",
    "Longitude": "78.3357",
    "RegionCode": "KMRD",
    "State": "Telangana",
    "SubRegionCode": "KMRD",
    "VenueAddress": "Aldoor Road, Near Panchamukhi Hanuman Temple, Kamareddy, Telangana 503111, India",
    "VenueCode": "ADKM",
    "VenueName": "Asian Darshan: Kamareddy"
  },
  "AICF": {
    "AvailableFormats": "2D",
    "City": "Guwahati",
    "Latitude": "26.1322",
    "Longitude": "91.8207",
    "RegionCode": "GUW",
    "State": "Assam",
    "SubRegionCode": "GUW",
    "VenueAddress": "2nd Floor, Asffdc Limited, Shilpgram Road, Panjabari, Guwahati, Assam 781037, India",
    "VenueCode": "AICF",
    "VenueName": "Aideo Cinema Hall: ASFFDC, Panjabari, Guwahati"
  },
  "AKMD": {
    "AvailableFormats": "2D|3D",
    "City": "Chhindwara",
    "Latitude": "22.0607",
    "Longitude": "78.9455",
    "RegionCode": "CHIN",
    "State": "Madhya Pradesh",
    "SubRegionCode": "CHIN",
    "VenueAddress": "Alka Multiplex Alka Cinema Compound, Bus Stand to Station Road, Chhindwara, Madhya Pradesh 480001, India",
    "VenueCode": "AKMD",
    "VenueName": "Alka Multiplex: Chhindwara"
  },
  "ALCI": {
    "AvailableFormats": "2D",
    "City": "Vadodara",
    "Latitude": "22.2859",
    "Longitude": "73.2092",
    "RegionCode": "VAD",
    "State": "Gujarat",
    "SubRegionCode": "VAD",
    "VenueAddress": "Navapura, Bhatia Chawl, Pratap Nagar Road, Moghul Wada, Vadodara, Gujarat 390001, India",
    "VenueCode": "ALCI",
    "VenueName": "Alpana Cinema: Vadodara"
  },
  "AMCA": {
    "AvailableFormats": "2D",
    "City": "Hyderabad",
    "Latitude": "17.3717",
    "Longitude": "78.4302",
    "RegionCode": "HYD",
    "State": "Telangana",
    "SubRegionCode": "HYD",
    "VenueAddress": "1st Floor, MCube Mall, Attapur Ring Road, Somi Reddy Nagar, Rajendra Nagar,Attapur, Hyderabad, Telangana 500048, India",
    "VenueCode": "AMCA",
    "VenueName": "Asian M Cube Mall: Attapur"
  },
  "AMJN": {
    "AvailableFormats": "3D|2D",
    "City": "Nagpur",
    "Latitude": "21.1037",
    "Longitude": "79.0684",
    "RegionCode": "NAGP",
    "State": "Maharashtra",
    "SubRegionCode": "NAGP",
    "VenueAddress": "26 T3, Jaiprakash Nagar Wardha Road, Sita Nagar Somalwara, Inside Jai Prakash Nagar Metro Station, Nagpur, Maharashtra 440025, India",
    "VenueCode": "AMJN",
    "VenueName": "AM Cinema: Jaiprakash Nagar, Nagpur"
  },
  "AMSN": {
    "AvailableFormats": "2D",
    "City": "Karimnagar",
    "Latitude": "18.442650",
    "Longitude": "79.138599",
    "RegionCode": "KARIM",
    "State": "Telangana",
    "SubRegionCode": "KARIM",
    "VenueAddress": "SN Pride Mall, 2nd Floor, Gandhi Road, Kisan Nagar, Karimnagar, Telangana 505451, India",
    "VenueCode": "AMSN",
    "VenueName": "1 Cinemas by Asian Mukta A2 Cinemas, SN Pride Mall"
  },
  "ANCG": {
    "AvailableFormats": "2D",
    "City": "Gondal",
    "Latitude": "21.9615",
    "Longitude": "70.7716",
    "RegionCode": "GONA",
    "State": "Gujarat",
    "SubRegionCode": "GONA",
    "VenueAddress": "2nd Floor, Balaji Mall, Gundala Road, Gondal, Gujarat 360311, India",
    "VenueCode": "ANCG",
    "VenueName": "Auston Cinemas: Gondal"
  },
  "ANRR": {
    "AvailableFormats": "2D",
    "City": "Kanpur",
    "Latitude": "26.4643",
    "Longitude": "80.3573",
    "RegionCode": "KANP",
    "State": "Uttar Pradesh",
    "SubRegionCode": "KANP",
    "VenueAddress": "Birhana Road, Naughara, General Ganj, Kanpur, Uttar Pradesh 208001, India",
    "VenueCode": "ANRR",
    "VenueName": "Navrang Cineplex: Kanpur"
  },
  "APAA": {
    "AvailableFormats": "2D",
    "City": "Mathabhanga",
    "Latitude": "26.3397",
    "Longitude": "89.2157",
    "RegionCode": "MABH",
    "State": "West Bengal",
    "SubRegionCode": "MABH",
    "VenueAddress": "Sitalkuchi Road, Near MINA Jewellary, Opposite Digital World, Mathabhanga, West Bengal 736146, India",
    "VenueCode": "APAA",
    "VenueName": "Apsara Cinema: Mathabhanga"
  },
  "APLP": {
    "AvailableFormats": "2D",
    "City": "Surat",
    "Latitude": "21.1812",
    "Longitude": "72.7679",
    "RegionCode": "SURT",
    "State": "Gujarat",
    "SubRegionCode": "SURT",
    "VenueAddress": "4th Floor, Zircon Arena, Pal Bhatha, Surat, Gujarat 394510, India",
    "VenueCode": "APLP",
    "VenueName": "Apple Cinema: Pal Bhatha"
  },
  "APTD": {
    "AvailableFormats": "2D",
    "City": "Durg",
    "Latitude": "21.1963",
    "Longitude": "81.2845",
    "RegionCode": "DURG",
    "State": "Chhattisgarh",
    "SubRegionCode": "DURG",
    "VenueAddress": "Sindhi Colony, Station Road, Guru Nanak Nagar, Durg, Chhattisgarh 491001, India",
    "VenueCode": "APTD",
    "VenueName": "FUN Cinemas Apsara Talkies: Durg"
  },
  "ARDC": {
    "AvailableFormats": "2D|3D",
    "City": "Chhatrapati Sambhajinagar (Aurangabad)",
    "Latitude": "19.8847",
    "Longitude": "75.3231",
    "RegionCode": "AURA",
    "State": "Maharashtra",
    "SubRegionCode": "AURA",
    "VenueAddress": "1, Naralibag Road, Opposite Sai Abhyasika, Chhatrapati Sambhajinagar (Aurangabad), Maharashtra 431001, India",
    "VenueCode": "ARDC",
    "VenueName": "Anjali Ratnadeep Cinema:Chhatrapati SambhajiNagar"
  },
  "ARTS": {
    "AvailableFormats": "2D",
    "City": "Bengaluru",
    "Latitude": "12.9868",
    "Longitude": "77.5672",
    "RegionCode": "HOKT",
    "State": "Karnataka",
    "SubRegionCode": "HOKT",
    "VenueAddress": "98, Nagendra Gardens, Ramachandrapura, Srirampuram, Near R.R.R.Kalyana Mantapa, Bengaluru, Karnataka 560021, India",
    "VenueCode": "ARTS",
    "VenueName": "Aruna Theatre A/C 4K 7.1 Dolby 3D: Srirampuram"
  },
  "ASCX": {
    "AvailableFormats": "2D",
    "City": "Thiruvalla",
    "Latitude": "9.34101",
    "Longitude": "76.5341",
    "RegionCode": "THVL",
    "State": "Kerala",
    "SubRegionCode": "THVL",
    "VenueAddress": "Mall Grand, Thiruvalla Mavelikkara Road, Thiruvalla, Kerala 689621, India",
    "VenueCode": "ASCX",
    "VenueName": "Aashirvad Cineplexx: Kadappra"
  },
  "ASMA": {
    "AvailableFormats": "",
    "City": "Ahilyanagar (Ahmednagar)",
    "Latitude": "19.0927",
    "Longitude": "74.7362",
    "RegionCode": "AHMED",
    "State": "Maharashtra",
    "SubRegionCode": "AHMED",
    "VenueAddress": "Asha Chowk, Ahmednagar, Near Kotwali Police Headquarter, Ahilyanagar (Ahmednagar), Maharashtra 414001, India",
    "VenueCode": "ASMA",
    "VenueName": "Asha Square Multiplex: Ahilyanagar"
  },
  "ASRM": {
    "AvailableFormats": "2D",
    "City": "Madanapalle",
    "Latitude": "13.5553",
    "Longitude": "78.5081",
    "RegionCode": "MDNP",
    "State": "Andhra Pradesh",
    "SubRegionCode": "MDNP",
    "VenueAddress": "Rama Gopal Naidu Colony, Near State Bank of India, Madanapalle, Andhra Pradesh 517325, India",
    "VenueCode": "ASRM",
    "VenueName": "ASR A/C 4K Laser Dolby Surround 7.1: Madanapalle"
  },
  "ASTS": {
    "AvailableFormats": "2D",
    "City": "Davanagere",
    "Latitude": "14.4673",
    "Longitude": "75.9249",
    "RegionCode": "DAVA",
    "State": "Karnataka",
    "SubRegionCode": "DAVA",
    "VenueAddress": "SH 65, Ashoka Road, KB Extension, Near Railway Gate, Davanagere, Karnataka 577001, India",
    "VenueCode": "ASTS",
    "VenueName": "Ashoka Talkies: Davanagere"
  },
  "ATCL": {
    "AvailableFormats": "2D",
    "City": "Mandapeta",
    "Latitude": "16.8707",
    "Longitude": "81.9254",
    "RegionCode": "MAND",
    "State": "Andhra Pradesh",
    "SubRegionCode": "MAND",
    "VenueAddress": "Cinema Road, Gandhi Nagar, Near Municipality Compost Yard, Mandapeta, Andhra Pradesh 533308, India",
    "VenueCode": "ATCL",
    "VenueName": "Ambica Theaters 2K A/c DTS: Mandapeta"
  },
  "ATRD": {
    "AvailableFormats": "2D",
    "City": "Erode",
    "Latitude": "11.3451",
    "Longitude": "77.7087",
    "RegionCode": "EROD",
    "State": "Tamil Nadu",
    "SubRegionCode": "EROD",
    "VenueAddress": "Manikampalayam Housing Unit, Erode, Tamil Nadu, Near SSPE Cotton Mills, Erode, Tamil Nadu 638011, India",
    "VenueCode": "ATRD",
    "VenueName": "Anna Theatre A/C: Erode"
  },
  "AUPM": {
    "AvailableFormats": "2D|3D",
    "City": "Nizamabad",
    "Latitude": "18.6642",
    "Longitude": "78.0941",
    "RegionCode": "NIZA",
    "State": "Telangana",
    "SubRegionCode": "NIZA",
    "VenueAddress": "Kotagally, Pedda Bazaar Road, Shivaji Nagar, Near Government High School, Nizamabad, Telangana 503001, India",
    "VenueCode": "AUPM",
    "VenueName": "Asian Usha Prasad Multiplex: Nizamabad"
  },
  "AVSG": {
    "AvailableFormats": "2D",
    "City": "Ghazipur",
    "Latitude": "25.5728",
    "Longitude": "83.5633",
    "RegionCode": "GHAR",
    "State": "Uttar Pradesh",
    "SubRegionCode": "GHAR",
    "VenueAddress": "Above V-Mart Vidhya Complex, Bandhwa Pull, Near - Sichai Vibhag Choraha, Ghazipur, Uttar Pradesh 233001, India",
    "VenueCode": "AVSG",
    "VenueName": "AV Star Cinema: Ghazipur"
  },
  "AYCZ": {
    "AvailableFormats": "2D",
    "City": "Zarap",
    "Latitude": "15.9309",
    "Longitude": "73.756",
    "RegionCode": "ZARA",
    "State": "Maharashtra",
    "SubRegionCode": "ZAEA",
    "VenueAddress": "Zarap Zero Point, Kudal Sindhudurg, Near Nemale Bridge, Zarap, Maharashtra 416510, India",
    "VenueCode": "AYCZ",
    "VenueName": "Aaradhya Cinema: Sawantwadi, Zarap"
  },
  "BASK": {
    "AvailableFormats": "2D",
    "City": "Sivasagar",
    "Latitude": "26.953",
    "Longitude": "94.5718",
    "RegionCode": "SVSG",
    "State": "Assam",
    "SubRegionCode": "SVSG",
    "VenueAddress": "AT Road, Bhatiapar, Near Bhatiapar Petrol Pump, Sivasagar, Assam 785697, India",
    "VenueCode": "BASK",
    "VenueName": "Bhaskarjyoti Cinema: Sivasagar"
  },
  "BBYK": {
    "AvailableFormats": "2D",
    "City": "Kuthuparamba",
    "Latitude": "11.8299",
    "Longitude": "75.5639",
    "RegionCode": "KUTH",
    "State": "Kerala",
    "SubRegionCode": "KUTH",
    "VenueAddress": "Chovva Bypass Road, Kuthuparamba, Kuthuparamba, Kerala 670643, India",
    "VenueCode": "BBYK",
    "VenueName": "Baby Cinemas: Kuthuparamba"
  },
  "BDMA": {
    "AvailableFormats": "2D",
    "City": "Vijayawada",
    "Latitude": "16.5891",
    "Longitude": "80.5189",
    "RegionCode": "KADU",
    "State": "Andhra Pradesh",
    "SubRegionCode": "KADU",
    "VenueAddress": "NH 65, Ibrahimpatnam, Vijayawada, Andhra Pradesh 521456, India",
    "VenueCode": "BDMA",
    "VenueName": "Balaji Iconia A/c 2K Dolby Surround: Ibrahimpatnam"
  },
  "BHEL": {
    "AvailableFormats": "2D",
    "City": "Trichy",
    "Latitude": "10.7695",
    "Longitude": "78.7974",
    "RegionCode": "TRIC",
    "State": "Tamil Nadu",
    "SubRegionCode": "TRIC",
    "VenueAddress": "Kamarajapuram BHEL Township, BHEL Tiruchirappali Complex area,Thiruverumbur,Trichy, Near BHEL Training Center, Trichy, Tamil Nadu 620022, India",
    "VenueCode": "BHEL",
    "VenueName": "BHELEC Cinema A/C Dolby 7.1: Trichy"
  },
  "BJLC": {
    "AvailableFormats": "2D",
    "City": "Kolkata",
    "Latitude": "22.5269",
    "Longitude": "88.3459",
    "RegionCode": "KOLK",
    "State": "West Bengal",
    "SubRegionCode": "KOLK",
    "VenueAddress": "No.39, Shyama Prasad Mukherjee Road, Jatin Das Park, Patuapara, Bhawanipur, Kolkata, West Bengal 700025, India",
    "VenueCode": "BJLC",
    "VenueName": "Bijoli Cinema: Kolkata"
  },
  "BLJI": {
    "AvailableFormats": "2D",
    "City": "Vijayawada",
    "Latitude": "16.4726",
    "Longitude": "80.7163",
    "RegionCode": "KADU",
    "State": "Andhra Pradesh",
    "SubRegionCode": "KADU",
    "VenueAddress": "Bundar Road, Poranki, Near Priya Foods, Vijayawada, Andhra Pradesh 521137, India",
    "VenueCode": "BLJI",
    "VenueName": "Balaji Cine Villa: Vijayawada"
  },
  "BMXA": {
    "AvailableFormats": "2D",
    "City": "Ulhasnagar",
    "Latitude": "19.2201",
    "Longitude": "73.1723",
    "RegionCode": "MUMBAI",
    "State": "Maharashtra",
    "SubRegionCode": "ULHA",
    "VenueAddress": "GNP Galaxy, Vadol Gaon, Waldhuni, Ambernath, Ulhasnagar, Ulhasnagar, Maharashtra 421501, India",
    "VenueCode": "BMXA",
    "VenueName": "BMX Cinemas: Ambernath (New)"
  },
  "BRUN": {
    "AvailableFormats": "2D|3D",
    "City": "Cuttack",
    "Latitude": "20.465",
    "Longitude": "85.8852",
    "RegionCode": "CUTT",
    "State": "Odisha",
    "SubRegionCode": "CUTT",
    "VenueAddress": "Bajrakabati Road, Siba Bazar, Near Bank Of India, Cuttack, Odisha 753001, India",
    "VenueCode": "BRUN",
    "VenueName": "Brundaban (4k, Dolby Atmos 64 Channel Sounds)"
  },
  "BSVK": {
    "AvailableFormats": "2D",
    "City": "Krishnarajpete (K.R.Pete)",
    "Latitude": "12.6644",
    "Longitude": "76.4876",
    "RegionCode": "KEKE",
    "State": "Karnataka",
    "SubRegionCode": "KEKE",
    "VenueAddress": "No 1231/1142/A, Old Kikkeri Road, BasaveshwaraNagar, Krishnarajpete (K.R.Pete), Karnataka 571426, India",
    "VenueCode": "BSVK",
    "VenueName": "Sri Basaveshwara Cinemas: K.R. Pete"
  },
  "BUUC": {
    "AvailableFormats": "2D",
    "City": "Udupi",
    "Latitude": "13.3457",
    "Longitude": "74.7527",
    "RegionCode": "MANI",
    "State": "Karnataka",
    "SubRegionCode": "MANI",
    "VenueAddress": "Mandavi Times Square Mall, 2nd Floor, Mandavi, Manipal Highway, Klasanka Junction, Kunjibettu, Udupi, Karnataka 576102, India",
    "VenueCode": "BUUC",
    "VenueName": "Times Square Bharath Cinemas: Udupi"
  },
  "CAIS": {
    "AvailableFormats": "2D",
    "City": "Kochi",
    "Latitude": "10.1068",
    "Longitude": "76.3631",
    "RegionCode": "PALY",
    "State": "Kerala",
    "SubRegionCode": "PALY",
    "VenueAddress": "Little Flower Ln, Periyar Nagar, Perumbavoor Aluva Road, Near Passport Office, Kochi, Kerala 683101, India",
    "VenueCode": "CAIS",
    "VenueName": "Casino Talkies A/C Real Laser 3D DOLBY 7.1: Aluva"
  },
  "CCAD": {
    "AvailableFormats": "2D",
    "City": "Anand",
    "Latitude": "22.5673",
    "Longitude": "72.9433",
    "RegionCode": "AND",
    "State": "Gujarat",
    "SubRegionCode": "AND",
    "VenueAddress": "Lambhvel Road, Purushottam Nagar, Anand, Gujarat 388001, India",
    "VenueCode": "CCAD",
    "VenueName": "Connplex Cinemas: Anand"
  },
  "CCGW": {
    "AvailableFormats": "2D",
    "City": "Guwahati",
    "Latitude": "26.1573",
    "Longitude": "91.7781",
    "RegionCode": "GUW",
    "State": "Assam",
    "SubRegionCode": "GUW",
    "VenueAddress": "Christian Basti, G.S. Road, Guwahati, Assam 781005, India",
    "VenueCode": "CCGW",
    "VenueName": "PVR: City Centre, Guwahati"
  },
  "CCMF": {
    "AvailableFormats": "2D",
    "City": "Charkhi Dadri",
    "Latitude": "28.5937",
    "Longitude": "76.2574",
    "RegionCode": "CCDD",
    "State": "Haryana",
    "SubRegionCode": "CCDD",
    "VenueAddress": "Main Loharu Road, Rose Petals Hotel Restaurant, Charkhi Dadri, Haryana 127306, India",
    "VenueCode": "CCMF",
    "VenueName": "Chhotu Maharaj Cine Cafe: Charkhi Dadri"
  },
  "CCPF": {
    "AvailableFormats": "",
    "City": "Agra",
    "Latitude": "27.2062",
    "Longitude": "77.9727",
    "RegionCode": "AGRA",
    "State": "Uttar Pradesh",
    "SubRegionCode": "AGRA",
    "VenueAddress": "Avas Vikas Colony, Sector 12A, Plot No. MP 01, Agra, Uttar Pradesh 282007, India",
    "VenueCode": "CCPF",
    "VenueName": "Cineworld Multiplex: Paras Pearls Mall, Agra"
  },
  "CCSN": {
    "AvailableFormats": "2D",
    "City": "Chengannur",
    "Latitude": "9.31838",
    "Longitude": "76.6111",
    "RegionCode": "CHEG",
    "State": "Kerala",
    "SubRegionCode": "CHEG",
    "VenueAddress": "MC Road, Chengannur, Kerala, Opposite KSRTC Bus Stand, Chengannur, Kerala 689121, India",
    "VenueCode": "CCSN",
    "VenueName": "C Cinemas: Chengannur"
  },
  "CDOK": {
    "AvailableFormats": "2D",
    "City": "Jajpur Road",
    "Latitude": "20.9518",
    "Longitude": "86.1306",
    "RegionCode": "JAJP",
    "State": "Odisha",
    "SubRegionCode": "JAJP",
    "VenueAddress": "Utkal Centre Point Mall, Chorda Bypass Square, Byasanagar Main Road, Jajpur Road, Odisha 755019, India",
    "VenueCode": "CDOK",
    "VenueName": "Connplex Cinemas (Signature): Utkal Centre Point"
  },
  "CEPO": {
    "AvailableFormats": "2D",
    "City": "Pune",
    "Latitude": "18.518",
    "Longitude": "73.8561",
    "RegionCode": "PUNE",
    "State": "Maharashtra",
    "SubRegionCode": "PUNE",
    "VenueAddress": "Near Nana Wada, Chhatrapati Shivaji Maharaj Road, Budhwar Peth, Pune, Maharashtra 411002, India",
    "VenueCode": "CEPO",
    "VenueName": "CinePRO: Vasant Cinema, Pune"
  },
  "CGCO": {
    "AvailableFormats": "",
    "City": "Olpad",
    "Latitude": "21.328",
    "Longitude": "72.7558",
    "RegionCode": "SURT",
    "State": "Gujarat",
    "SubRegionCode": "SURT",
    "VenueAddress": "Krishnam Arcade, Olpad-Sayan Road, Opposite Mali Fadiya, Olpad, Gujarat 394045, India",
    "VenueCode": "CGCO",
    "VenueName": "Cinemagic Cinema: Olpad"
  },
  "CGPM": {
    "AvailableFormats": "2D|3D",
    "City": "Patna",
    "Latitude": "25.6028",
    "Longitude": "85.1535",
    "RegionCode": "PATN",
    "State": "Bihar",
    "SubRegionCode": "PATN",
    "VenueAddress": "No. 294, The Gravity Mall, Old Bypass Road, Bechar Main Road, Kankarbagh, Patna, Bihar 800020, India",
    "VenueCode": "CGPM",
    "VenueName": "Cinepolis: Gravity Mall, Patna"
  },
  "CHTI": {
    "AvailableFormats": "2D",
    "City": "Poovar",
    "Latitude": "8.31976",
    "Longitude": "77.0743",
    "RegionCode": "TRIV",
    "State": "Kerala",
    "SubRegionCode": "TRIV",
    "VenueAddress": "Cine Cafe Restaurant and Cineplex, Bridge Road, Opposite To Thuruthil Granite, Poovar, Kerala 695525, India",
    "VenueCode": "CHTI",
    "VenueName": "Chhotu Maharaj Cine Cafe: Poovar, Kerala"
  },
  "CIJA": {
    "AvailableFormats": "2D|3D",
    "City": "Delhi",
    "Latitude": "28.6109",
    "Longitude": "77.0938",
    "RegionCode": "NCR",
    "State": "NCR",
    "SubRegionCode": "DELHI",
    "VenueAddress": "Pankha Road, Block C 6A, Janakpuri, Delhi, NCR 110058, India",
    "VenueCode": "CIJA",
    "VenueName": "Cinepolis: Janak Cinema, New Delhi"
  },
  "CKKX": {
    "AvailableFormats": "2D|3D",
    "City": "Kankroli",
    "Latitude": "25.0525",
    "Longitude": "73.8843",
    "RegionCode": "KANL",
    "State": "Rajasthan",
    "SubRegionCode": "KANL",
    "VenueAddress": "2nd Floor, Krishna Ashish, TVS Circle, Mahadev Colony, Kankroli, Rajasthan 313324, India",
    "VenueCode": "CKKX",
    "VenueName": "Cine Square Cinemas: Kankroli"
  },
  "CLDR": {
    "AvailableFormats": "2D",
    "City": "Ramanathapuram",
    "Latitude": "9.35868",
    "Longitude": "78.8433",
    "RegionCode": "RAPU",
    "State": "Tamil Nadu",
    "SubRegionCode": "RAPU",
    "VenueAddress": "9R5V+F8C, Mandapam Road, Kadampa Nagar, Ramanathapuram, Tamil Nadu 623501, India",
    "VenueCode": "CLDR",
    "VenueName": "The Cine Lounge Dolby 7.1: GSM Mall Ramanathapuram"
  },
  "CLSB": {
    "AvailableFormats": "2D",
    "City": "Siwan",
    "Latitude": "26.2307",
    "Longitude": "84.3694",
    "RegionCode": "SWNB",
    "State": "Bihar",
    "SubRegionCode": "SWNB",
    "VenueAddress": "Chandrika Tower, Gaushala Road, Pakdi Bus Stand, Siwan, Bihar 841226, India",
    "VenueCode": "CLSB",
    "VenueName": "Connplex Cinemas (Luxuriance): Siwan"
  },
  "CMGJ": {
    "AvailableFormats": "2D",
    "City": "Godda",
    "Latitude": "24.8314",
    "Longitude": "87.21",
    "RegionCode": "GDDA",
    "State": "Jharkhand",
    "SubRegionCode": "GDDA",
    "VenueAddress": "Rooftop Of Reliance Smart Bazaar, Near Petrol Pump Bhagalpur Road, Godda, Jharkhand 814133, India",
    "VenueCode": "CMGJ",
    "VenueName": "Chhotu Maharaj Cine Cafe: Godda, Jharkhand"
  },
  "CMMP": {
    "AvailableFormats": "2D",
    "City": "Rampur",
    "Latitude": "28.7516",
    "Longitude": "79.0545",
    "RegionCode": "RAMU",
    "State": "Uttar Pradesh",
    "SubRegionCode": "RAMU",
    "VenueAddress": "Modi Mall, Modipur, Faizulla Nagar, Nh-24, Bareilly Road, Rampur, Uttar Pradesh 244901, India",
    "VenueCode": "CMMP",
    "VenueName": "Cinepolis: Modi Mall, Rampur"
  },
  "CMTU": {
    "AvailableFormats": "2D",
    "City": "Khatima",
    "Latitude": "28.924",
    "Longitude": "79.9753",
    "RegionCode": "KHTM",
    "State": "Uttarakhand",
    "SubRegionCode": "KHTM",
    "VenueAddress": "Mj Market, Tankapur Road, Opposite -  Prayas Hospital, Khatima, Uttarakhand 262308, India",
    "VenueCode": "CMTU",
    "VenueName": "Chhotu Maharaj Cine Cafe: Khatima,Uttarakhand"
  },
  "CMXN": {
    "AvailableFormats": "2D",
    "City": "Nimbahera",
    "Latitude": "24.6251",
    "Longitude": "74.6928",
    "RegionCode": "NIPA",
    "State": "Rajasthan",
    "SubRegionCode": "NIPA",
    "VenueAddress": "Chittorgarh Road, Mahesh Nagar, Kamdhaz Nagar, Nimbahera, Rajasthan 312601, India",
    "VenueCode": "CMXN",
    "VenueName": "Crazy Multiplex: Nimbahera"
  },
  "CNCY": {
    "AvailableFormats": "2D",
    "City": "Sagar",
    "Latitude": "23.8526",
    "Longitude": "78.7808",
    "RegionCode": "SAMP",
    "State": "Madhya Pradesh",
    "SubRegionCode": "SAMP",
    "VenueAddress": "National Highway No 26, Jhansi Road, Makronia Camp, Above Parinay Banquet Hall, Sagar, Madhya Pradesh 470004, India",
    "VenueCode": "CNCY",
    "VenueName": "Cine City: Sagar"
  },
  "CNPD": {
    "AvailableFormats": "2D",
    "City": "Chintalapudi",
    "Latitude": "17.0655",
    "Longitude": "80.983",
    "RegionCode": "CHPD",
    "State": "Andhra Pradesh",
    "SubRegionCode": "CHPD",
    "VenueAddress": "Chintalapudi - Eluru Road, Near Old Bus Stand, Chintalapudi, Andhra Pradesh 534460, India",
    "VenueCode": "CNPD",
    "VenueName": "Sarada Mini A/C Theatre: Chintalapudi"
  },
  "CNTX": {
    "AvailableFormats": "",
    "City": "Thane",
    "Latitude": "19.1927",
    "Longitude": "72.9686",
    "RegionCode": "MUMBAI",
    "State": "Maharashtra",
    "SubRegionCode": "THNE",
    "VenueAddress": "4TH Floor, Rhythm Building, Old Aaradhana Cinemas, L.B.S. Marg, M.D. Road, Panchpakhdi, Naupada, Thane (West), Thane, Maharashtra 400602, India",
    "VenueCode": "CNTX",
    "VenueName": "ICONIX CINEMAS: (OLD AARADHANA TALKIES) THANE"
  },
  "CONS": {
    "AvailableFormats": "2D",
    "City": "Ahmedabad",
    "Latitude": "23.0354",
    "Longitude": "72.5045",
    "RegionCode": "AHD",
    "State": "Gujarat",
    "SubRegionCode": "AHD",
    "VenueAddress": "2nd Floor, Shilp Epitome, Behind Rajpath Rangoli Road, Bodakdev, Ahmedabad, Gujarat 380054, India",
    "VenueCode": "CONS",
    "VenueName": "Connplex Cinemas (Luxuriance): SBR"
  },
  "CPAS": {
    "AvailableFormats": "2D|3D",
    "City": "Bhopal",
    "Latitude": "23.1829",
    "Longitude": "77.4564",
    "RegionCode": "BHOP",
    "State": "Madhya Pradesh",
    "SubRegionCode": "BHOP",
    "VenueAddress": "3rd Floor, Aashima Mall, Danish Nagar, Bawadia Kalan, Hoshingabad Road, Bhopal, Madhya Pradesh 462026, India",
    "VenueCode": "CPAS",
    "VenueName": "Cinepolis: Aashima Mall, Bhopal"
  },
  "CPFT": {
    "AvailableFormats": "3D|2D",
    "City": "Pune",
    "Latitude": "18.4686",
    "Longitude": "73.8198",
    "RegionCode": "PUNE",
    "State": "Maharashtra",
    "SubRegionCode": "PUNE",
    "VenueAddress": "Near Manik Baug Petrol Pump, Sinhagad Road, Pune, Maharashtra 411041, India",
    "VenueCode": "CPFT",
    "VenueName": "Fun Time Multiplex: Sinhagad Road"
  },
  "CPKT": {
    "AvailableFormats": "3D|2D",
    "City": "Pune",
    "Latitude": "18.4997",
    "Longitude": "73.821",
    "RegionCode": "PUNE",
    "State": "Maharashtra",
    "SubRegionCode": "PUNE",
    "VenueAddress": "Survey No.20/1,2, Kothrud, Near Tara Residency, Pune, Maharashtra 411038, India",
    "VenueCode": "CPKT",
    "VenueName": "City Pride: Kothrud"
  },
  "CPNL": {
    "AvailableFormats": "2D|3D",
    "City": "Ludhiana",
    "Latitude": "30.8826",
    "Longitude": "75.782",
    "RegionCode": "LUDH",
    "State": "Punjab",
    "SubRegionCode": "LUDH",
    "VenueAddress": "2nd Floor, MBD Neopolis Mall, Ferozepur Road, Ludhiana, Punjab 141004, India",
    "VenueCode": "CPNL",
    "VenueName": "Cinepolis: Nexus MBD, Ludhiana"
  },
  "CPSA": {
    "AvailableFormats": "2D",
    "City": "Solan",
    "Latitude": "30.92",
    "Longitude": "77.0961",
    "RegionCode": "SCO",
    "State": "Himachal Pradesh",
    "SubRegionCode": "SCO",
    "VenueAddress": "2nd floor, Center Prime Mall, Kalka - Shimla Road, Solan, Himachal Pradesh 173213, India",
    "VenueCode": "CPSA",
    "VenueName": "CP Cinemas (Haveli), Centre Prime Mall: Solan"
  },
  "CPVM": {
    "AvailableFormats": "3D|IMAX 2D|4DX|2D",
    "City": "Thane",
    "Latitude": "19.2088",
    "Longitude": "72.9709",
    "RegionCode": "MUMBAI",
    "State": "Maharashtra",
    "SubRegionCode": "THNE",
    "VenueAddress": "Viviana Mall, Eastern Express Highway, Laxmi Nagar, Thane (West), Thane, Maharashtra 400606, India",
    "VenueCode": "CPVM",
    "VenueName": "Cinepolis: Viviana Mall, Thane"
  },
  "CRXH": {
    "AvailableFormats": "2D",
    "City": "Halol",
    "Latitude": "22.4966",
    "Longitude": "73.4714",
    "RegionCode": "HALO",
    "State": "Gujarat",
    "SubRegionCode": "HALO",
    "VenueAddress": "Townsquare Mall, 3rd Floor Oppositie Fire Station, Halol, Gujarat 389350, India",
    "VenueCode": "CRXH",
    "VenueName": "Cinemera Multiplex: Halol"
  },
  "CSMD": {
    "AvailableFormats": "2D",
    "City": "Dhrangadhra",
    "Latitude": "23.0008",
    "Longitude": "71.4156",
    "RegionCode": "DHRN",
    "State": "Gujarat",
    "SubRegionCode": "DHRN",
    "VenueAddress": "Ahmedabad, Kutch Highway, Dhrangadhra, Gujarat 363310, India",
    "VenueCode": "CSMD",
    "VenueName": "Connplex Cinemas: Sir Jadeja, Dhrangadhra"
  },
  "CSTL": {
    "AvailableFormats": "2D|3D",
    "City": "Nawada",
    "Latitude": "24.8877",
    "Longitude": "85.5392",
    "RegionCode": "NAWD",
    "State": "Bihar",
    "SubRegionCode": "NAWD",
    "VenueAddress": "Natraj Picture Palace, New Area, Nawada, Nawada, Bihar 805110, India",
    "VenueCode": "CSTL",
    "VenueName": "Connplex Cinemas (Natraj): Nawada"
  },
  "CTLC": {
    "AvailableFormats": "2D",
    "City": "Chapra",
    "Latitude": "25.7875",
    "Longitude": "84.7145",
    "RegionCode": "CHPR",
    "State": "Bihar",
    "SubRegionCode": "CHPR",
    "VenueAddress": "Ware House Colony, Main Road, Near Gudri Chowk, Chapra, Bihar 841301, India",
    "VenueCode": "CTLC",
    "VenueName": "Cinemaoo The Luxury: Chapra"
  },
  "CTNR": {
    "AvailableFormats": "",
    "City": "Hyderabad",
    "Latitude": "17.503",
    "Longitude": "78.4773",
    "RegionCode": "HYD",
    "State": "Telangana",
    "SubRegionCode": "HYD",
    "VenueAddress": "Cinepolis TNR North City, SY No 85 and 89, NH-44, 7, Suchitra Road, NH-44, 7, Suchitra Road, Hyderabad, Telangana 500055, India",
    "VenueCode": "CTNR",
    "VenueName": "Cinepolis: TNR North City, Suchitra, Hyderabad"
  },
  "CUNT": {
    "AvailableFormats": "",
    "City": "Delhi",
    "Latitude": "28.5928",
    "Longitude": "77.0407",
    "RegionCode": "NCR",
    "State": "NCR",
    "SubRegionCode": "DELHI",
    "VenueAddress": "Cinepolis India Pvt Ltd, Plot No.5, 12, Metro Station Road, Pocket 8, Block B, Sector 12 Dwarka, Delhi, NCR 110078, India",
    "VenueCode": "CUNT",
    "VenueName": "Cinepolis: City Centre Dwarka,Delhi (Newly Opened)"
  },
  "CVTT": {
    "AvailableFormats": "2D",
    "City": "Tirupati",
    "Latitude": "13.6301",
    "Longitude": "79.424",
    "RegionCode": "TIRU",
    "State": "Andhra Pradesh",
    "SubRegionCode": "TIRU",
    "VenueAddress": "Jayasam Road, Tata Nagar, Tirupati, Andhra Pradesh 517501, India",
    "VenueCode": "CVTT",
    "VenueName": "CVS Movie Land A/c DTS: Tirupati"
  },
  "CXMH": {
    "AvailableFormats": "2D",
    "City": "Himmatnagar",
    "Latitude": "23.5823",
    "Longitude": "72.9728",
    "RegionCode": "HIMM",
    "State": "Gujarat",
    "SubRegionCode": "HIMM",
    "VenueAddress": "Devdhan Complex, Sahakari Jin Road, Near Jyoti Supermarket, Himmatnagar, Gujarat 383001, India",
    "VenueCode": "CXMH",
    "VenueName": "Cinemunch Mplex MCR: Himmatnagar"
  },
  "DAMD": {
    "AvailableFormats": "2D",
    "City": "Tirupur",
    "Latitude": "11.0991",
    "Longitude": "77.3444",
    "RegionCode": "AVII",
    "State": "Tamil Nadu",
    "SubRegionCode": "AVII",
    "VenueAddress": "State Highway 169, Puliyamara Thottam, Katapalayam, Near Arulmigu Sri Pattathaarasi Amman Thirukovil, Tirupur, Tamil Nadu 641604, India",
    "VenueCode": "DAMD",
    "VenueName": "Diamond Cinemas A/C 4K Dolby: Tirupur"
  },
  "DCCT": {
    "AvailableFormats": "2D",
    "City": "Thrissur",
    "Latitude": "10.5616",
    "Longitude": "76.2174",
    "RegionCode": "THSR",
    "State": "Kerala",
    "SubRegionCode": "THSR",
    "VenueAddress": "Thrissur - Shoranur Road, Padukad, Keltron Nagar, Kolazhy, Thrissur, Kerala 680010, India",
    "VenueCode": "DCCT",
    "VenueName": "Deepa Cinema 4K RGB Laser DTS X: Viyyur"
  },
  "DCPC": {
    "AvailableFormats": "2D",
    "City": "Paonta Sahib",
    "Latitude": "30.4362",
    "Longitude": "77.5773",
    "RegionCode": "POTA",
    "State": "Himachal Pradesh",
    "SubRegionCode": "POTA",
    "VenueAddress": "Purwala - Bharli Road, Badripur, Pataliyon, Paonta Sahib, Himachal Pradesh 172025, India",
    "VenueCode": "DCPC",
    "VenueName": "Dhishoom Cinemas: Paonta Sahib"
  },
  "DDRX": {
    "AvailableFormats": "2D|3D",
    "City": "Bhopal",
    "Latitude": "23.2301",
    "Longitude": "77.4921",
    "RegionCode": "BHOP",
    "State": "Madhya Pradesh",
    "SubRegionCode": "BHOP",
    "VenueAddress": "4th Floor, Regal Civic Centre, Regal Town, Crystal Ideal City, Bhopal, Madhya Pradesh 462022, India",
    "VenueCode": "DDRX",
    "VenueName": "DDX Regal Cinema Awadhpuri: Bhopal"
  },
  "DEVI": {
    "AvailableFormats": "2D",
    "City": "Ahmedabad",
    "Latitude": "23.073",
    "Longitude": "72.65",
    "RegionCode": "AHD",
    "State": "Gujarat",
    "SubRegionCode": "AHD",
    "VenueAddress": "Opp. Mahaprabhuji Bethak, Naroda, Near Axis Bank ATM, Ahmedabad, Gujarat 382330, India",
    "VenueCode": "DEVI",
    "VenueName": "Devi Multiplex: Naroda"
  },
  "DIMY": {
    "AvailableFormats": "2D",
    "City": "Yamunanagar",
    "Latitude": "30.1525",
    "Longitude": "77.3092",
    "RegionCode": "YAMU",
    "State": "Haryana",
    "SubRegionCode": "YAMU",
    "VenueAddress": "NH73A, Basant Nagar, Yamunanagar, Haryana 135004, India",
    "VenueCode": "DIMY",
    "VenueName": "Dimple Cineplex: Yamuna Nagar"
  },
  "DMAN": {
    "AvailableFormats": "2D",
    "City": "Anand",
    "Latitude": "22.5632",
    "Longitude": "72.9527",
    "RegionCode": "PETL",
    "State": "Gujarat",
    "SubRegionCode": "PETL",
    "VenueAddress": "100 Feet Road, Beside Vegetable Market, Ganesh Colony, Anand, Gujarat 388001, India",
    "VenueCode": "DMAN",
    "VenueName": "Diya Cinema: Anand"
  },
  "DNKM": {
    "AvailableFormats": "2D",
    "City": "Kollam",
    "Latitude": "8.89143",
    "Longitude": "76.6034",
    "RegionCode": "KOLM",
    "State": "Kerala",
    "SubRegionCode": "KOLM",
    "VenueAddress": "Kadapakkada, Kappalandimukku - Kadappakkada Road, Near The Hindu News Paper, Kollam, Kerala 691008, India",
    "VenueCode": "DNKM",
    "VenueName": "Dhanya Remya: Kollam"
  },
  "DRMY": {
    "AvailableFormats": "2D|3D",
    "City": "Mysuru (Mysore)",
    "Latitude": "12.3221",
    "Longitude": "76.6208",
    "RegionCode": "MYS",
    "State": "Karnataka",
    "SubRegionCode": "MYS",
    "VenueAddress": "Gokulam Road, Jayalakshmipuram, Behind BM Hospital, Mysuru (Mysore), Karnataka 570012, India",
    "VenueCode": "DRMY",
    "VenueName": "DRC Cinemas: BM Habitat Mall"
  },
  "DTPT": {
    "AvailableFormats": "2D",
    "City": "Kanhangad",
    "Latitude": "12.3209",
    "Longitude": "75.0851",
    "RegionCode": "KKNN",
    "State": "Kerala",
    "SubRegionCode": "KKNN",
    "VenueAddress": "Deepthi Cinemas,Railway Station, Puthiyavalapu, Opposite Kanhangad, Kanhangad, Kerala 671315, India",
    "VenueCode": "DTPT",
    "VenueName": "Deepthi Cinemas A/c 2K Dolby Atmos: Kanhangad"
  },
  "DVDC": {
    "AvailableFormats": "2D",
    "City": "Delhi",
    "Latitude": "28.6418",
    "Longitude": "77.2335",
    "RegionCode": "NCR",
    "State": "NCR",
    "SubRegionCode": "DELHI",
    "VenueAddress": "Opp LNJP, Asaf Ali Road Darya Ganj, Near Delhi Stock Exchange, Delhi, NCR 110002, India",
    "VenueCode": "DVDC",
    "VenueName": "Delite Cinema: Asaf Ali Road"
  },
  "ECDG": {
    "AvailableFormats": "2D",
    "City": "Deoghar",
    "Latitude": "24.4907",
    "Longitude": "86.6915",
    "RegionCode": "DOGH",
    "State": "Jharkhand",
    "SubRegionCode": "DOGH",
    "VenueAddress": "Central Plaza Mall, Netaji Subhash Chandra Road, Above Big Bazar, Deoghar, Jharkhand 814112, India",
    "VenueCode": "ECDG",
    "VenueName": "Eylex Cinemas: Deoghar"
  },
  "EEBC": {
    "AvailableFormats": "",
    "City": "Greater Noida",
    "Latitude": "28.464",
    "Longitude": "77.5078",
    "RegionCode": "NCR",
    "State": "NCR",
    "SubRegionCode": "GRET",
    "VenueAddress": "ANSAL PLAZA MALL SHOPPING COMPLEX, Pari Chowk, Amit Nagar, Greater Noida, NCR 201310, India",
    "VenueCode": "EEBC",
    "VenueName": "eBox Cinema: Ansal Plaza Mall, Greater Noida"
  },
  "EMNC": {
    "AvailableFormats": "IMAX 2D",
    "City": "Mumbai",
    "Latitude": "18.9323",
    "Longitude": "72.8279",
    "RegionCode": "MUMBAI",
    "State": "Maharashtra",
    "SubRegionCode": "MCENT",
    "VenueAddress": "Cambata Building, 42, Maharshi Karve Road, Churchgate, Mumbai, Maharashtra 400020, India",
    "VenueCode": "EMNC",
    "VenueName": "EROS INOX IMAX Cinema: Churchgate"
  },
  "ESCP": {
    "AvailableFormats": "2D",
    "City": "Patna",
    "Latitude": "25.6177",
    "Longitude": "85.1486",
    "RegionCode": "PATN",
    "State": "Bihar",
    "SubRegionCode": "PATN",
    "VenueAddress": "East of Gandhi Maidan, Near Kargil Chowk, Bakarganj, Patna, Bihar 800004, India",
    "VenueCode": "ESCP",
    "VenueName": "Elphinstone Cinema"
  },
  "ETTR": {
    "AvailableFormats": "2D",
    "City": "Tirukoilur",
    "Latitude": "11.9683",
    "Longitude": "79.2055",
    "RegionCode": "TRKR",
    "State": "Tamil Nadu",
    "SubRegionCode": "TRKR",
    "VenueAddress": "SH 9, Thirukoilure, Near Government Hospital, Tirukoilur, Tamil Nadu 605757, India",
    "VenueCode": "ETTR",
    "VenueName": "Eshwari Thiraiarangam A/C 4K Dolby Atmos"
  },
  "EYLH": {
    "AvailableFormats": "2D",
    "City": "Ranchi",
    "Latitude": "23.3328",
    "Longitude": "85.3171",
    "RegionCode": "RANC",
    "State": "Jharkhand",
    "SubRegionCode": "RANC",
    "VenueAddress": "Hinoo Main Road, Shukla Colony,Opposite River View Restaurant, Ranchi, Jharkhand 834002, India",
    "VenueCode": "EYLH",
    "VenueName": "Eylex Cinemas: Hinoo"
  },
  "FFCX": {
    "AvailableFormats": "2D|3D",
    "City": "Indore",
    "Latitude": "22.6197",
    "Longitude": "75.8018",
    "RegionCode": "IND",
    "State": "Madhya Pradesh",
    "SubRegionCode": "IND",
    "VenueAddress": "Fundore Mall, 1st floor, Ahead of Rau Circle and Opposite Guru Kripa Restaurant, Near Red Maple Mashal Resort, Rau, Indore, Madhya Pradesh 453331, India",
    "VenueCode": "FFCX",
    "VenueName": "Fundore Cinemas, Rau: Indore"
  },
  "FMKY": {
    "AvailableFormats": "2D|3D",
    "City": "Kalyan",
    "Latitude": "19.2299",
    "Longitude": "73.1232",
    "RegionCode": "MUMBAI",
    "State": "Maharashtra",
    "SubRegionCode": "KALYAN",
    "VenueAddress": "2nd Floor, Metro Junction Mall, Netivali Village, Kalyan Shilphata Road, Kalyan, Maharashtra 421306, India",
    "VenueCode": "FMKY",
    "VenueName": "INOX: Metro Mall Junction, Kalyan (E)"
  },
  "FNAS": {
    "AvailableFormats": "2D|3D",
    "City": "Amritsar",
    "Latitude": "31.62",
    "Longitude": "74.9068",
    "RegionCode": "AMRI",
    "State": "Punjab",
    "SubRegionCode": "AMRI",
    "VenueAddress": "Alpha One, Level-2, G.T. Road, Maqbool Pura, Amritsar, Punjab 143006, India",
    "VenueCode": "FNAS",
    "VenueName": "Cinepolis: Nexus Amritsar"
  },
  "FNJJ": {
    "AvailableFormats": "2D|3D",
    "City": "Jaipur",
    "Latitude": "26.9422",
    "Longitude": "75.771",
    "RegionCode": "JAIP",
    "State": "Rajasthan",
    "SubRegionCode": "JAIP",
    "VenueAddress": "Jhotwara Road, Plot No: 1/1, Triton Mega Mall, Jaipur, Rajasthan 302012, India",
    "VenueCode": "FNJJ",
    "VenueName": "Cinepolis: Triton Mega Mall, Jaipur"
  },
  "FQSA": {
    "AvailableFormats": "2D",
    "City": "Navi Mumbai",
    "Latitude": "19.066",
    "Longitude": "73.0083",
    "RegionCode": "MUMBAI",
    "State": "Maharashtra",
    "SubRegionCode": "THAN",
    "VenueAddress": "Sector 3, Sanpada, Navi Mumbai, Maharashtra 400705, India",
    "VenueCode": "FQSA",
    "VenueName": "Fun Square Cinema: Sanpada"
  },
  "FSTD": {
    "AvailableFormats": "2D",
    "City": "Jaipur",
    "Latitude": "26.9606",
    "Longitude": "75.7786",
    "RegionCode": "JAIP",
    "State": "Rajasthan",
    "SubRegionCode": "JAIP",
    "VenueAddress": "Vidyadhar Nagar, Times square Mall, Jaipur, Rajasthan 302039, India",
    "VenueCode": "FSTD",
    "VenueName": "Funstar Cinemas: Vidhyadhar Nagar, Jaipur"
  },
  "GAGC": {
    "AvailableFormats": "2D",
    "City": "Delhi",
    "Latitude": "28.6964",
    "Longitude": "77.3149",
    "RegionCode": "NCR",
    "State": "NCR",
    "SubRegionCode": "DELHI",
    "VenueAddress": "Main Road Nand Nagari, Kanchipuram, Community Centre, Village Mandoli, Delhi, NCR 110093, India",
    "VenueCode": "GAGC",
    "VenueName": "Gagan Theatre: Nand Nagri, Delhi"
  },
  "GATR": {
    "AvailableFormats": "2D",
    "City": "Rajahmundry",
    "Latitude": "17.003",
    "Longitude": "81.775",
    "RegionCode": "RJMU",
    "State": "Andhra Pradesh",
    "SubRegionCode": "RJMU",
    "VenueAddress": "Syamalamba Temple Road, Mangalavaripeta, Near Sri Vinayaka Temple, Rajahmundry, Andhra Pradesh 533101, India",
    "VenueCode": "GATR",
    "VenueName": "Apsara Laser R.G.B 4K Dolby Atmos: Rajahmundry"
  },
  "GCBB": {
    "AvailableFormats": "2D",
    "City": "Barshi",
    "Latitude": "18.2463",
    "Longitude": "75.6966",
    "RegionCode": "BRHI",
    "State": "Maharashtra",
    "SubRegionCode": "BRHI",
    "VenueAddress": "M.P complex 1551/1/2CD, Near by Hiremath Hospital, Subhas Nagar, Agalgoan Road, Solapur, Barshi, Maharashtra 413401, India",
    "VenueCode": "GCBB",
    "VenueName": "Golden Cinemax: Barshi"
  },
  "GCFK": {
    "AvailableFormats": "2D",
    "City": "Kochi",
    "Latitude": "9.95385",
    "Longitude": "76.2477",
    "RegionCode": "PALY",
    "State": "Kerala",
    "SubRegionCode": "PALY",
    "VenueAddress": "Pandikudy, Anavathil, Thamaraparambu, Chullickal, Near Keraleswaram Siva Temple, Kochi, Kerala 682001, India",
    "VenueCode": "GCFK",
    "VenueName": "G Cinemas Fort Kochi: 4K Dolby ATMOS"
  },
  "GCMC": {
    "AvailableFormats": "2D",
    "City": "Nedumkandam",
    "Latitude": "9.83834",
    "Longitude": "77.1577",
    "RegionCode": "NEDU",
    "State": "Kerala",
    "SubRegionCode": "NEDU",
    "VenueAddress": "Munnar Kumily Highway, Nedumkandam, Near State Bank of India, Nedumkandam, Kerala 685553, India",
    "VenueCode": "GCMC",
    "VenueName": "G Cinemax Multiplex"
  },
  "GCRT": {
    "AvailableFormats": "2D|3D",
    "City": "Ratlam",
    "Latitude": "23.3301",
    "Longitude": "75.0371",
    "RegionCode": "KHCU",
    "State": "Madhya Pradesh",
    "SubRegionCode": "KHCU",
    "VenueAddress": "2nd Floor, Gayatri Cinema Campus, Mission Hospital Road, Fun Buzz, Ratlam, Madhya Pradesh 457001, India",
    "VenueCode": "GCRT",
    "VenueName": "Gayatri Cinemas: Ratlam"
  },
  "GDAK": {
    "AvailableFormats": "2D",
    "City": "Attibele",
    "Latitude": "12.779",
    "Longitude": "77.7734",
    "RegionCode": "ATTO",
    "State": "Karnataka",
    "SubRegionCode": "ATTO",
    "VenueAddress": "Hosur Main Road, Next to Ganesh Temple, Attibele, Karnataka 562107, India",
    "VenueCode": "GDAK",
    "VenueName": "Gowrishankar DOLBY 7.1 RGB Laser: Attibele"
  },
  "GDCS": {
    "AvailableFormats": "2D",
    "City": "Silchar",
    "Latitude": "24.8284",
    "Longitude": "92.8033",
    "RegionCode": "SIL",
    "State": "Assam",
    "SubRegionCode": "SIL",
    "VenueAddress": "Entertainment Plaza, Barak Cha Sramik Union Building Complex, Sadarghat Road, Waris Industries, Silchar, Assam 788001, India",
    "VenueCode": "GDCS",
    "VenueName": "Gold Cinema, Sadarghat Road: Silchar"
  },
  "GDTY": {
    "AvailableFormats": "2D",
    "City": "Bengaluru",
    "Latitude": "13.0216",
    "Longitude": "77.5513",
    "RegionCode": "BANG",
    "State": "Karnataka",
    "SubRegionCode": "BANG",
    "VenueAddress": "46/2, Industrial Surab, Tumkur Road, Yeshwanthpur, Near Yeshwantpur Railway Station, Bengaluru, Karnataka 560022, India",
    "VenueCode": "GDTY",
    "VenueName": "Goverdhan Theatre: Yeshwantpur"
  },
  "GGCV": {
    "AvailableFormats": "2D",
    "City": "Vapi",
    "Latitude": "20.3756",
    "Longitude": "72.9212",
    "RegionCode": "VAPI",
    "State": "Gujarat",
    "SubRegionCode": "VAPI",
    "VenueAddress": "CM O No 11, Geet Cinema, Gunjan Road, GIDC, Vapi, Gujarat 396195, India",
    "VenueCode": "GGCV",
    "VenueName": "Gunjan Geet Cinema: Vapi"
  },
  "GKCP": {
    "AvailableFormats": "2D|3D",
    "City": "Chennai",
    "Latitude": "13.0337",
    "Longitude": "80.1611",
    "RegionCode": "CHEN",
    "State": "Tamil Nadu",
    "SubRegionCode": "CHEN",
    "VenueAddress": "No 93, Lakshmi Nagar, Near Madurai Kannappar Mess, Chennai, Tamil Nadu 600116, India",
    "VenueCode": "GKCP",
    "VenueName": "GK Cinemas RGB + Laser SRL 4D: Porur"
  },
  "GLXJ": {
    "AvailableFormats": "2D",
    "City": "Jaipur",
    "Latitude": "26.8337",
    "Longitude": "75.7783",
    "RegionCode": "JAIP",
    "State": "Rajasthan",
    "SubRegionCode": "JAIP",
    "VenueAddress": "SP, 9, Shipra Path, RIICO Industrial Area, Mansarovar, Jaipur, Rajasthan 302020, India",
    "VenueCode": "GLXJ",
    "VenueName": "Galaxy Cinema Mansarovar: Jaipur"
  },
  "GODH": {
    "AvailableFormats": "2D",
    "City": "Dharamsala",
    "Latitude": "32.2143",
    "Longitude": "76.3171",
    "RegionCode": "DMSL",
    "State": "Himachal Pradesh",
    "SubRegionCode": "DMSL",
    "VenueAddress": "Maximus Mall, Mann Filling Station, Kotwali Bazar, Dharamsala, Himachal Pradesh 176215, India",
    "VenueCode": "GODH",
    "VenueName": "Gold Cinema: Dharamsala"
  },
  "GPMF": {
    "AvailableFormats": "2D",
    "City": "Faridkot",
    "Latitude": "30.6768",
    "Longitude": "74.7611",
    "RegionCode": "DKOT",
    "State": "Punjab",
    "SubRegionCode": "DKOT",
    "VenueAddress": "Gills Palace, Circular Road, Balbir Basti, Faridkot, Punjab 151203, India",
    "VenueCode": "GPMF",
    "VenueName": "Gill Plaza Multiplex: Faridkot"
  },
  "GRNG": {
    "AvailableFormats": "",
    "City": "Ghaziabad",
    "Latitude": "28.6549",
    "Longitude": "77.4356",
    "RegionCode": "NCR",
    "State": "NCR",
    "SubRegionCode": "GHAZ",
    "VenueAddress": "C-115, Grand Trunk Road, Model Town East, Gandhi Nagar, Nehru Nagar III, Ghaziabad, NCR 201001, India",
    "VenueCode": "GRNG",
    "VenueName": "Grand Cinemaz@Choudhry Mall"
  },
  "GTCK": {
    "AvailableFormats": "2D",
    "City": "Trivandrum",
    "Latitude": "8.60425",
    "Longitude": "76.8156",
    "RegionCode": "VKAL",
    "State": "Kerala",
    "SubRegionCode": "VKAL",
    "VenueAddress": "Puthukurichy (P.O), Kaniyapuram, Near V Tracks Cinemas, Trivandrum, Kerala 695303, India",
    "VenueCode": "GTCK",
    "VenueName": "GTracks Screen 2 Sony 4K: Kadinamkulam"
  },
  "GTTA": {
    "AvailableFormats": "2D",
    "City": "Falakata",
    "Latitude": "26.5179",
    "Longitude": "89.2024",
    "RegionCode": "FALA",
    "State": "West Bengal",
    "SubRegionCode": "FALA",
    "VenueAddress": "Babupara, Near Netaji Road, Opposite Falakata Park, Falakata, West Bengal 735211, India",
    "VenueCode": "GTTA",
    "VenueName": "Gouri Talkies: Falakata"
  },
  "GWEK": {
    "AvailableFormats": "2D",
    "City": "Kallara",
    "Latitude": "9.70018",
    "Longitude": "76.4759",
    "RegionCode": "ETTU",
    "State": "Kerala",
    "SubRegionCode": "ETTU",
    "VenueAddress": "Kallara - Neendoor - Pravattom Road, Neendoor, Kallara, Kerala 686611, India",
    "VenueCode": "GWEK",
    "VenueName": "Goodwill Cinemas 4K RGB LASER Atmos 3D: Kallara"
  },
  "HARK": {
    "AvailableFormats": "2D",
    "City": "Jalalabad",
    "Latitude": "30.6096",
    "Longitude": "74.2555",
    "RegionCode": "JLAB",
    "State": "Punjab",
    "SubRegionCode": "JLAB",
    "VenueAddress": "Fazilka  Ferozpur Road, Aman Nagar, Near Bus Stand, Jalalabad, Punjab 152024, India",
    "VenueCode": "HARK",
    "VenueName": "Harkishan Cinema: Jalalabad"
  },
  "HFSV": {
    "AvailableFormats": "2D",
    "City": "Vasco Da Gama",
    "Latitude": "15.4",
    "Longitude": "73.8143",
    "RegionCode": "GOA",
    "State": "Goa",
    "SubRegionCode": "VAGG",
    "VenueAddress": "Vaddem, New Vaddem, FL  Gomes Road, Near Corporation Bank, Vasco Da Gama, Goa 403802, India",
    "VenueCode": "HFSV",
    "VenueName": "Z Square Cine Shivam: Vasco Da Gama"
  },
  "HOUT": {
    "AvailableFormats": "2D",
    "City": "Moranhat",
    "Latitude": "27.1869",
    "Longitude": "94.9144",
    "RegionCode": "MORH",
    "State": "Assam",
    "SubRegionCode": "MORH",
    "VenueAddress": "Peoli Nagar, AT Road, Near State Bank Of India, Moranhat, Assam 785670, India",
    "VenueCode": "HOUT",
    "VenueName": "Houseful Talkies: Moranhat"
  },
  "IAET": {
    "AvailableFormats": "2D",
    "City": "Baraut",
    "Latitude": "29.1011",
    "Longitude": "77.2744",
    "RegionCode": "BARL",
    "State": "Uttar Pradesh",
    "SubRegionCode": "BARL",
    "VenueAddress": "Binoli Road, Near Vishnu Palace, Baraut, Uttar Pradesh 250611, India",
    "VenueCode": "IAET",
    "VenueName": "Imusica Entertainment: Baraut"
  },
  "IEFM": {
    "AvailableFormats": "3D|2D",
    "City": "Faridabad",
    "Latitude": "28.4076",
    "Longitude": "77.3101",
    "RegionCode": "NCR",
    "State": "NCR",
    "SubRegionCode": "FARI",
    "VenueAddress": "EROS EF3 Mall 3rd Floor, Sector 20 - A, Mathura Road, Faridabad, NCR 121001, India",
    "VenueCode": "IEFM",
    "VenueName": "INOX: EF3 Mall, Faridabad"
  },
  "ILUM": {
    "AvailableFormats": "3D|2D",
    "City": "Lucknow",
    "Latitude": "26.8713",
    "Longitude": "80.9584",
    "RegionCode": "LUCK",
    "State": "Uttar Pradesh",
    "SubRegionCode": "LUCK",
    "VenueAddress": "INOX Leisure LTD, 2nd Floor, Umrao Mall, Mahanagar, Near Badshah Nagar Metro Station, Lucknow, Uttar Pradesh 226006, India",
    "VenueCode": "ILUM",
    "VenueName": "INOX: Umrao Mall, Mahanagar"
  },
  "IMOB": {
    "AvailableFormats": "2D|IMAX 2D|4DX|3D",
    "City": "Mumbai",
    "Latitude": "19.2218",
    "Longitude": "72.8629",
    "RegionCode": "MUMBAI",
    "State": "Maharashtra",
    "SubRegionCode": "MWEST",
    "VenueAddress": "Oberoi Sky City Mall, Datta Pada Road, Borivali East, Devi Pada Metro Station, Mumbai, Maharashtra 400066, India",
    "VenueCode": "IMOB",
    "VenueName": "INOX Megaplex: Sky City Mall, Borivali"
  },
  "INAP": {
    "AvailableFormats": "2D|3D",
    "City": "Udaipur",
    "Latitude": "24.5863",
    "Longitude": "73.7104",
    "RegionCode": "UDAI",
    "State": "Rajasthan",
    "SubRegionCode": "UDAI",
    "VenueAddress": "5th Floor,Lake City Mall, University Road, Ashok Nagar, Near Porwal Ji Ki Badi, Udaipur, Rajasthan 313001, India",
    "VenueCode": "INAP",
    "VenueName": "INOX: Lake City Mall"
  },
  "INBS": {
    "AvailableFormats": "2D",
    "City": "Jorhat",
    "Latitude": "26.7543",
    "Longitude": "94.2181",
    "RegionCode": "JORT",
    "State": "Assam",
    "SubRegionCode": "JORT",
    "VenueAddress": "4th Floor, ABS Mall, AT Rd, Gar-Ali, Opposite Prince Of Wales, Jorhat, Assam 785001, India",
    "VenueCode": "INBS",
    "VenueName": "INOX: ABS Mall, Jorhat"
  },
  "INER": {
    "AvailableFormats": "2D|3D",
    "City": "Kolkata",
    "Latitude": "22.5386",
    "Longitude": "88.3515",
    "RegionCode": "KOLK",
    "State": "West Bengal",
    "SubRegionCode": "KOLK",
    "VenueAddress": "Lala Lajpat, Rai Sarani, Bhawanipur, Kolkata, West Bengal 700020, India",
    "VenueCode": "INER",
    "VenueName": "INOX: Forum Mall, Elgin Road"
  },
  "INIC": {
    "AvailableFormats": "2D|3D",
    "City": "Indore",
    "Latitude": "22.7181",
    "Longitude": "75.8713",
    "RegionCode": "IND",
    "State": "Madhya Pradesh",
    "SubRegionCode": "IND",
    "VenueAddress": "170,R.N.T. Marg, Regal Square, Flim Colony, South Tukoganj, 4th Floor, Indore Central, Indore, Madhya Pradesh 452001, India",
    "VenueCode": "INIC",
    "VenueName": "INOX: Nexus Indore Central Mall, Regal Square"
  },
  "INMK": {
    "AvailableFormats": "2D|3D",
    "City": "Kolhapur",
    "Latitude": "16.6987",
    "Longitude": "74.2312",
    "RegionCode": "KOLH",
    "State": "Maharashtra",
    "SubRegionCode": "KOLH",
    "VenueAddress": "2nd Floor, Reliance Mega Mall, Old Dalal Market, Laxmipuri, Near Lakshmi Vilas bank, Kolhapur, Maharashtra 416002, India",
    "VenueCode": "INMK",
    "VenueName": "INOX: Reliance Mega Mall, Kolhapur"
  },
  "INPM": {
    "AvailableFormats": "3D|2D",
    "City": "Meerut",
    "Latitude": "28.9528",
    "Longitude": "77.7315",
    "RegionCode": "MERT",
    "State": "Uttar Pradesh",
    "SubRegionCode": "MERT",
    "VenueAddress": "PVS Multiplex India Ltd, PVS Mall, 2nd Floor, I Block, Shastri Nagar, Meerut, Uttar Pradesh 250001, India",
    "VenueCode": "INPM",
    "VenueName": "INOX: PVS Mall, Meerut"
  },
  "INRD": {
    "AvailableFormats": "3D|2D",
    "City": "Delhi",
    "Latitude": "28.6506",
    "Longitude": "77.1219",
    "RegionCode": "NCR",
    "State": "NCR",
    "SubRegionCode": "DELHI",
    "VenueAddress": "R Cube Monad Mall, Shivaji Place District Centre, Raja Garden, Delhi, NCR 110027, India",
    "VenueCode": "INRD",
    "VenueName": "INOX: RCube, Monad Mall: Delhi"
  },
  "INSG": {
    "AvailableFormats": "2D|3D",
    "City": "Gurugram (Gurgaon)",
    "Latitude": "28.4047",
    "Longitude": "76.9359",
    "RegionCode": "NCR",
    "State": "NCR",
    "SubRegionCode": "GURG",
    "VenueAddress": "INOX Leisure Ltd, 2nd Floor, Sapphire 90 Mall, sector 90, Haryana, Gurugram (Gurgaon), NCR 122505, India",
    "VenueCode": "INSG",
    "VenueName": "INOX Sapphire 90 Mall: Gurugram"
  },
  "INTS": {
    "AvailableFormats": "2D",
    "City": "Srinagar",
    "Latitude": "34.0652",
    "Longitude": "74.8456",
    "RegionCode": "SRNG",
    "State": "Jammu and Kashmir",
    "SubRegionCode": "SRNG",
    "VenueAddress": "Taksal Hospitality Pvt. Ltd. Khasra No: 946/802, Mouza, Shivpora, Srinagar, Jammu and Kashmir 190004, India",
    "VenueCode": "INTS",
    "VenueName": "INOX: Srinagar Shivpora"
  },
  "INVS": {
    "AvailableFormats": "2D",
    "City": "Madurai",
    "Latitude": "9.93825",
    "Longitude": "78.136",
    "RegionCode": "MADU",
    "State": "Tamil Nadu",
    "SubRegionCode": "MADU",
    "VenueAddress": "No. 31, 5th Floor, Vishaal De Mall, Gokhale Road, Chinna Chokkikulam, Madurai, Tamil Nadu 625002, India",
    "VenueCode": "INVS",
    "VenueName": "INOX: Vishaal De Mall"
  },
  "IOMM": {
    "AvailableFormats": "2D|3D",
    "City": "Gorakhpur",
    "Latitude": "26.7498",
    "Longitude": "83.4007",
    "RegionCode": "GRKP",
    "State": "Uttar Pradesh",
    "SubRegionCode": "GRKP",
    "VenueAddress": "INOX Leisure Ltd, 4th Floor, Orion Mall, Mohaddipur, Gorakhpur, Uttar Pradesh 273010, India",
    "VenueCode": "IOMM",
    "VenueName": "INOX: Orion Mall, Gorakhpur"
  },
  "IPPL": {
    "AvailableFormats": "2D|MX4D|IMAX 2D|3D|MX4D 3D",
    "City": "Lucknow",
    "Latitude": "26.8085",
    "Longitude": "81.0123",
    "RegionCode": "LUCK",
    "State": "Uttar Pradesh",
    "SubRegionCode": "LUCK",
    "VenueAddress": "INOX Leisure Ltd., 3rd Floor, Phoenix Palassio Mall Amar Saheed Path, Gomti Nagar Extension, Lucknow, Uttar Pradesh 226010, India",
    "VenueCode": "IPPL",
    "VenueName": "INOX: Megaplex Phoenix Palassio Mall"
  },
  "ISMR": {
    "AvailableFormats": "2D",
    "City": "Dharwad",
    "Latitude": "15.4452",
    "Longitude": "75.0136",
    "RegionCode": "DHAW",
    "State": "Karnataka",
    "SubRegionCode": "DHAW",
    "VenueAddress": "2nd Floor, Smart City Mall, Lakamanahalli, P B Road, Dharwad, Karnataka 580001, India",
    "VenueCode": "ISMR",
    "VenueName": "INOX: Smartcity Mall, Dharwad"
  },
  "IXIM": {
    "AvailableFormats": "2D",
    "City": "Jodhpur",
    "Latitude": "26.2195",
    "Longitude": "73.0422",
    "RegionCode": "JODH",
    "State": "Rajasthan",
    "SubRegionCode": "JODH",
    "VenueAddress": "1st Floor, Indiabulls Mega Mall, Vijayrajey Nagar, NH-65, Pali Road, Jodhpur, Rajasthan 342005, India",
    "VenueCode": "IXIM",
    "VenueName": "INOX: Indiabulls Mall, Jodhpur"
  },
  "JBCS": {
    "AvailableFormats": "2D",
    "City": "Kollam",
    "Latitude": "8.92847",
    "Longitude": "76.7067",
    "RegionCode": "KOLM",
    "State": "Kerala",
    "SubRegionCode": "KOLM",
    "VenueAddress": "Almavu Mukku Road, Nallila, Puliyila, Near Nallila Post Office, Kollam, Kerala 691515, India",
    "VenueCode": "JBCS",
    "VenueName": "JB Cinemas 4K 3D: Nallila"
  },
  "JCMN": {
    "AvailableFormats": "2D",
    "City": "Bhopal",
    "Latitude": "23.2335",
    "Longitude": "77.434",
    "RegionCode": "BHOP",
    "State": "Madhya Pradesh",
    "SubRegionCode": "BHOP",
    "VenueAddress": "Service Rd, Zone-I, MP Nagar, Near MP Education Board Office, Bhopal, Madhya Pradesh 462023, India",
    "VenueCode": "JCMN",
    "VenueName": "Jyoti Cineplex (New Seats): Bhopal"
  },
  "JETP": {
    "AvailableFormats": "2D",
    "City": "Pala",
    "Latitude": "9.71532",
    "Longitude": "76.6894",
    "RegionCode": "PALL",
    "State": "Kerala",
    "SubRegionCode": "PALL",
    "VenueAddress": "State Highway 32, Chakkampuzha Road, Near KSRTC Bus Stand, Pala, Kerala 686575, India",
    "VenueCode": "JETP",
    "VenueName": "Jo`s A/c 2k3D 7.1 Dolby Sound: Pala"
  },
  "JJPP": {
    "AvailableFormats": "2D",
    "City": "Hyderabad",
    "Latitude": "17.4951",
    "Longitude": "78.3341",
    "RegionCode": "HYD",
    "State": "Telangana",
    "SubRegionCode": "HYD",
    "VenueAddress": "Shop No. W-4, Tapadia Maruti Infinity Mall, Door No. 2-132, Chanda Nagar, Hyderabad, Telangana 500050, India",
    "VenueCode": "JJPP",
    "VenueName": "JP Cinemas: Chandanagar"
  },
  "JMJR": {
    "AvailableFormats": "2D|3D",
    "City": "Kolkata",
    "Latitude": "22.7127",
    "Longitude": "88.4753",
    "RegionCode": "BSRT",
    "State": "West Bengal",
    "SubRegionCode": "BSRT",
    "VenueAddress": "1/3 Jessore Road, Barasat, Near Duck Banglow More, Kolkata, West Bengal 700124, India",
    "VenueCode": "JMJR",
    "VenueName": "Jaya Cinemas: City Mall, Barasat"
  },
  "JRCR": {
    "AvailableFormats": "2D",
    "City": "Raghopur",
    "Latitude": "26.3047",
    "Longitude": "86.8414",
    "RegionCode": "RAHO",
    "State": "Bihar",
    "SubRegionCode": "RAHO",
    "VenueAddress": "Raghopur Police Station, Piprahi, National Highway 106, Near Ganesh Electronics, Raghopur, Bihar 852111, India",
    "VenueCode": "JRCR",
    "VenueName": "Jai Rajan Cinema: Raghopur"
  },
  "JTCP": {
    "AvailableFormats": "2D",
    "City": "Petlad",
    "Latitude": "22.4768",
    "Longitude": "72.8087",
    "RegionCode": "PETL",
    "State": "Gujarat",
    "SubRegionCode": "PETL",
    "VenueAddress": "Morarji Shopping Centre, College Chokdi, Sarvodaya Society, Petlad, Gujarat 388450, India",
    "VenueCode": "JTCP",
    "VenueName": "City Light Theatre: Petlad"
  },
  "JTMV": {
    "AvailableFormats": "2D",
    "City": "Chennai",
    "Latitude": "13.3357",
    "Longitude": "80.1947",
    "RegionCode": "CHEN",
    "State": "Tamil Nadu",
    "SubRegionCode": "CHEN",
    "VenueAddress": "57,Newcar Street, Thiruvallur Dist,NGO Nagar Extension,Chennai, Tamil Nadu 601204, India",
    "VenueCode": "JTMV",
    "VenueName": "VVM Cinemas 3D 2K AC Dts, Ponneri: Chennai"
  },
  "JTSB": {
    "AvailableFormats": "2D",
    "City": "Sathupally",
    "Latitude": "17.2113",
    "Longitude": "80.8334",
    "RegionCode": "SATH",
    "State": "Telangana",
    "SubRegionCode": "SATH",
    "VenueAddress": "Sathupally Main Road, Near State Bank of India, Sathupally, Telangana 507303, India",
    "VenueCode": "JTSB",
    "VenueName": "Sri Balaji Theater A/C Dts: Sathupally"
  },
  "JTVM": {
    "AvailableFormats": "2D",
    "City": "Anakapalle",
    "Latitude": "17.6903",
    "Longitude": "83.0088",
    "RegionCode": "ANKP",
    "State": "Andhra Pradesh",
    "SubRegionCode": "ANKP",
    "VenueAddress": "Number 11-4-22, Chinna Veedhi, Woodpeta, Anakapalle, Andhra Pradesh 531001, India",
    "VenueCode": "JTVM",
    "VenueName": "Venkateswara Movie Mart: Anakapalle"
  },
  "JYCR": {
    "AvailableFormats": "2D",
    "City": "Ramanathapuram",
    "Latitude": "9.36626",
    "Longitude": "78.8362",
    "RegionCode": "RAPU",
    "State": "Tamil Nadu",
    "SubRegionCode": "RAPU",
    "VenueAddress": "41/1 Devipattinam Road, Vaigai Nagar, Ramanathapuram, Tamil Nadu 623504, India",
    "VenueCode": "JYCR",
    "VenueName": "Jagan Theatre A/C Sony 4K 3D: Ramanathapuram"
  },
  "KAGY": {
    "AvailableFormats": "",
    "City": "Jaggayyapeta",
    "Latitude": "16.8928",
    "Longitude": "80.1012",
    "RegionCode": "JGGY",
    "State": "Andhra Pradesh",
    "SubRegionCode": "JGGY",
    "VenueAddress": "JRC College Road, Y.Y. Colony, Jaggayyapeta, Andhra Pradesh 521175, India",
    "VenueCode": "KAGY",
    "VenueName": "Kamala Theater: Jaggayyapeta"
  },
  "KAYA": {
    "AvailableFormats": "2D",
    "City": "Kanchipuram",
    "Latitude": "12.8375",
    "Longitude": "79.7031",
    "RegionCode": "KNPM",
    "State": "Tamil Nadu",
    "SubRegionCode": "KNPM",
    "VenueAddress": "27, Annai Indira Gandhi Salai, Bavaji Nagar, Nellukara Street, Kanchipuram, Tamil Nadu 631502, India",
    "VenueCode": "KAYA",
    "VenueName": "Karthikeyan Cinemas A/C: Kanchipuram"
  },
  "KCKG": {
    "AvailableFormats": "2D|3D",
    "City": "Kopargaon",
    "Latitude": "19.8833",
    "Longitude": "74.4762",
    "RegionCode": "KOPG",
    "State": "Maharashtra",
    "SubRegionCode": "KOPG",
    "VenueAddress": "2061,1st Floor, K City Centre, Gurudwara Road, Dist.Ahmednagar, Kopargaon, Maharashtra 423601, India",
    "VenueCode": "KCKG",
    "VenueName": "K Cineplex: Kopargaon"
  },
  "KCSV": {
    "AvailableFormats": "2D",
    "City": "Villupuram",
    "Latitude": "12.038",
    "Longitude": "79.544",
    "RegionCode": "VILL",
    "State": "Tamil Nadu",
    "SubRegionCode": "VILL",
    "VenueAddress": "Mailkal street vikiravandi, Opposite to bus stand, Villupuram, Tamil Nadu 605652, India",
    "VenueCode": "KCSV",
    "VenueName": "KA Cinemas A/C: Vikravandi"
  },
  "KHMJ": {
    "AvailableFormats": "2D",
    "City": "Jalna",
    "Latitude": "19.8322",
    "Longitude": "75.9121",
    "RegionCode": "JALN",
    "State": "Maharashtra",
    "SubRegionCode": "JALN",
    "VenueAddress": "Krishna Mall, Krishna Vihar, Mantha Ambad Bypass Ring Road, Jalna, Maharashtra 431203, India",
    "VenueCode": "KHMJ",
    "VenueName": "Krishna Multiplex: Jalna"
  },
  "KKMT": {
    "AvailableFormats": "2D",
    "City": "Navi Mumbai",
    "Latitude": "19.0124",
    "Longitude": "73.0897",
    "RegionCode": "MUMBAI",
    "State": "Maharashtra",
    "SubRegionCode": "THAN",
    "VenueAddress": "Shop No.01, Bhoomi Harmony, Plot No. 82, Sec-18, Kamothe, Panvel, Navi Mumbai, Maharashtra 410209, India",
    "VenueCode": "KKMT",
    "VenueName": "K.K. Cinema: Kamothe"
  },
  "KLRT": {
    "AvailableFormats": "2D",
    "City": "Palakkad",
    "Latitude": "10.7001",
    "Longitude": "76.7378",
    "RegionCode": "PLKK",
    "State": "Kerala",
    "SubRegionCode": "PLKK",
    "VenueAddress": "State Highway 25, Anikode, Chittur, Thathamangalam, Near Muthoottu Mini Financiers Ltd, Palakkad, Kerala 678101, India",
    "VenueCode": "KLRT",
    "VenueName": "Kairali Sree Theatre: Chittur"
  },
  "KNOX": {
    "AvailableFormats": "2D",
    "City": "Keonjhar",
    "Latitude": "21.6354",
    "Longitude": "85.616",
    "RegionCode": "KNJH",
    "State": "Odisha",
    "SubRegionCode": "KNJH",
    "VenueAddress": "Kashvi Mall, Mining Road, Opposite Keonjhar Law College, Keonjhar, Odisha 758001, India",
    "VenueCode": "KNOX",
    "VenueName": "KNOX Cinema: Keonjhar"
  },
  "KRCC": {
    "AvailableFormats": "2D",
    "City": "Coimbatore",
    "Latitude": "11.0345",
    "Longitude": "76.9274",
    "RegionCode": "COIM",
    "State": "Tamil Nadu",
    "SubRegionCode": "COIM",
    "VenueAddress": "11/52, Thadagam Road, Edayarpalayam, Koilmedu, Coimbatore, Tamil Nadu 641025, India",
    "VenueCode": "KRCC",
    "VenueName": "Krithika Cinemas A/C 4K Dolby : Coimbatore"
  },
  "KRTA": {
    "AvailableFormats": "2D",
    "City": "Kazhakkoottam",
    "Latitude": "8.5664",
    "Longitude": "76.875",
    "RegionCode": "TRIV",
    "State": "Kerala",
    "SubRegionCode": "TRIV",
    "VenueAddress": "NH 47, Bypass Road, Near Bhima Theatre, Kazhakkoottam, Kerala 695582, India",
    "VenueCode": "KRTA",
    "VenueName": "Krishna Theatre: Kazhakkoottam"
  },
  "KSNT": {
    "AvailableFormats": "2D",
    "City": "Trivandrum",
    "Latitude": "8.48888",
    "Longitude": "76.9532",
    "RegionCode": "TRIV",
    "State": "Kerala",
    "SubRegionCode": "TRIV",
    "VenueAddress": "Aristo Junction, Thampanoor, Near Hotel Galaxy Park, Trivandrum, Kerala 695014, India",
    "VenueCode": "KSNT",
    "VenueName": "Kairali Sree Nila RGB Laser 4K Dolby Atmos"
  },
  "KTBR": {
    "AvailableFormats": "2D",
    "City": "Boisar",
    "Latitude": "19.7963",
    "Longitude": "72.7523",
    "RegionCode": "DHAU",
    "State": "Maharashtra",
    "SubRegionCode": "DHAU",
    "VenueAddress": "At Saravali S. No. 108, Nawapur Road, Boisar, Maharashtra 401501, India",
    "VenueCode": "KTBR",
    "VenueName": "KT Multivision Cinema: Boisar"
  },
  "KTPC": {
    "AvailableFormats": "3D|2D",
    "City": "Patna",
    "Latitude": "25.5998",
    "Longitude": "85.2214",
    "RegionCode": "PATN",
    "State": "Bihar",
    "SubRegionCode": "PATN",
    "VenueAddress": "Sadar Gali, Khaje Kalan, Khamji Begum Colony, Sadikpur, Patna, Bihar 800008, India",
    "VenueCode": "KTPC",
    "VenueName": "Krishna Talkies: Patna"
  },
  "LALK": {
    "AvailableFormats": "2D",
    "City": "Kanpur",
    "Latitude": "26.4401",
    "Longitude": "80.3238",
    "RegionCode": "KANP",
    "State": "Uttar Pradesh",
    "SubRegionCode": "KANP",
    "VenueAddress": "127/401 A, Block S, Kanpur Nagar, Kanpur, Uttar Pradesh 208014, India",
    "VenueCode": "LALK",
    "VenueName": "Lal Palace: Kanpur"
  },
  "LCNS": {
    "AvailableFormats": "2D",
    "City": "Nagpur",
    "Latitude": "21.1576",
    "Longitude": "79.0798",
    "RegionCode": "NAGP",
    "State": "Maharashtra",
    "SubRegionCode": "NAGP",
    "VenueAddress": "Besides Hotel Tuli Residency Road, Bazar Road Sadar Bazar Liberty Chowk, Mangalwari Bazar, Nagpur, Maharashtra 440001, India",
    "VenueCode": "LCNS",
    "VenueName": "Liberty Cinema: Sadar"
  },
  "LETK": {
    "AvailableFormats": "",
    "City": "Kallakurichi",
    "Latitude": "11.7347",
    "Longitude": "78.9634",
    "RegionCode": "ATTR",
    "State": "Tamil Nadu",
    "SubRegionCode": "ATTR",
    "VenueAddress": "State Highway 6, Raja Nagar, Kallakurichi, Near Lakshmi Vilas Bank, Kallakurichi, Tamil Nadu 606213, India",
    "VenueCode": "LETK",
    "VenueName": "LENA CINE SPACE A/C 4K RGB LASER DOLBY ATMOS"
  },
  "LKMT": {
    "AvailableFormats": "2D",
    "City": "Hyderabad",
    "Latitude": "17.4948",
    "Longitude": "78.5112",
    "RegionCode": "HYD",
    "State": "Telangana",
    "SubRegionCode": "HYD",
    "VenueAddress": "Shop No: 14 - 69, Lothukunta Road, Lothkunta, Alwal, Secunderabad, Near Alwal City Bus Stop, Next to Sona Wines, Hyderabad, Telangana 500015, India",
    "VenueCode": "LKMT",
    "VenueName": "Lakshmi Kala Mandir: Alwal"
  },
  "LLCT": {
    "AvailableFormats": "2D",
    "City": "Tanda",
    "Latitude": "31.6758",
    "Longitude": "75.6348",
    "RegionCode": "TNDA",
    "State": "Punjab",
    "SubRegionCode": "TNDA",
    "VenueAddress": "Gurdaspur Road, Near Civil Hospital, Tanda, Punjab 144204, India",
    "VenueCode": "LLCT",
    "VenueName": "Lakhi Cinemas: Tanda"
  },
  "LPTH": {
    "AvailableFormats": "2D",
    "City": "Hospet",
    "Latitude": "15.2733",
    "Longitude": "76.3918",
    "RegionCode": "HOSP",
    "State": "Karnataka",
    "SubRegionCode": "HOSP",
    "VenueAddress": "No. 202, Jn Road, Saraswati Picture Palace, Near Malligi Hotel, Hospet, Karnataka 583201, India",
    "VenueCode": "LPTH",
    "VenueName": "Lakshmi Picture Palace: Hospet"
  },
  "LTVB": {
    "AvailableFormats": "2D",
    "City": "Vijayapura (Bijapur)",
    "Latitude": "16.8284",
    "Longitude": "75.7165",
    "RegionCode": "VJPR",
    "State": "Karnataka",
    "SubRegionCode": "VJPR",
    "VenueAddress": "Godbole Mala, M. G. Road, Near Gandhi Chowk Police Station, Opposite Axis Bank, Vijayapura (Bijapur), Karnataka 586101, India",
    "VenueCode": "LTVB",
    "VenueName": "Sri Lakshmi Theatre: Vijayapura (Bijapur)"
  },
  "M2RH": {
    "AvailableFormats": "2D|3D",
    "City": "Delhi",
    "Latitude": "28.7012",
    "Longitude": "77.1168",
    "RegionCode": "NCR",
    "State": "NCR",
    "SubRegionCode": "DELHI",
    "VenueAddress": "16 Mangalam Place District Centre, Sector-3 Rohini, Opposite Laxmi Vilas Bank, Delhi, NCR 110085, India",
    "VenueCode": "M2RH",
    "VenueName": "M2K: Rohini"
  },
  "MACT": {
    "AvailableFormats": "2D",
    "City": "Machilipatnam",
    "Latitude": "16.1836",
    "Longitude": "81.1324",
    "RegionCode": "MAPM",
    "State": "Andhra Pradesh",
    "SubRegionCode": "MAPM",
    "VenueAddress": "NH 214A, Srinivas Nagar Colony, Krishna District, Machilipatnam, Andhra Pradesh 521001, India",
    "VenueCode": "MACT",
    "VenueName": "Siri Complex: Machilipatnam"
  },
  "MAHM": {
    "AvailableFormats": "2D",
    "City": "Hyderabad",
    "Latitude": "17.4999",
    "Longitude": "78.3866",
    "RegionCode": "HYD",
    "State": "Telangana",
    "SubRegionCode": "HYD",
    "VenueAddress": "1-2-29/93, Jai Bharat Nagar, Hyder Nagar, Vasantha Nagar, Nizampet, Hyderabad, Telangana 500090, India",
    "VenueCode": "MAHM",
    "VenueName": "Mallikarjuna 70mm A/C DTS: Kukatpally"
  },
  "MARS": {
    "AvailableFormats": "2D",
    "City": "Sarsiwa",
    "Latitude": "21.6194",
    "Longitude": "82.9572",
    "RegionCode": "SARS",
    "State": "Chhattisgarh",
    "SubRegionCode": "SARS",
    "VenueAddress": "Marko cineplex, Near Maruti Petroleum, Tilaipali, Sarsiwa, Chhattisgarh 493559, India",
    "VenueCode": "MARS",
    "VenueName": "Marko Cineplex: Sarsiwa"
  },
  "MAYJ": {
    "AvailableFormats": "2D|3D",
    "City": "Chennai",
    "Latitude": "12.848",
    "Longitude": "80.2401",
    "RegionCode": "CHEN",
    "State": "Tamil Nadu",
    "SubRegionCode": "CHEN",
    "VenueAddress": "No. 34/1, East Coast Road, Kanathur, Near Toll Plaza, Chennai, Tamil Nadu 603112, India",
    "VenueCode": "MAYJ",
    "VenueName": "MAYAJAAL Multiplex: ECR, Chennai"
  },
  "MBSX": {
    "AvailableFormats": "",
    "City": "Ahmedabad",
    "Latitude": "22.9575",
    "Longitude": "72.6555",
    "RegionCode": "AHD",
    "State": "Gujarat",
    "SubRegionCode": "AHD",
    "VenueAddress": "5th Floor, C Block Shalin Square, SP Ring Road Vinzol, Hathijan Circle, Opposite Viva Farm, Ahmedabad, Gujarat 382445, India",
    "VenueCode": "MBSX",
    "VenueName": "Miraj Cinemas: Shalin Square, Hathijan"
  },
  "MCCP": {
    "AvailableFormats": "",
    "City": "Ahmedabad",
    "Latitude": "23.0535",
    "Longitude": "72.6421",
    "RegionCode": "AHD",
    "State": "Gujarat",
    "SubRegionCode": "AHD",
    "VenueAddress": "Krishna Nagar, Naroda-Narol BRTS Road, Vijaya Bank, Ahmedabad, Gujarat 382346, India",
    "VenueCode": "MCCP",
    "VenueName": "Miraj Cinemas: Cinepride, Krishna Nagar"
  },
  "MCFF": {
    "AvailableFormats": "3D|2D",
    "City": "Mumbai",
    "Latitude": "19.4246",
    "Longitude": "72.8119",
    "RegionCode": "MUMBAI",
    "State": "Maharashtra",
    "SubRegionCode": "MWEST",
    "VenueAddress": "Sri Swastik Mega City, Sri Prastha Complex, Zero Road, Opposite Poonam Complex, Nalasopara (West), Near Mother Mary English High School, Mumbai, Maharashtra 401203, India",
    "VenueCode": "MCFF",
    "VenueName": "Miraj Fun Fiesta Cinemas: Nalasopara"
  },
  "MCKK": {
    "AvailableFormats": "2D|3D",
    "City": "Kolkata",
    "Latitude": "22.5816",
    "Longitude": "88.4627",
    "RegionCode": "KOLK",
    "State": "West Bengal",
    "SubRegionCode": "KOLK",
    "VenueAddress": "The Terminus Bulding, Plot No. BG/12, AA-1B, New Town, Rajarhat, Kolkata, West Bengal 700156, India",
    "VenueCode": "MCKK",
    "VenueName": "Miraj Cinemas: Newtown, Kolkata"
  },
  "MCMP": {
    "AvailableFormats": "",
    "City": "Patna",
    "Latitude": "25.6178",
    "Longitude": "85.1488",
    "RegionCode": "PATN",
    "State": "Bihar",
    "SubRegionCode": "PATN",
    "VenueAddress": "Gandhi Maidan Road, Bakerganj, Patna, Bihar 800004, India",
    "VenueCode": "MCMP",
    "VenueName": "Mona: Christie 4K RGB Laser & Dolby Atmos"
  },
  "MCRM": {
    "AvailableFormats": "3D|2D",
    "City": "Mumbai",
    "Latitude": "19.1841",
    "Longitude": "72.9524",
    "RegionCode": "MUMBAI",
    "State": "Maharashtra",
    "SubRegionCode": "MCENT",
    "VenueAddress": "3rd Floor, R Mall, L.B.S Marg, Near Mulund Check Naka and Kamgar Colony, Mulund West, Mumbai, Maharashtra 400080, India",
    "VenueCode": "MCRM",
    "VenueName": "Miraj Cinemas: R Mall, Mulund"
  },
  "MCTD": {
    "AvailableFormats": "2D",
    "City": "Trivandrum",
    "Latitude": "8.61849",
    "Longitude": "76.8985",
    "RegionCode": "ATTI",
    "State": "Kerala",
    "SubRegionCode": "ATTI",
    "VenueAddress": "Pothencode Junction, Pothencode, Thiruvananthapuram, Near State Bank Of India, Trivandrum, Kerala 695584, India",
    "VenueCode": "MCTD",
    "VenueName": "MT Cineplex 4K DOLBY ATMOS: Pothencode"
  },
  "MCXF": {
    "AvailableFormats": "",
    "City": "Chennai",
    "Latitude": "13.1206",
    "Longitude": "80.0979",
    "RegionCode": "CHEN",
    "State": "Tamil Nadu",
    "SubRegionCode": "CHEN",
    "VenueAddress": "OCF Main Road, Avadi, Next to TNEB Office, Chennai, Tamil Nadu 600054, India",
    "VenueCode": "MCXF",
    "VenueName": "Meenakshi Cinemas (Rakki) 4K Dolby Atmos: Avadi"
  },
  "MEDM": {
    "AvailableFormats": "7D",
    "City": "Ghaziabad",
    "Latitude": "28.6412",
    "Longitude": "77.3172",
    "RegionCode": "NCR",
    "State": "NCR",
    "SubRegionCode": "GHAZ",
    "VenueAddress": "East Delhi Mall, Opposite Anand Vihar, Kaushambi, Near Big Bazaar, Ghaziabad, NCR 201001, India",
    "VenueCode": "MEDM",
    "VenueName": "7D Masti: EDM Mall, Ghaziabad"
  },
  "MENO": {
    "AvailableFormats": "2D",
    "City": "Kolkata",
    "Latitude": "22.5112",
    "Longitude": "88.3507",
    "RegionCode": "KOLK",
    "State": "West Bengal",
    "SubRegionCode": "KOLK",
    "VenueAddress": "5, Sarat Chatterjee Avenue, Sarat Bose Road, , Kalighat, Near Deshopriya Park, Kolkata, West Bengal 700029, India",
    "VenueCode": "MENO",
    "VenueName": "Menoka Cinema: Kolkata"
  },
  "MHCK": {
    "AvailableFormats": "2D|3D",
    "City": "Koraput",
    "Latitude": "18.8263",
    "Longitude": "82.7004",
    "RegionCode": "KOPT",
    "State": "Odisha",
    "SubRegionCode": "KOPT",
    "VenueAddress": "Megha Township, Manabar, Unnamed Road, Koraput, Odisha 764020, India",
    "VenueCode": "MHCK",
    "VenueName": "Meghraj Cinemaz: Koraput"
  },
  "MIFU": {
    "AvailableFormats": "3D|2D",
    "City": "Ulhasnagar",
    "Latitude": "19.226",
    "Longitude": "73.1657",
    "RegionCode": "MUMBAI",
    "State": "Maharashtra",
    "SubRegionCode": "ULHA",
    "VenueAddress": "Plot no.93, Sector 6A Ambarnath Road, Victory Ice Factory Compound, Press Bazaar, Ulhasnagar, Maharashtra 421003, India",
    "VenueCode": "MIFU",
    "VenueName": "Funcity Big Cinemas: Ulhasnagar"
  },
  "MJDG": {
    "AvailableFormats": "2D",
    "City": "Shivamogga",
    "Latitude": "13.9239",
    "Longitude": "75.5756",
    "RegionCode": "SHIA",
    "State": "Karnataka",
    "SubRegionCode": "SHIA",
    "VenueAddress": "K.R.Puram, Mahakavi Kalidasa Road, Gandhi Bazar, Shivamogga, Karnataka 577202, India",
    "VenueCode": "MJDG",
    "VenueName": "Manjunatha Digital 2K Cinema: Shivamogga"
  },
  "MKMP": {
    "AvailableFormats": "2D|3D",
    "City": "Chittorgarh",
    "Latitude": "24.8821",
    "Longitude": "74.6355",
    "RegionCode": "COTT",
    "State": "Rajasthan",
    "SubRegionCode": "COTT",
    "VenueAddress": "3rd Floor, Maharani Padmini Mall, Near Panna Dhay Bus Stand, Chittorgarh, Rajasthan 312001, India",
    "VenueCode": "MKMP",
    "VenueName": "Mukta A2 Cinema: Maharani Padmini Mall,Chittorgarh"
  },
  "MLMT": {
    "AvailableFormats": "2D|3D",
    "City": "Tiruvallur",
    "Latitude": "13.1159",
    "Longitude": "79.9095",
    "RegionCode": "TRVL",
    "State": "Tamil Nadu",
    "SubRegionCode": "TRVL",
    "VenueAddress": "State Highway 57, Tiruvallur, Tiruvallur, Tamil Nadu 602003, India",
    "VenueCode": "MLMT",
    "VenueName": "Marvel Movie Max 4K Laser Dolby Atmos: Tiruvallur"
  },
  "MMCV": {
    "AvailableFormats": "2D",
    "City": "Mumbai",
    "Latitude": "19.4712",
    "Longitude": "72.8363",
    "RegionCode": "MUMBAI",
    "State": "Maharashtra",
    "SubRegionCode": "MWEST",
    "VenueAddress": "1st Floor, Gala No 2,Riddhi Siddhi Industrial Complex, Chandansar, Virar East, Palghar, Mumbai, Maharashtra 401303, India",
    "VenueCode": "MMCV",
    "VenueName": "Movie Max V Cinema: Virar (E)"
  },
  "MMMC": {
    "AvailableFormats": "2D",
    "City": "Mumbai",
    "Latitude": "18.9712",
    "Longitude": "72.8221",
    "RegionCode": "MUMBAI",
    "State": "Maharashtra",
    "SubRegionCode": "MCENT",
    "VenueAddress": "22, Maratha Mandir Marg, Agripada, Opp. Nayar Dental Hospital, Near Mumbai Central ST Depot, Mumbai, Maharashtra 400008, India",
    "VenueCode": "MMMC",
    "VenueName": "Maratha Mandir: Mumbai Central"
  },
  "MMSZ": {
    "AvailableFormats": "2D|3D",
    "City": "Mumbai",
    "Latitude": "19.0417",
    "Longitude": "72.8643",
    "RegionCode": "MUMBAI",
    "State": "Maharashtra",
    "SubRegionCode": "MCENT",
    "VenueAddress": "MovieMax, Sion Circle, Sion (East), Opposite Peninsula Restaurant, Mumbai, Maharashtra 400022, India",
    "VenueCode": "MMSZ",
    "VenueName": "MovieMax: Sion"
  },
  "MMZM": {
    "AvailableFormats": "2D",
    "City": "Indore",
    "Latitude": "22.7525",
    "Longitude": "75.8969",
    "RegionCode": "IND",
    "State": "Madhya Pradesh",
    "SubRegionCode": "IND",
    "VenueAddress": "Mangal City, Plot No.A-1, PU-4, Garipipliya Road Scheme No.54, Vijay Nagar, Indore, Madhya Pradesh 452010, India",
    "VenueCode": "MMZM",
    "VenueName": "Mangal Multiplex: Indore"
  },
  "MNRL": {
    "AvailableFormats": "2D",
    "City": "Kallur",
    "Latitude": "13.5572",
    "Longitude": "78.9892",
    "RegionCode": "KLUR",
    "State": "Andhra Pradesh",
    "SubRegionCode": "KLUR",
    "VenueAddress": "Kallur - Punganur Road, Near SRK gardens, Kallur, Andhra Pradesh 517113, India",
    "VenueCode": "MNRL",
    "VenueName": "MNR Cinemax - Prabhakar Picture Palace: Kallur(AP)"
  },
  "MRCB": {
    "AvailableFormats": "",
    "City": "Bharatpur",
    "Latitude": "27.1961",
    "Longitude": "77.5237",
    "RegionCode": "BHRT",
    "State": "Rajasthan",
    "SubRegionCode": "BHRT",
    "VenueAddress": "National Highway 21, Jatoli Ghana, Agra Road, Opposite Surya city Township, Bharatpur, Rajasthan 321001, India",
    "VenueCode": "MRCB",
    "VenueName": "Miraj Cinemas: RDB Multiplex, Bharatpur"
  },
  "MRJH": {
    "AvailableFormats": "3D|2D",
    "City": "Howrah",
    "Latitude": "22.6017",
    "Longitude": "88.3452",
    "RegionCode": "HWRH",
    "State": "West Bengal",
    "SubRegionCode": "HWRH",
    "VenueAddress": "Aurobino Mall,3rd Floor, Sri Arabinda Road, Babudanga, Bandhaghat, Howrah, West Bengal 711106, India",
    "VenueCode": "MRJH",
    "VenueName": "Miraj Cinemas: Howrah"
  },
  "MSCM": {
    "AvailableFormats": "2D|3D",
    "City": "Pune",
    "Latitude": "18.6504",
    "Longitude": "73.8393",
    "RegionCode": "PUNE",
    "State": "Maharashtra",
    "SubRegionCode": "PUNE",
    "VenueAddress": "Sector No. 9, Sant Nagar, Spine Road, Pune, Maharashtra 412105, India",
    "VenueCode": "MSCM",
    "VenueName": "Miraj Cinemas: Spine City Mall, Pune"
  },
  "MTBO": {
    "AvailableFormats": "2D",
    "City": "Berhampore",
    "Latitude": "24.0903",
    "Longitude": "88.2503",
    "RegionCode": "BEHA",
    "State": "West Bengal",
    "SubRegionCode": "BEHA",
    "VenueAddress": "22 Sahid Surya Sen Road, Murshidabad, Berhampore, West Bengal 742101, India",
    "VenueCode": "MTBO",
    "VenueName": "Mohan Talkies: Berhampore"
  },
  "MTGG": {
    "AvailableFormats": "2D",
    "City": "Gangavati",
    "Latitude": "15.4327",
    "Longitude": "76.528",
    "RegionCode": "GAVT",
    "State": "Karnataka",
    "SubRegionCode": "GAVT",
    "VenueAddress": "Gandhi Chowk, Vidya Nagar, M.G. Road, Gangavati, Karnataka 583227, India",
    "VenueCode": "MTGG",
    "VenueName": "Mohiuddin Talkies: Gangavati"
  },
  "MTMD": {
    "AvailableFormats": "2D|3D",
    "City": "Moradabad",
    "Latitude": "28.8252",
    "Longitude": "78.7751",
    "RegionCode": "MORA",
    "State": "Uttar Pradesh",
    "SubRegionCode": "MORA",
    "VenueAddress": "Rampur Road, Near Old Bus Station, Gandhi Nagar, Moradabad, Uttar Pradesh 244001, India",
    "VenueCode": "MTMD",
    "VenueName": "Movietime Miglani Cinema: Moradabad"
  },
  "MTSU": {
    "AvailableFormats": "2D|3D",
    "City": "Mumbai",
    "Latitude": "19.061",
    "Longitude": "72.837",
    "RegionCode": "MUMBAI",
    "State": "Maharashtra",
    "SubRegionCode": "MWEST",
    "VenueAddress": "Suburbia Mall, 206 and 265 Junction of S V Road, And Linking Road, Bandra(W), Near Shoppers Stop, Mumbai, Maharashtra 400050, India",
    "VenueCode": "MTSU",
    "VenueName": "Movietime Suburbia: Bandra (W)"
  },
  "MUTA": {
    "AvailableFormats": "2D",
    "City": "Azamgarh",
    "Latitude": "26.0749",
    "Longitude": "83.1866",
    "RegionCode": "AZMG",
    "State": "Uttar Pradesh",
    "SubRegionCode": "AZMG",
    "VenueAddress": "City Life Mall, Paharpur, Azamgarh Dohrighat Gorakhpur Road, Near Bhairo Baba Mandir Maharajgang, Azamgarh, Uttar Pradesh 276001, India",
    "VenueCode": "MUTA",
    "VenueName": "Murli DD Cinemas: Azmagarh"
  },
  "MXBO": {
    "AvailableFormats": "2D",
    "City": "Mumbai",
    "Latitude": "19.232",
    "Longitude": "72.8287",
    "RegionCode": "MUMBAI",
    "State": "Maharashtra",
    "SubRegionCode": "MWEST",
    "VenueAddress": "Zoom Plaza Mall, 4th Floor,L.T. Road, Borivali (W), Opposite Gorai Depot, Mumbai, Maharashtra 400092, India",
    "VenueCode": "MXBO",
    "VenueName": "Maxus Cinemas: Borivali (W)"
  },
  "MYCA": {
    "AvailableFormats": "2D",
    "City": "Angamaly",
    "Latitude": "10.1953",
    "Longitude": "76.3864",
    "RegionCode": "ANGA",
    "State": "Kerala",
    "SubRegionCode": "ANGA",
    "VenueAddress": "Mycinemas, 5th Floor, KSRTC Complex, Angamaly, Kerala 683572, India",
    "VenueCode": "MYCA",
    "VenueName": "MY Cinemas, KSRT Complex, Angamaly: Kerala"
  },
  "MYTH": {
    "AvailableFormats": "2D",
    "City": "Kovur (Nellore)",
    "Latitude": "14.505",
    "Longitude": "79.9859",
    "RegionCode": "KOVR",
    "State": "Andhra Pradesh",
    "SubRegionCode": "KOVR",
    "VenueAddress": "Mythili Imax Cinemas Road, Near ICICI Bank ATM, Kovur (Nellore), Andhra Pradesh 524137, India",
    "VenueCode": "MYTH",
    "VenueName": "Mythili Theatre: Kovur"
  },
  "NATP": {
    "AvailableFormats": "2D",
    "City": "Palakkad",
    "Latitude": "10.7774",
    "Longitude": "76.6533",
    "RegionCode": "PLKK",
    "State": "Kerala",
    "SubRegionCode": "PLKK",
    "VenueAddress": "Priyadarshini Road, Sultanpet, Near Apex Residence, Palakkad, Kerala 678001, India",
    "VenueCode": "NATP",
    "VenueName": "New Aroma Theatre: Palakkad"
  },
  "NCJA": {
    "AvailableFormats": "2D",
    "City": "Jalna",
    "Latitude": "19.835",
    "Longitude": "75.8936",
    "RegionCode": "JALN",
    "State": "Maharashtra",
    "SubRegionCode": "JALN",
    "VenueAddress": "Railway Station Road, Nariman Nagar, Jalna, Maharashtra 431213, India",
    "VenueCode": "NCJA",
    "VenueName": "Neelam Cineplex: Jalna"
  },
  "NCUK": {
    "AvailableFormats": "2D",
    "City": "Kanpur",
    "Latitude": "26.4647",
    "Longitude": "80.3463",
    "RegionCode": "KANP",
    "State": "Uttar Pradesh",
    "SubRegionCode": "KANP",
    "VenueAddress": "77/151, Latouche Road, Khoya Bazar, Mulganj, Kanpur, Uttar Pradesh 208001, India",
    "VenueCode": "NCUK",
    "VenueName": "Novelty Cinema: Kanpur"
  },
  "NHCG": {
    "AvailableFormats": "2D",
    "City": "Mumbai",
    "Latitude": "18.962",
    "Longitude": "72.824",
    "RegionCode": "MUMBAI",
    "State": "Maharashtra",
    "SubRegionCode": "MWEST",
    "VenueAddress": "Plot no: 266, Nishat Talkies, Maulana shaukatali Road, Mumbai, Maharashtra 400008, India",
    "VenueCode": "NHCG",
    "VenueName": "Nishat Cinema: Grant Road"
  },
  "NMHT": {
    "AvailableFormats": "2D",
    "City": "Thalayolaparambu",
    "Latitude": "9.78703",
    "Longitude": "76.4405",
    "RegionCode": "THAL",
    "State": "Kerala",
    "SubRegionCode": "THAL",
    "VenueAddress": "Vaikom Road, Thalayolaparambu, Kottayam, Near Medicity Cooperative Hospital, Thalayolaparambu, Kerala 686605, India",
    "VenueCode": "NMHT",
    "VenueName": "Nice Movie House: Thalayolaparambu"
  },
  "NPAD": {
    "AvailableFormats": "2D",
    "City": "Ludhiana",
    "Latitude": "30.871",
    "Longitude": "75.8862",
    "RegionCode": "LUDH",
    "State": "Punjab",
    "SubRegionCode": "LUDH",
    "VenueAddress": "Guru Amar Das Colony, Daba Road, Ludhiana, Punjab 141014, India",
    "VenueCode": "NPAD",
    "VenueName": "Nirmal Cineplex: Ludhiana"
  },
  "NSRV": {
    "AvailableFormats": "2D",
    "City": "Vizag (Visakhapatnam)",
    "Latitude": "17.8238",
    "Longitude": "83.2076",
    "RegionCode": "SABB",
    "State": "Andhra Pradesh",
    "SubRegionCode": "SABB",
    "VenueAddress": "Aditya Nagar, Pendurthi, Near Tirumala Hospital, Vizag, Andhra Pradesh 531173, India",
    "VenueCode": "NSRV",
    "VenueName": "Natraj A/c DTS: Pendurthi"
  },
  "NTHV": {
    "AvailableFormats": "2D",
    "City": "Bhadravati",
    "Latitude": "13.8526",
    "Longitude": "75.7071",
    "RegionCode": "BDVT",
    "State": "Karnataka",
    "SubRegionCode": "BDVT",
    "VenueAddress": "CN Road, Old Town, Bhadravati, Karnataka 577301, India",
    "VenueCode": "NTHV",
    "VenueName": "Nethravathi A/c Theatre: Bhadravati"
  },
  "NVKY": {
    "AvailableFormats": "2D",
    "City": "Kasganj",
    "Latitude": "27.8062",
    "Longitude": "78.6432",
    "RegionCode": "KASG",
    "State": "Uttar Pradesh",
    "SubRegionCode": "KASG",
    "VenueAddress": "Nadrai Gate, Main Market Road, Kasganj, Uttar Pradesh 207123, India",
    "VenueCode": "NVKY",
    "VenueName": "Novelty Talkies: Kasganj"
  },
  "NWCS": {
    "AvailableFormats": "2D",
    "City": "Himmatnagar",
    "Latitude": "23.5734",
    "Longitude": "72.9576",
    "RegionCode": "HIMM",
    "State": "Gujarat",
    "SubRegionCode": "HIMM",
    "VenueAddress": "Plot No: 21 to 33 and 53-B, GIDC Motipura, NH48, Near Hotel Khana Khazana, Himmatnagar, Gujarat 383001, India",
    "VenueCode": "NWCS",
    "VenueName": "New Star City Multiplex: Himmatnagar"
  },
  "NYCS": {
    "AvailableFormats": "2D",
    "City": "Bhuj",
    "Latitude": "23.2563",
    "Longitude": "69.6411",
    "RegionCode": "BHUJ",
    "State": "Gujarat",
    "SubRegionCode": "BHUJ",
    "VenueAddress": "Seven Sky, Air Port Road, Bhuj, Gujarat 370001, India",
    "VenueCode": "NYCS",
    "VenueName": "NY Cinemas: Seven Sky, Bhuj"
  },
  "NZBL": {
    "AvailableFormats": "2D",
    "City": "Nazira",
    "Latitude": "26.9125",
    "Longitude": "94.7328",
    "RegionCode": "NZRA",
    "State": "Assam",
    "SubRegionCode": "NZRA",
    "VenueAddress": "Ward No - 4, Dhodar Ali Road, Near ASTC Bus Station, Nazira, Assam 785685, India",
    "VenueCode": "NZBL",
    "VenueName": "Nazira Bolchabi: Nazira"
  },
  "OMTT": {
    "AvailableFormats": "2D",
    "City": "Chennai",
    "Latitude": "13.1251",
    "Longitude": "80.2898",
    "RegionCode": "CHEN",
    "State": "Tamil Nadu",
    "SubRegionCode": "CHEN",
    "VenueAddress": "W Mada St, Kaladipet, Tiruvottiyur, Chennai, Tamil Nadu 600019, India",
    "VenueCode": "OMTT",
    "VenueName": "Odiyan Mani Theatre 2k A/c Dolby: Thiruvottiyur"
  },
  "PAAS": {
    "AvailableFormats": "2D",
    "City": "Bengaluru",
    "Latitude": "12.987",
    "Longitude": "77.7368",
    "RegionCode": "HOKT",
    "State": "Karnataka",
    "SubRegionCode": "HOKT",
    "VenueAddress": "Park Square Mall, ITPB, Whitefield Road, Bengaluru, Karnataka 560066, India",
    "VenueCode": "PAAS",
    "VenueName": "PVR: Aura Park Square, Whitefield"
  },
  "PASD": {
    "AvailableFormats": "2D|3D",
    "City": "Bhopal",
    "Latitude": "23.1889",
    "Longitude": "77.434",
    "RegionCode": "BHOP",
    "State": "Madhya Pradesh",
    "SubRegionCode": "BHOP",
    "VenueAddress": "AURA Mall, E/8, Trilanga Colony, Trilanga Main Road, Gulmohar, Shahpura, Opposite Rajeev Gandhi Higher Secondary School, Bhopal, Madhya Pradesh 462039, India",
    "VenueCode": "PASD",
    "VenueName": "PVR: Aura Mall, Bhopal"
  },
  "PBMC": {
    "AvailableFormats": "2D|3D",
    "City": "Coimbatore",
    "Latitude": "11.0096",
    "Longitude": "76.959",
    "RegionCode": "COIM",
    "State": "Tamil Nadu",
    "SubRegionCode": "COIM",
    "VenueAddress": "4th Floor, Brookefields Mall, Krishnaswamy Road, Coimbatore, Tamil Nadu 641001, India",
    "VenueCode": "PBMC",
    "VenueName": "PVR: Brookefields Mall, Coimbatore"
  },
  "PCBI": {
    "AvailableFormats": "2D",
    "City": "Basti",
    "Latitude": "26.8048",
    "Longitude": "82.7571",
    "RegionCode": "BAST",
    "State": "Uttar Pradesh",
    "SubRegionCode": "BAST",
    "VenueAddress": "Chiyabari, Railway Station Road, Near My Big Mart, Basti, Uttar Pradesh 272002, India",
    "VenueCode": "PCBI",
    "VenueName": "Pankaj Cineplex: Basti"
  },
  "PCIN": {
    "AvailableFormats": "2D",
    "City": "Champa",
    "Latitude": "22.0336",
    "Longitude": "82.6481",
    "RegionCode": "CHAM",
    "State": "Chhattisgarh",
    "SubRegionCode": "CHAM",
    "VenueAddress": "Station Road, Korva Para, Near Anupam Plaza, Champa, Chhattisgarh 495671, India",
    "VenueCode": "PCIN",
    "VenueName": "Padmini Multiplex: Champa"
  },
  "PCMM": {
    "AvailableFormats": "2D|3D",
    "City": "Mumbai",
    "Latitude": "19.4066",
    "Longitude": "72.8224",
    "RegionCode": "MUMBAI",
    "State": "Maharashtra",
    "SubRegionCode": "MWEST",
    "VenueAddress": "PVR Cinemas, The Capital Mall Off New Link Road Village, Achole Road, Nalasopara East, Mumbai, Maharashtra 401209, India",
    "VenueCode": "PCMM",
    "VenueName": "PVR: The Capital Mall, Nalasopara (E)"
  },
  "PCRA": {
    "AvailableFormats": "2D",
    "City": "Kolkata",
    "Latitude": "22.518",
    "Longitude": "88.3543",
    "RegionCode": "KOLK",
    "State": "West Bengal",
    "SubRegionCode": "KOLK",
    "VenueAddress": "Building No. 95, Rash Behari Avenue, Manoharpukur, Kalighat, Opposite State Bank Of India, Kolkata, West Bengal 700029, India",
    "VenueCode": "PCRA",
    "VenueName": "Priya Cinema: Rashbehari Avenue"
  },
  "PCXD": {
    "AvailableFormats": "2D",
    "City": "Dabra",
    "Latitude": "25.8839",
    "Longitude": "78.3284",
    "RegionCode": "DABR",
    "State": "Madhya Pradesh",
    "SubRegionCode": "DABR",
    "VenueAddress": "Jawahar Ganj, Gurudwara Road, Dabra, Madhya Pradesh 475110, India",
    "VenueCode": "PCXD",
    "VenueName": "Prakash Cineplex: Dabra"
  },
  "PDIV": {
    "AvailableFormats": "2D|3D",
    "City": "Delhi",
    "Latitude": "28.639",
    "Longitude": "77.0745",
    "RegionCode": "NCR",
    "State": "NCR",
    "SubRegionCode": "DELHI",
    "VenueAddress": "G-1, Community Centre, Virjanand Marg, Vikaspuri, Near State Bank Of India, Delhi, NCR 110018, India",
    "VenueCode": "PDIV",
    "VenueName": "PVR: Vikaspuri, Delhi"
  },
  "PECP": {
    "AvailableFormats": "2D|3D|4DX|4DX 3D",
    "City": "Chandigarh",
    "Latitude": "30.7049",
    "Longitude": "76.8021",
    "RegionCode": "CHD",
    "State": "Punjab",
    "SubRegionCode": "CHD",
    "VenueAddress": "Plot No 178-178 A, 3rd Floor, Elante Mall, Industrial Area Phase I, Chandigarh, Punjab 160002, India",
    "VenueCode": "PECP",
    "VenueName": "PVR: Elante, Chandigarh"
  },
  "PFMR": {
    "AvailableFormats": "2D|3D",
    "City": "Rourkela",
    "Latitude": "22.2248",
    "Longitude": "84.8197",
    "RegionCode": "RKOR",
    "State": "Odisha",
    "SubRegionCode": "RKOR",
    "VenueAddress": "5th Floor, Forum Galleria Mall, Y-6, Raghunathpalli, Civil Township, Rourkela, Odisha 769004, India",
    "VenueCode": "PFMR",
    "VenueName": "PVR: Forum Mall, Rourkela"
  },
  "PGRA": {
    "AvailableFormats": "2D",
    "City": "Chennai",
    "Latitude": "12.9786",
    "Longitude": "80.1617",
    "RegionCode": "CHEN",
    "State": "Tamil Nadu",
    "SubRegionCode": "CHEN",
    "VenueAddress": "Grand Galada Mall, Kohinoor-2, Officers Line, GST Road, Pallavaram, Arumalai Chavadi, Chennai, Tamil Nadu 600043, India",
    "VenueCode": "PGRA",
    "VenueName": "PVR: Grand Galada, Pallavaram"
  },
  "PICS": {
    "AvailableFormats": "",
    "City": "Surat",
    "Latitude": "21.2544",
    "Longitude": "72.8853",
    "RegionCode": "SURT",
    "State": "Gujarat",
    "SubRegionCode": "SURT",
    "VenueAddress": "Dukhiya Darbar, Eden Road, Surat, Gujarat 394107, India",
    "VenueCode": "PICS",
    "VenueName": "Pragati Cinemas: Mota Varachha, Surat"
  },
  "PJDW": {
    "AvailableFormats": "2D",
    "City": "Mumbai",
    "Latitude": "19.0541",
    "Longitude": "72.8494",
    "RegionCode": "MUMBAI",
    "State": "Maharashtra",
    "SubRegionCode": "MWEST",
    "VenueAddress": "PVR LTD, Jio World Drive, BKC, Mumbai, Maharashtra 400051, India",
    "VenueCode": "PJDW",
    "VenueName": "Maison PVR: Jio World Drive-IN, Mumbai"
  },
  "PKHC": {
    "AvailableFormats": "2D",
    "City": "Salem",
    "Latitude": "11.6493",
    "Longitude": "78.1623",
    "RegionCode": "SALM",
    "State": "Tamil Nadu",
    "SubRegionCode": "SALM",
    "VenueAddress": "43, Gugai Erumapalayam Road, Kitchipalayam, Salem, Tamil Nadu 636015, India",
    "VenueCode": "PKHC",
    "VenueName": "Prakash Cinema A/C 4K DOLBY 7.1: Salem"
  },
  "PLAT": {
    "AvailableFormats": "",
    "City": "Attur",
    "Latitude": "11.5989",
    "Longitude": "78.5971",
    "RegionCode": "ATTR",
    "State": "Tamil Nadu",
    "SubRegionCode": "ATTR",
    "VenueAddress": "Padmalaya Complex, Attur Main Road, Pungavadi Puthur, Attur, Tamil Nadu 636102, India",
    "VenueCode": "PLAT",
    "VenueName": "Padmalaya Theatre A/C DTS 2K: Attur"
  },
  "PMAK": {
    "AvailableFormats": "3D|2D",
    "City": "Anand",
    "Latitude": "22.542",
    "Longitude": "72.9472",
    "RegionCode": "AND",
    "State": "Gujarat",
    "SubRegionCode": "AND",
    "VenueAddress": "2nd Floor, Maruti Solaris Mall, Anand Sojitara Road, Anand, Gujarat 380001, India",
    "VenueCode": "PMAK",
    "VenueName": "PVR: Maruti Solaris, Anand"
  },
  "PMKM": {
    "AvailableFormats": "3D|2D|4DX",
    "City": "Mumbai",
    "Latitude": "19.087",
    "Longitude": "72.8903",
    "RegionCode": "MUMBAI",
    "State": "Maharashtra",
    "SubRegionCode": "MCENT",
    "VenueAddress": "Phoenix Market City, LBS Marg, Ashok Nagar, Near Kamani Junction, Kurla (W), Mumbai, Maharashtra 400072, India",
    "VenueCode": "PMKM",
    "VenueName": "PVR: Market City, Kurla (Premiere)"
  },
  "PMPU": {
    "AvailableFormats": "2D",
    "City": "Siddhpur",
    "Latitude": "23.9396",
    "Longitude": "72.3646",
    "RegionCode": "SIDD",
    "State": "Gujarat",
    "SubRegionCode": "SIDD",
    "VenueAddress": "Prayosha Plaza, Ahmedabad Palanpur Highway Road, Opposite GIDC, Siddhpur, Gujarat 384151, India",
    "VenueCode": "PMPU",
    "VenueName": "Planet Movieplex: Siddhpur"
  },
  "PNAD": {
    "AvailableFormats": "2D|3D",
    "City": "Delhi",
    "Latitude": "28.6331",
    "Longitude": "77.1387",
    "RegionCode": "NCR",
    "State": "NCR",
    "SubRegionCode": "DELHI",
    "VenueAddress": "Community Center, Goswami Girdhari Lal Marg, Industrial Area Phase I, Block B, Naraina Industrial Area Phase 1, Naraina, Delhi, NCR 110028, India",
    "VenueCode": "PNAD",
    "VenueName": "PVR: Naraina, Delhi"
  },
  "POOR": {
    "AvailableFormats": "2D",
    "City": "Ichchapuram",
    "Latitude": "19.1181",
    "Longitude": "84.6801",
    "RegionCode": "ICPR",
    "State": "Andhra Pradesh",
    "SubRegionCode": "ICPR",
    "VenueAddress": "Thoturu Road, Mandapalli Post, Opposite Basi Auto Work Centre, Ichchapuram, Andhra Pradesh 532312, India",
    "VenueCode": "POOR",
    "VenueName": "Poorna Theatre: Ichchapuram"
  },
  "PPGV": {
    "AvailableFormats": "2D|3D|ICE",
    "City": "Delhi",
    "Latitude": "28.5423",
    "Longitude": "77.1558",
    "RegionCode": "NCR",
    "State": "NCR",
    "SubRegionCode": "DELHI",
    "VenueAddress": "DLF Promenade Mall, 2nd Floor, Phase 2, Nelson Mandela Road, Vasant Kunj, Delhi, NCR 110070, India",
    "VenueCode": "PPGV",
    "VenueName": "PVR: Promenade, Vasant Kunj"
  },
  "PPPD": {
    "AvailableFormats": "2D|3D",
    "City": "Tirupati",
    "Latitude": "13.6341",
    "Longitude": "79.5046",
    "RegionCode": "TIRU",
    "State": "Andhra Pradesh",
    "SubRegionCode": "TIRU",
    "VenueAddress": "Gowri Nagar, GM Street, Tirupati, Andhra Pradesh 517520, India",
    "VenueCode": "PPPD",
    "VenueName": "Padma Picture Palace A/C 4K Dolby Atmos: Renigunta"
  },
  "PRCS": {
    "AvailableFormats": "2D",
    "City": "Hyderabad",
    "Latitude": "17.4396",
    "Longitude": "78.4986",
    "RegionCode": "HYD",
    "State": "Telangana",
    "SubRegionCode": "HYD",
    "VenueAddress": "73, Red Cross Road, Shivaji nagar, Secunderabad, Beside Passport Office, Hyderabad, Telangana 500003, India",
    "VenueCode": "PRCS",
    "VenueName": "Prashant Cinema: Secunderabad (Newly Renovated)"
  },
  "PRHT": {
    "AvailableFormats": "2D",
    "City": "Amravati",
    "Latitude": "20.9311",
    "Longitude": "77.7517",
    "RegionCode": "AMRA",
    "State": "Maharashtra",
    "SubRegionCode": "AMRA",
    "VenueAddress": "Prabhat Talkies, Jawahar Gate Road, Amravati Camp, Behind Mahila Vidyalaya, Amravati, Maharashtra 444602, India",
    "VenueCode": "PRHT",
    "VenueName": "Prabhat Talkies: Amravati"
  },
  "PRTN": {
    "AvailableFormats": "2D",
    "City": "Nandyal",
    "Latitude": "15.4857",
    "Longitude": "78.4871",
    "RegionCode": "NADY",
    "State": "Andhra Pradesh",
    "SubRegionCode": "NADY",
    "VenueAddress": "Atmakur Road, Telugu Peta, Nandyal, Andhra Pradesh 518501, India",
    "VenueCode": "PRTN",
    "VenueName": "Pratap Picture Palace A/C 4K DTS: Nandyal"
  },
  "PSLC": {
    "AvailableFormats": "2D",
    "City": "Bengaluru",
    "Latitude": "12.9259",
    "Longitude": "77.6754",
    "RegionCode": "BANG",
    "State": "Karnataka",
    "SubRegionCode": "BANG",
    "VenueAddress": "Soul Space Spirit Central M all, Outer Ring Road, Bellandur, Bengaluru, Karnataka 560037, India",
    "VenueCode": "PSLC",
    "VenueName": "PVR: Soul Spirit Central Mall, Bellandur"
  },
  "PSPR": {
    "AvailableFormats": "2D|4DX|ICE",
    "City": "Bengaluru",
    "Latitude": "12.8881",
    "Longitude": "77.5629",
    "RegionCode": "BANG",
    "State": "Karnataka",
    "SubRegionCode": "BANG",
    "VenueAddress": "Forum Mall, 3rd Floor, Konanakunte Cross, Kanakapura Road, South Bangalore, Bengaluru, Karnataka 560062, India",
    "VenueCode": "PSPR",
    "VenueName": "PVR: Superplex Forum Mall, Kanakapura Road"
  },