{
  "AACT": {
    "AvailableFormats": "",
    "City": "Tirur",
    "FirstTracked": "2026-07-14",
    "Latitude": "10.909439",
    "Longitude": "75.922585",
    "RegionCode": "ANDM",
    "State": "Kerala",
    "SubRegionCode": "ANDM",
    "VenueAddress": "Trikkandiyoor Road, Tirur, Near MDC BANK, Tirur, Kerala 676101, India",
    "VenueCode": "AACT",
    "VenueName": "Magic Frames Anoograha Cinemas: Tirur"
  },
  "AASH": {
    "AvailableFormats": "2D",
    "City": "Bhandara",
    "Latitude": "21.17",
    "Longitude": "79.6562",
    "RegionCode": "BHAA",
    "State": "Maharashtra",
    "SubRegionCode": "BHAA",
    "VenueAddress": "Gandhi Square, Gandhi Chowk, Santaji Nagar, Bhandara, Maharashtra 441904, India",
    "VenueCode": "AASH",
    "VenueName": "Adarsh Chitra Mandir: Bhandara"
  },
  "ABCS": {
    "AvailableFormats": "3D|2D",
    "City": "Hyderabad",
    "Latitude": "17.4005",
    "Longitude": "78.5548",
    "RegionCode": "HYD",
    "State": "Telangana",
    "SubRegionCode": "HYD",
    "VenueAddress": "DSL Virtue Mall, 3rd Floor, Plot No. B-1, B-2B and 2, Uppal Khlasa VRR, Near Indian Oil Petrol Pump, Hyderabad, Telangana 500039, India",
    "VenueCode": "ABCS",
    "VenueName": "Cinepolis: DSL Virtue Mall Uppal, Hyderabad"
  },
  "ABTS": {
    "AvailableFormats": "2D",
    "City": "Palakollu",
    "Latitude": "16.5167",
    "Longitude": "81.7258",
    "RegionCode": "PLKL",
    "State": "Andhra Pradesh",
    "SubRegionCode": "PLKL",
    "VenueAddress": "Money Market Road, Near Kanaka Durga Maa Temple, Palakollu, Andhra Pradesh 534260, India",
    "VenueCode": "ABTS",
    "VenueName": "Adabala Theatre Screen 1: Palakollu"
  },
  "ACDC": {
    "AvailableFormats": "2D",
    "City": "Chhatarpur",
    "Latitude": "24.8849",
    "Longitude": "79.5946",
    "RegionCode": "CHHT",
    "State": "Madhya Pradesh",
    "SubRegionCode": "CHHT",
    "VenueAddress": "Green Avenue Colony, Next to Dr. Radhakrishna Higher Secondary School, Chhatarpur, Madhya Pradesh 471001, India",
    "VenueCode": "ACDC",
    "VenueName": "Ashoka Cineplex: Chhatarpur"
  },
  "ACID": {
    "AvailableFormats": "",
    "City": "Idar",
    "FirstTracked": "2026-07-14",
    "Latitude": "23.80376",
    "Longitude": "72.993935",
    "RegionCode": "IDAR",
    "State": "Gujarat",
    "SubRegionCode": "IDAR",
    "VenueAddress": "Himatnagar Highway, Sapawada, Idar, Gujarat 383430, India",
    "VenueCode": "ACID",
    "VenueName": "Time Cinema: Idar"
  },
  "ACKZ": {
    "AvailableFormats": "2D",
    "City": "Kozhikode",
    "Latitude": "11.2554",
    "Longitude": "75.7847",
    "RegionCode": "KOZH",
    "State": "Kerala",
    "SubRegionCode": "KOZH",
    "VenueAddress": "No 17/256, Pavamani Road, Kozhikode, Kerala 673001, India",
    "VenueCode": "ACKZ",
    "VenueName": "ARC Coronation 4K Dolby Atmos"
  },
  "ACON": {
    "AvailableFormats": "2D",
    "City": "Chennai",
    "Latitude": "12.8505",
    "Longitude": "80.2257",
    "RegionCode": "CHEN",
    "State": "Tamil Nadu",
    "SubRegionCode": "CHEN",
    "VenueAddress": "Vivira Mall, 5th Floor, Navalur, Old Mahabalipuram Road, Near ETA Techno Park Entrance, Chennai, Tamil Nadu 603103, India",
    "VenueCode": "ACON",
    "VenueName": "AGS Cinemas OMR: Navlur"
  },
  "ACTC": {
    "AvailableFormats": "",
    "City": "Trivandrum",
    "FirstTracked": "2026-07-14",
    "Latitude": "8.497059",
    "Longitude": "76.937096",
    "RegionCode": "TRIV",
    "State": "Kerala",
    "SubRegionCode": "TRIV",
    "VenueAddress": "SRA-24, Vanchiyoor, Thiruvananthapuram, Trivandrum, Kerala 695035, India",
    "VenueCode": "ACTC",
    "VenueName": "Artech Cinemas: Trivandrum"
  },
  "ACXK": {
    "AvailableFormats": "2D",
    "City": "Kichha",
    "Latitude": "28.9107",
    "Longitude": "79.5144",
    "RegionCode": "KCHA",
    "State": "Uttarakhand",
    "SubRegionCode": "KCHA",
    "VenueAddress": "Bareilly Road, Main Market, Kichha, Uttarakhand 263148, India",
    "VenueCode": "ACXK",
    "VenueName": "Anupam Cineplex: Kichha"
  },
  "ADGR": {
    "AvailableFormats": "2D|3D",
    "City": "Gorakhpur",
    "Latitude": "26.7564",
    "Longitude": "83.3668",
    "RegionCode": "GRKP",
    "State": "Uttar Pradesh",
    "SubRegionCode": "GRKP",
    "VenueAddress": "2nd and 3rd Floor, Ad Mall, Cinema Road, Gorakhpur, Uttar Pradesh 273001, India",
    "VenueCode": "ADGR",
    "VenueName": "AD Cinemas: Gorakhpur"
  },
  "AGCD": {
    "AvailableFormats": "2D",
    "City": "Dindigul",
    "Latitude": "10.3655",
    "Longitude": "77.9815",
    "RegionCode": "DIND",
    "State": "Tamil Nadu",
    "SubRegionCode": "DIND",
    "VenueAddress": "15 A, Aarthi Theatre Road, Dindigul, Tamil Nadu 624001, India",
    "VenueCode": "AGCD",
    "VenueName": "Aarthi Grand Cineplex: Dindigul"
  },
  "AJCI": {
    "AvailableFormats": "",
    "City": "Chintamani",
    "FirstTracked": "2026-07-14",
    "Latitude": "13.3946",
    "Longitude": "78.0505",
    "RegionCode": "CHTI",
    "State": "Karnataka",
    "SubRegionCode": "CHTI",
    "VenueAddress": "Malapally Road, Beside Old LIC Building, Gandhi Nagar, Chintamani, Karnataka 563125, India",
    "VenueCode": "AJCI",
    "VenueName": "Anjani Theatre: Chintamani"
  },
  "AKTB": {
    "AvailableFormats": "2D|3D",
    "City": "Burhanpur",
    "Latitude": "21.3031",
    "Longitude": "76.2225",
    "RegionCode": "BRHP",
    "State": "Madhya Pradesh",
    "SubRegionCode": "BRHP",
    "VenueAddress": "Amrawati Road, Near Kamal Plaza, Burhanpur, Madhya Pradesh 450331, India",
    "VenueCode": "AKTB",
    "VenueName": "Ankita Multiplex: Burhanpur"
  },
  "ALCT": {
    "AvailableFormats": "",
    "City": "Taliparamba",
    "FirstTracked": "2026-07-14",
    "Latitude": "12.039735",
    "Longitude": "75.356735",
    "RegionCode": "TALI",
    "State": "Kerala",
    "SubRegionCode": "TALI",
    "VenueAddress": "National Highway, Taliparamba Payyanur, Main Road, Taliparamba, Kerala 670141, India",
    "VenueCode": "ALCT",
    "VenueName": "Alinkeel Cinemas 2K Atmos 7.1: Taliparamba"
  },
  "AMBT": {
    "AvailableFormats": "3D|2D",
    "City": "Nagpur",
    "Latitude": "21.1163",
    "Longitude": "79.0128",
    "RegionCode": "NAGP",
    "State": "Maharashtra",
    "SubRegionCode": "NAGP",
    "VenueAddress": "Bansi Nagar, S R P Camp, Digdoh, Nagpur, Maharashtra 440016, India",
    "VenueCode": "AMBT",
    "VenueName": "AM Cinema: Bansi Nagar, Nagpur"
  },
  "AMGD": {
    "AvailableFormats": "2D",
    "City": "Ahmedabad",
    "Latitude": "23.0922",
    "Longitude": "72.5457",
    "RegionCode": "AHD",
    "State": "Gujarat",
    "SubRegionCode": "AHD",
    "VenueAddress": "Vandematram, 6th Floor, Block A, Shakti Etc, Nr. D-Mart, Gota Road, Opp Nayra Petrol Pump, Gota, Ahmedabad, Gujarat 382481, India",
    "VenueCode": "AMGD",
    "VenueName": "Apple Multiplex: Gota, Ahmedabad"
  },
  "AMOE": {
    "AvailableFormats": "3D|2D",
    "City": "Amravati",
    "Latitude": "20.8983",
    "Longitude": "77.7477",
    "RegionCode": "AMRA",
    "State": "Maharashtra",
    "SubRegionCode": "AMRA",
    "VenueAddress": "Elite Mall, Guruchhaya Colony, Saturna, Sai Nagar,Badnera Road, Near Bhakti Dham Mandir, Amravati, Maharashtra 444607, India",
    "VenueCode": "AMOE",
    "VenueName": "E Orbit Multiplex: Amravati"
  },
  "ANAC": {
    "AvailableFormats": "",
    "City": "Chennai",
    "FirstTracked": "2026-07-14",
    "Latitude": "13.067187",
    "Longitude": "80.27129",
    "RegionCode": "CHEN",
    "State": "Tamil Nadu",
    "SubRegionCode": "CHEN",
    "VenueAddress": "New No 21,Anna Salai, Mount Road, Near Gee Gee Complex, Chennai, Tamil Nadu 600014, India",
    "VenueCode": "ANAC",
    "VenueName": "Anna Cinemas: Mount Road"
  },
  "ANES": {
    "AvailableFormats": "3D|2D",
    "City": "Chhatrapati Sambhajinagar (Aurangabad)",
    "Latitude": "19.879",
    "Longitude": "75.3355",
    "RegionCode": "AURA",
    "State": "Maharashtra",
    "SubRegionCode": "AURA",
    "VenueAddress": "Near Central Telegraph Office, Bahadurpura Mondha Road, Aurangabad HO, Near Jafar Gate, Chhatrapati Sambhaji Nagar, Near Jaffer Gate, Chhatrapati Sambhajinagar (Aurangabad), Maharashtra 431001, India",
    "VenueCode": "ANES",
    "VenueName": "Abhinay: Chhatrapati Sambhaji Nagar"
  },
  "ANRS": {
    "AvailableFormats": "2D",
    "City": "Sircilla",
    "Latitude": "18.3863",
    "Longitude": "78.8129",
    "RegionCode": "SIRC",
    "State": "Telangana",
    "SubRegionCode": "SIRC",
    "VenueAddress": "Sircilla - Siddipet Road, Near Andhra Bank, Sircilla, Telangana 505301, India",
    "VenueCode": "ANRS",
    "VenueName": "Asian Natraj Deluxe Theatre A/c: Sircilla"
  },
  "APAA": {
    "AvailableFormats": "2D",
    "City": "Mathabhanga",
    "Latitude": "26.3397",
    "Longitude": "89.2157",
    "RegionCode": "MABH",
    "State": "West Bengal",
    "SubRegionCode": "MABH",
    "VenueAddress": "Sitalkuchi Road, Near MINA Jewellary, Opposite Digital World, Mathabhanga, West Bengal 736146, India",
    "VenueCode": "APAA",
    "VenueName": "Apsara Cinema: Mathabhanga"
  },
  "APLP": {
    "AvailableFormats": "2D",
    "City": "Surat",
    "Latitude": "21.1812",
    "Longitude": "72.7679",
    "RegionCode": "SURT",
    "State": "Gujarat",
    "SubRegionCode": "SURT",
    "VenueAddress": "4th Floor, Zircon Arena, Pal Bhatha, Surat, Gujarat 394510, India",
    "VenueCode": "APLP",
    "VenueName": "Apple Cinema: Pal Bhatha"
  },
  "APST": {
    "AvailableFormats": "",
    "City": "Vijayapura",
    "FirstTracked": "2026-07-14",
    "Latitude": "16.831915",
    "Longitude": "75.72379",
    "RegionCode": "VJPR",
    "State": "Karnataka",
    "SubRegionCode": "VJPR",
    "VenueAddress": "Jadar Galli, Near Loyola Institute, Vijayapura, Karnataka 586101, India",
    "VenueCode": "APST",
    "VenueName": "Apsara Cineplex 70 mm: Bijapur"
  },
  "ARCB": {
    "AvailableFormats": "",
    "City": "Bardoli",
    "FirstTracked": "2026-07-14",
    "Latitude": "21.13157",
    "Longitude": "73.10262",
    "RegionCode": "BRDL",
    "State": "Gujarat",
    "SubRegionCode": "BRDL",
    "VenueAddress": "Alankar Cineplex, Station Road, Ramnagar,Opp Bardoli Sugar Factory, Near Bardoli Railway Station, Bardoli, Gujarat 394601, India",
    "VenueCode": "ARCB",
    "VenueName": "Alankar Cineplex: Bardoli"
  },
  "ARRO": {
    "AvailableFormats": "2D",
    "City": "Ooty",
    "Latitude": "11.4145",
    "Longitude": "76.709",
    "RegionCode": "OOTY",
    "State": "Tamil Nadu",
    "SubRegionCode": "OOTY",
    "VenueAddress": "Garden Road, Pudumund, Ooty, Tamil Nadu 643001, India",
    "VenueCode": "ARRO",
    "VenueName": "The Assembly Rooms: Ooty"
  },
  "ASBL": {
    "AvailableFormats": "2D",
    "City": "Siddipet",
    "Latitude": "18.1039",
    "Longitude": "78.8569",
    "RegionCode": "SDDP",
    "State": "Telangana",
    "SubRegionCode": "SDDP",
    "VenueAddress": "Srinivas Nagar, Siddipet - Karimnagar Road, Siddipet, Telangana 502103, India",
    "VenueCode": "ASBL",
    "VenueName": "Asian Balaji 70MM A/C: Siddipet"
  },
  "ASHN": {
    "AvailableFormats": "2D",
    "City": "Hyderabad",
    "Latitude": "17.5107",
    "Longitude": "78.2952",
    "RegionCode": "HYD",
    "State": "Telangana",
    "SubRegionCode": "HYD",
    "VenueAddress": "Sy. No. 101AA, 101 E, 105 E, Ramchandra Puram, Hyderabad, Telangana 500133, India",
    "VenueCode": "ASHN",
    "VenueName": "Asian Cinemart: RC Puram"
  },
  "ASMS": {
    "AvailableFormats": "2D",
    "City": "Salem",
    "Latitude": "11.6481",
    "Longitude": "78.1618",
    "RegionCode": "SALM",
    "State": "Tamil Nadu",
    "SubRegionCode": "SALM",
    "VenueAddress": "194/55, Kallarampatty Main Road, Erumapalayam, Near Municipal Office, Salem, Tamil Nadu 636015, India",
    "VenueCode": "ASMS",
    "VenueName": "Aascars Multiplex: Salem"
  },
  "ASSK": {
    "AvailableFormats": "2D",
    "City": "Khammam",
    "Latitude": "17.25",
    "Longitude": "80.1403",
    "RegionCode": "KHAM",
    "State": "Telangana",
    "SubRegionCode": "KHAM",
    "VenueAddress": "9-2-15/A, Station Road, Braman Bazar, Khammam, Telangana 507001, India",
    "VenueCode": "ASSK",
    "VenueName": "Asian Srinivasa: Khammam"
  },
  "ASVS": {
    "AvailableFormats": "2D",
    "City": "Siddipet",
    "Latitude": "18.1047",
    "Longitude": "78.8598",
    "RegionCode": "SDDP",
    "State": "Telangana",
    "SubRegionCode": "SDDP",
    "VenueAddress": "Karimnagar Road, Srinivas Nagar, Near Honda Showroom, Siddipet, Telangana 502103, India",
    "VenueCode": "ASVS",
    "VenueName": "Asian Venkateshwara: Siddipet"
  },
  "ATCL": {
    "AvailableFormats": "2D",
    "City": "Mandapeta",
    "Latitude": "16.8707",
    "Longitude": "81.9254",
    "RegionCode": "MAND",
    "State": "Andhra Pradesh",
    "SubRegionCode": "MAND",
    "VenueAddress": "Cinema Road, Gandhi Nagar, Near Municipality Compost Yard, Mandapeta, Andhra Pradesh 533308, India",
    "VenueCode": "ATCL",
    "VenueName": "Ambica Theaters 2K A/c DTS: Mandapeta"
  },
  "ATMG": {
    "AvailableFormats": "2D",
    "City": "Chennai",
    "Latitude": "12.5051",
    "Longitude": "79.8799",
    "RegionCode": "CHEN",
    "State": "Tamil Nadu",
    "SubRegionCode": "CHEN",
    "VenueAddress": "National Highway Service Road, Maduranthakam, Tamil Nadu, Near Lake View Hotal, Chennai, Tamil Nadu 603306, India",
    "VenueCode": "ATMG",
    "VenueName": "Anand Theatre Madhuranthagam RGB LASER 4k"
  },
  "ATUN": {
    "AvailableFormats": "2D",
    "City": "Khachrod",
    "Latitude": "23.4255",
    "Longitude": "75.2856",
    "RegionCode": "KHCU",
    "State": "Madhya Pradesh",
    "SubRegionCode": "KHCU",
    "VenueAddress": "36, Ujjain Gate, Near Gopal Mandir, Khachrod, Madhya Pradesh 456224, India",
    "VenueCode": "ATUN",
    "VenueName": "Ashok Cineplex: Khachrod"
  },
  "AVCK": {
    "AvailableFormats": "2D",
    "City": "Kozhikode",
    "Latitude": "11.2596",
    "Longitude": "75.7883",
    "RegionCode": "KOZH",
    "State": "Kerala",
    "SubRegionCode": "KOZH",
    "VenueAddress": "R.P.Mall, Mavoor Road, Opposite - Moffusil Bus Stand, Arayidathupalam, Kozhikode, Kerala 673001, India",
    "VenueCode": "AVCK",
    "VenueName": "Aashirvad Cineplexx: Kozhikode"
  },
  "AWND": {
    "AvailableFormats": "",
    "City": "Piduguralla",
    "FirstTracked": "2026-07-14",
    "Latitude": "16.48054",
    "Longitude": "79.89087",
    "RegionCode": "PIDU",
    "State": "Andhra Pradesh",
    "SubRegionCode": "PIDU",
    "VenueAddress": "FVJR+69R, Tangeda Road, Piduguralla, Andhra Pradesh 522413, India",
    "VenueCode": "AWND",
    "VenueName": "Aswani Deluxe A/C: Piduguralla"
  },
  "AYYA": {
    "AvailableFormats": "2D",
    "City": "Pattukkottai",
    "Latitude": "10.4238",
    "Longitude": "79.3149",
    "RegionCode": "PATU",
    "State": "Tamil Nadu",
    "SubRegionCode": "PATU",
    "VenueAddress": "54 South Kali, Amman Mobil st, Nadimuthu Nagar, Pattukkottai, Tamil Nadu 614601, India",
    "VenueCode": "AYYA",
    "VenueName": "Ayya A/C theatre 2K Dolby 7.1: Pattukkottai"
  },
  "BASK": {
    "AvailableFormats": "2D",
    "City": "Sivasagar",
    "Latitude": "26.953",
    "Longitude": "94.5718",
    "RegionCode": "SVSG",
    "State": "Assam",
    "SubRegionCode": "SVSG",
    "VenueAddress": "AT Road, Bhatiapar, Near Bhatiapar Petrol Pump, Sivasagar, Assam 785697, India",
    "VenueCode": "BASK",
    "VenueName": "Bhaskarjyoti Cinema: Sivasagar"
  },
  "BBTS": {
    "AvailableFormats": "",
    "City": "Siruguppa",
    "FirstTracked": "2026-07-14",
    "Latitude": "15.632644",
    "Longitude": "76.89329",
    "RegionCode": "SPPA",
    "State": "Karnataka",
    "SubRegionCode": "SPPA",
    "VenueAddress": "Sadashiv Nagar, Near Syndicate Bank, Siruguppa, Karnataka 583121, India",
    "VenueCode": "BBTS",
    "VenueName": "Balaji Theatre: Siruguppa"
  },
  "BDCG": {
    "AvailableFormats": "2D",
    "City": "Bengaluru",
    "Latitude": "12.974",
    "Longitude": "77.5798",
    "RegionCode": "HOKT",
    "State": "Karnataka",
    "SubRegionCode": "HOKT",
    "VenueAddress": "23, Kempegowda Road, Mysore Bank Colony, Gandhi Nagar, Bengaluru, Karnataka 560009, India",
    "VenueCode": "BDCG",
    "VenueName": "Bhumika Digital 2K Cinema: Gandhinagar"
  },
  "BHCS": {
    "AvailableFormats": "2D|3D",
    "City": "Manipal",
    "Latitude": "13.353",
    "Longitude": "74.7903",
    "RegionCode": "MANI",
    "State": "Karnataka",
    "SubRegionCode": "MANI",
    "VenueAddress": "Canara Mall, Hebri Road, Near Hotel Green Park, Manipal, Karnataka 576104, India",
    "VenueCode": "BHCS",
    "VenueName": "Bharath Cinemas: Canara Mall, Manipal"
  },
  "BIJO": {
    "AvailableFormats": "2D",
    "City": "Shillong",
    "Latitude": "25.5764",
    "Longitude": "91.8816",
    "RegionCode": "SHLG",
    "State": "Meghalaya",
    "SubRegionCode": "SHLG",
    "VenueAddress": "Police Bazar, Near Bank of India Shillong, Shillong, Meghalaya 793001, India",
    "VenueCode": "BIJO",
    "VenueName": "Bijou Cinema: Shillong"
  },
  "BKCG": {
    "AvailableFormats": "",
    "City": "Gandhinagar",
    "FirstTracked": "2026-07-14",
    "Latitude": "23.267239",
    "Longitude": "72.66759",
    "RegionCode": "GNAGAR",
    "State": "Gujarat",
    "SubRegionCode": "GNAGAR",
    "VenueAddress": "2nd Floor, Bosky the City Mall, Pethpur Cross Road, Pethapur, Gandhinagar, Gujarat 382610, India",
    "VenueCode": "BKCG",
    "VenueName": "Bosky Cineplex: Gandhinagar"
  },
  "BLLD": {
    "AvailableFormats": "2D",
    "City": "Nalbari",
    "Latitude": "26.4544",
    "Longitude": "91.4091",
    "RegionCode": "NALB",
    "State": "Assam",
    "SubRegionCode": "NALB",
    "VenueAddress": "Bella Luna Cinemas, Q Green Hotel 5th Floor, Haripur Highway, Nalbari, Assam 781340, India",
    "VenueCode": "BLLD",
    "VenueName": "Bella Luna Cinemas: Nalbari"
  },
  "BMXA": {
    "AvailableFormats": "2D",
    "City": "Ulhasnagar",
    "Latitude": "19.2201",
    "Longitude": "73.1723",
    "RegionCode": "MUMBAI",
    "State": "Maharashtra",
    "SubRegionCode": "ULHA",
    "VenueAddress": "GNP Galaxy, Vadol Gaon, Waldhuni, Ambernath, Ulhasnagar, Ulhasnagar, Maharashtra 421501, India",
    "VenueCode": "BMXA",
    "VenueName": "BMX Cinemas: Ambernath (New)"
  },
  "BRKH": {
    "AvailableFormats": "2D",
    "City": "Hyderabad",
    "Latitude": "17.5002",
    "Longitude": "78.3866",
    "RegionCode": "HYD",
    "State": "Telangana",
    "SubRegionCode": "HYD",
    "VenueAddress": "Jai Bharat Nagar, Hyder Nagar, Vasantha Nagar, Kukatpally, Near Karachi Bakery, Hyderabad, Telangana 500072, India",
    "VenueCode": "BRKH",
    "VenueName": "Bhramaramba 70MM A/C 4K Dolby: Kukatpally"
  },
  "BSPC": {
    "AvailableFormats": "2D",
    "City": "Dhampur",
    "Latitude": "29.3028",
    "Longitude": "78.5065",
    "RegionCode": "DHPR",
    "State": "Uttar Pradesh",
    "SubRegionCode": "DHPR",
    "VenueAddress": "Near Champa Devi Temple, Udaipur, Dhampur, Uttar Pradesh 246761, India",
    "VenueCode": "BSPC",
    "VenueName": "Bansal Cineplex: Dhampur"
  },
  "BTDP": {
    "AvailableFormats": "2D",
    "City": "Dammapeta",
    "Latitude": "17.2667",
    "Longitude": "81.0117",
    "RegionCode": "DMPT",
    "State": "Telangana",
    "SubRegionCode": "DMPT",
    "VenueAddress": "Balaji Center, Dammapeta Main Road, Dammapeta, Telangana 507306, India",
    "VenueCode": "BTDP",
    "VenueName": "Balaji Talkies: Dammapeta"
  },
  "BWST": {
    "AvailableFormats": "2D",
    "City": "Surat",
    "Latitude": "21.1792",
    "Longitude": "72.9627",
    "RegionCode": "SURT",
    "State": "Gujarat",
    "SubRegionCode": "SURT",
    "VenueAddress": "574/2/1/ Chhatrala City Centre, MC Donalds Kadodara At - Umbhel, Near NH 8, Surat, Gujarat 394325, India",
    "VenueCode": "BWST",
    "VenueName": "Bollywood Cinema, Kadodara: Surat"
  },
  "CAML": {
    "AvailableFormats": "3D|2D",
    "City": "Kolkata",
    "Latitude": "22.5147",
    "Longitude": "88.3932",
    "RegionCode": "KOLK",
    "State": "West Bengal",
    "SubRegionCode": "KOLK",
    "VenueAddress": "3rd Floor, Acropolis Mall, 1858 Rajdanga Main Road, Beside Geetanjali stadium, Kolkata, West Bengal 700107, India",
    "VenueCode": "CAML",
    "VenueName": "Cinepolis: Acropolis Mall, Kolkata"
  },
  "CCAT": {
    "AvailableFormats": "2D",
    "City": "Coimbatore",
    "Latitude": "11.1121",
    "Longitude": "76.9355",
    "RegionCode": "COIM",
    "State": "Tamil Nadu",
    "SubRegionCode": "COIM",
    "VenueAddress": "2A/12, Padmalaya Nagar, Narasimhanaickenpalayam, Coimbatore, Tamil Nadu 641031, India",
    "VenueCode": "CCAT",
    "VenueName": "Cosmo Cinemas: NARASIMANAIKEN PALAYAM, AC 4k ATMOS"
  },
  "CCEJ": {
    "AvailableFormats": "2D",
    "City": "Jharsuguda",
    "Latitude": "21.8501",
    "Longitude": "84.0135",
    "RegionCode": "JRSG",
    "State": "Odisha",
    "SubRegionCode": "JRSG",
    "VenueAddress": "MS Khata No 635, Sarbahal Road, Jharsuguda, Odisha 768201, India",
    "VenueCode": "CCEJ",
    "VenueName": "Chhotu Maharaj CineCafe: Jharsuguda"
  },
  "CCKS": {
    "AvailableFormats": "2D|3D",
    "City": "Surat",
    "Latitude": "21.2319",
    "Longitude": "72.8362",
    "RegionCode": "SURT",
    "State": "Gujarat",
    "SubRegionCode": "SURT",
    "VenueAddress": "6th floor, Laxmi Enclave 2, Near Gajera School, Surat, Gujarat 395004, India",
    "VenueCode": "CCKS",
    "VenueName": "Cineverse Cinema: Katargam, Surat"
  },
  "CCMU": {
    "AvailableFormats": "2D|3D",
    "City": "Mysuru (Mysore)",
    "Latitude": "12.3585",
    "Longitude": "76.6361",
    "RegionCode": "MYS",
    "State": "Karnataka",
    "SubRegionCode": "MYS",
    "VenueAddress": "No 119 Metagalli Industrial Area, Metagalli, Behind GRS Fantasy Park, Opposite J K Golden Embassy, Mysuru (Mysore), Karnataka 570016, India",
    "VenueCode": "CCMU",
    "VenueName": "Mysuru VISION Cinemas, Behind GRS Fantasy Park"
  },
  "CCPP": {
    "AvailableFormats": "2D",
    "City": "Phaltan",
    "Latitude": "17.9881",
    "Longitude": "74.4302",
    "RegionCode": "PHAL",
    "State": "Maharashtra",
    "SubRegionCode": "PHAL",
    "VenueAddress": "Namvaibhav Chitra mandir, Gajanan Chowk, Satara, Phaltan, Maharashtra 415523, India",
    "VenueCode": "CCPP",
    "VenueName": "Cinea City Pride: Phaltan"
  },
  "CCTA": {
    "AvailableFormats": "",
    "City": "Taliparamba",
    "FirstTracked": "2026-07-14",
    "Latitude": "12.034475",
    "Longitude": "75.362724",
    "RegionCode": "TALI",
    "State": "Kerala",
    "SubRegionCode": "TALI",
    "VenueAddress": "Trichambaram Temple Road, Trichambaram, Near State Bank of India, Taliparamba, Kerala 670141, India",
    "VenueCode": "CCTA",
    "VenueName": "Classic Cinema 4K Dolby Atmos: Taliparamba"
  },
  "CDRT": {
    "AvailableFormats": "",
    "City": "Dharmajigudem",
    "FirstTracked": "2026-07-14",
    "Latitude": "16.8857",
    "Longitude": "80.9918",
    "RegionCode": "ELRU",
    "State": "Andhra Pradesh",
    "SubRegionCode": "ELRU",
    "VenueAddress": "Chintalapudi - Eluru Road, Near to Primary Health Centre, Dharmajigudem, Andhra Pradesh 534462, India",
    "VenueCode": "CDRT",
    "VenueName": "SRI LAKSHMI AC 2K LASER DOLBY ATMOS: DHARMAJIGUDEM"
  },
  "CEST": {
    "AvailableFormats": "2D|3D",
    "City": "Delhi",
    "Latitude": "28.6372",
    "Longitude": "77.2869",
    "RegionCode": "NCR",
    "State": "NCR",
    "SubRegionCode": "DELHI",
    "VenueAddress": "Laxmi Nagar Commercial Complex, Swasthya Vihar, Delhi, NCR 110092, India",
    "VenueCode": "CEST",
    "VenueName": "Cinepolis: V3S East Centre (New)"
  },
  "CGCO": {
    "AvailableFormats": "",
    "City": "Olpad",
    "FirstTracked": "2026-07-14",
    "Latitude": "21.328",
    "Longitude": "72.7558",
    "RegionCode": "SURT",
    "State": "Gujarat",
    "SubRegionCode": "SURT",
    "VenueAddress": "Krishnam Arcade, Olpad-Sayan Road, Opposite Mali Fadiya, Olpad, Gujarat 394045, India",
    "VenueCode": "CGCO",
    "VenueName": "Cinemagic Cinema: Olpad"
  },
  "CGPM": {
    "AvailableFormats": "2D|3D",
    "City": "Patna",
    "Latitude": "25.6028",
    "Longitude": "85.1535",
    "RegionCode": "PATN",
    "State": "Bihar",
    "SubRegionCode": "PATN",
    "VenueAddress": "No. 294, The Gravity Mall, Old Bypass Road, Bechar Main Road, Kankarbagh, Patna, Bihar 800020, India",
    "VenueCode": "CGPM",
    "VenueName": "Cinepolis: Gravity Mall, Patna"
  },
  "CHOE": {
    "AvailableFormats": "2D",
    "City": "Vellakoil",
    "Latitude": "10.9596",
    "Longitude": "77.7168",
    "RegionCode": "VELI",
    "State": "Tamil Nadu",
    "SubRegionCode": "VELI",
    "VenueAddress": "1197/A1A2B, Kamala Mill, Bus Stop, Vellakoil, Tamil Nadu 638111, India",
    "VenueCode": "CHOE",
    "VenueName": "Chhotu Maharaj Cine Cafe: Vellakoil"
  },
  "CIBU": {
    "AvailableFormats": "",
    "City": "Baramulla",
    "FirstTracked": "2026-07-14",
    "Latitude": "34.20528",
    "Longitude": "74.34683",
    "RegionCode": "BRML",
    "State": "Jammu and Kashmir",
    "SubRegionCode": "BRML",
    "VenueAddress": "Sherwani Hall, National Highway 1A, Baramulla, Jammu and Kashmir 193101, India",
    "VenueCode": "CIBU",
    "VenueName": "Citara Cinemas: Baramulla"
  },
  "CINL": {
    "AvailableFormats": "",
    "City": "Saharanpur",
    "FirstTracked": "2026-07-14",
    "Latitude": "29.968603",
    "Longitude": "77.5315",
    "RegionCode": "SAHA",
    "State": "Uttar Pradesh",
    "SubRegionCode": "SAHA",
    "VenueAddress": "1-249, National Highway 73, Patel Nagar, Saharanpur, Uttar Pradesh 247001, India",
    "VenueCode": "CINL",
    "VenueName": "Cineluv Multiplex Cinema: Saharanpur"
  },
  "CKPP": {
    "AvailableFormats": "",
    "City": "Pune",
    "FirstTracked": "2026-07-14",
    "Latitude": "18.6373",
    "Longitude": "73.847",
    "RegionCode": "PUNE",
    "State": "Maharashtra",
    "SubRegionCode": "PUNE",
    "VenueAddress": "Plot No-87/1/5, Sector-1, 24 Proxima, Lakshmi Road Indrayani Nagar, Pune, Maharashtra 411039, India",
    "VenueCode": "CKPP",
    "VenueName": "Cinemark 24 Proxima: Indryani Nagar, Bhosari-Pune"
  },
  "CLGM": {
    "AvailableFormats": "2D",
    "City": "Bengaluru",
    "Latitude": "12.9817",
    "Longitude": "77.5638",
    "RegionCode": "BANG",
    "State": "Karnataka",
    "SubRegionCode": "BANG",
    "VenueAddress": "3rd Floor, Lulu Mall, Rajajinagar, Bengaluru, Karnataka 560023, India",
    "VenueCode": "CLGM",
    "VenueName": "Cinepolis: Lulu Mall, Bengaluru"
  },
  "CLTP": {
    "AvailableFormats": "",
    "City": "Pune",
    "FirstTracked": "2026-07-14",
    "Latitude": "18.4768",
    "Longitude": "73.9083",
    "RegionCode": "PUNE",
    "State": "Maharashtra",
    "SubRegionCode": "PUNE",
    "VenueAddress": "1st Floor, Tribeca Highstreet, NIBM Post Office Road, Pune, Maharashtra 411048, India",
    "VenueCode": "CLTP",
    "VenueName": "Connplex Cinemas (Luxuriance): Tribeca Highstreet"
  },
  "CMDA": {
    "AvailableFormats": "",
    "City": "Dahod",
    "FirstTracked": "2026-07-14",
    "Latitude": "22.841972",
    "Longitude": "74.250916",
    "RegionCode": "DAHO",
    "State": "Gujarat",
    "SubRegionCode": "DAHO",
    "VenueAddress": "GLK Tower, Godi Road, Mohammadi Society, Alefiya Colony, Near Hotel Laxmiinn, Dahod, Gujarat 389151, India",
    "VenueCode": "CMDA",
    "VenueName": "Cinemera Multiplex: Dahod"
  },
  "CMMK": {
    "AvailableFormats": "2D",
    "City": "Medak",
    "Latitude": "18.0507",
    "Longitude": "78.2634",
    "RegionCode": "NRPR",
    "State": "Telangana",
    "SubRegionCode": "NRPR",
    "VenueAddress": "Chaman Road, Fathe Nagar, Thimmaipalli, Medak, Telangana 502110, India",
    "VenueCode": "CMMK",
    "VenueName": "Cinemax Theatre: Medak"
  },
  "CMSG": {
    "AvailableFormats": "2D",
    "City": "Suriya",
    "Latitude": "24.1623",
    "Longitude": "85.8825",
    "RegionCode": "GIRI",
    "State": "Jharkhand",
    "SubRegionCode": "GIRI",
    "VenueAddress": "Rajdhanwar Road, Bank of India, Barki Suriya, Suriya, Jharkhand 825320, India",
    "VenueCode": "CMSG",
    "VenueName": "Chhotu Maharaj Cine Cafe: Suriya, Giridi"
  },
  "CMVP": {
    "AvailableFormats": "2D",
    "City": "Pune",
    "Latitude": "18.7887",
    "Longitude": "73.7717",
    "RegionCode": "PUNE",
    "State": "Maharashtra",
    "SubRegionCode": "PUNE",
    "VenueAddress": "Ground, Plot No.PAP-V-74, Vasuli, Chakan MIDC, Phase 2, Khed, Pune, Maharashtra 410501, India",
    "VenueCode": "CMVP",
    "VenueName": "Chhotu Maharaj Cine Cafe, Vasuli Phata: Pune"
  },
  "CNCL": {
    "AvailableFormats": "2D",
    "City": "Lonavala",
    "Latitude": "18.747",
    "Longitude": "73.409",
    "RegionCode": "LNVL",
    "State": "Maharashtra",
    "SubRegionCode": "LNVL",
    "VenueAddress": "Neelkamal, Siddharth Nagar, Near DTDC - Pune-Lonavala, Lonavala, Maharashtra 410401, India",
    "VenueCode": "CNCL",
    "VenueName": "Cinebliss Neelkamal Cinema: Lonavala"
  },
  "CNGE": {
    "AvailableFormats": "2D",
    "City": "Trivandrum",
    "Latitude": "8.57061",
    "Longitude": "76.8841",
    "RegionCode": "VKAL",
    "State": "Kerala",
    "SubRegionCode": "VKAL",
    "VenueAddress": "Green Field Stadium, Karyavattom.P.O, Near The Sports Hub, Trivandrum, Kerala 695581, India",
    "VenueCode": "CNGE",
    "VenueName": "Greenfield Moviemax Cinemas: Trivandrum"
  },
  "CNPT": {
    "AvailableFormats": "2D",
    "City": "Tirupur",
    "Latitude": "11.0989",
    "Longitude": "77.3775",
    "RegionCode": "TIRP",
    "State": "Tamil Nadu",
    "SubRegionCode": "TIRP",
    "VenueAddress": "Rakkiapalayam Road, Cheran Nagar, Valliammai Nagar, Near Hp Petrol Pump, Tirupur, Tamil Nadu 641606, India",
    "VenueCode": "CNPT",
    "VenueName": "Cine Park Theatre: Tirupur"
  },
  "CNVS": {
    "AvailableFormats": "2D",
    "City": "Surat",
    "Latitude": "21.1484",
    "Longitude": "72.7747",
    "RegionCode": "SURT",
    "State": "Gujarat",
    "SubRegionCode": "SURT",
    "VenueAddress": "4th Floor, Atlanta Shoppers, Vesu, Near Reliance Market, Surat, Gujarat 395007, India",
    "VenueCode": "CNVS",
    "VenueName": "Cineverse Cinema: Vesu"
  },
  "COOC": {
    "AvailableFormats": "2D|3D",
    "City": "Chandannagar",
    "Latitude": "22.8606",
    "Longitude": "88.3693",
    "RegionCode": "CHDD",
    "State": "West Bengal",
    "SubRegionCode": "CHDD",
    "VenueAddress": "Barabazar, Burabazar Main Road, Chandannagar, West Bengal 712136, India",
    "VenueCode": "COOC",
    "VenueName": "Cinema Hut: Chandannagar"
  },
  "CPCL": {
    "AvailableFormats": "2D|3D",
    "City": "Hyderabad",
    "Latitude": "17.4572",
    "Longitude": "78.5369",
    "RegionCode": "HYD",
    "State": "Telangana",
    "SubRegionCode": "HYD",
    "VenueAddress": "CCPL Mall, Malkajgiri Road, Vimala Devi Nagar Colony, Malkajgiri, Hyderabad, Telangana 500047, India",
    "VenueCode": "CPCL",
    "VenueName": "Cinepolis: CCPL Mall Malkajgiri, Hyderabad"
  },
  "CPHY": {
    "AvailableFormats": "2D",
    "City": "Hyderabad",
    "Latitude": "17.5296",
    "Longitude": "78.4858",
    "RegionCode": "HYD",
    "State": "Telangana",
    "SubRegionCode": "HYD",
    "VenueAddress": "Satyam Enclave, Medchal Road, Kompally, Hyderabad, Telangana 500014, India",
    "VenueCode": "CPHY",
    "VenueName": "Asian Cineplanet Multiplex: Kompally"
  },
  "CPLC": {
    "AvailableFormats": "2D",
    "City": "Ahmedabad",
    "Latitude": "23.092",
    "Longitude": "72.6865",
    "RegionCode": "AHD",
    "State": "Gujarat",
    "SubRegionCode": "AHD",
    "VenueAddress": "601, Sixth Floor, Vishala Empire, Naroda Dehgam Circle, SP Ring Road, Near Muthia Toll Tax, Ahmedabad, Gujarat 382330, India",
    "VenueCode": "CPLC",
    "VenueName": "Cineprime Cinema: Luxuriance, Hanspura"
  },
  "CPNL": {
    "AvailableFormats": "2D|3D",
    "City": "Ludhiana",
    "Latitude": "30.8826",
    "Longitude": "75.782",
    "RegionCode": "LUDH",
    "State": "Punjab",
    "SubRegionCode": "LUDH",
    "VenueAddress": "2nd Floor, MBD Neopolis Mall, Ferozepur Road, Ludhiana, Punjab 141004, India",
    "VenueCode": "CPNL",
    "VenueName": "Cinepolis: Nexus MBD, Ludhiana"
  },
  "CPRT": {
    "AvailableFormats": "2D|3D",
    "City": "Ratnagiri",
    "Latitude": "16.9915",
    "Longitude": "73.3238",
    "RegionCode": "RATN",
    "State": "Maharashtra",
    "SubRegionCode": "RATN",
    "VenueAddress": "Siddhivinayak City Center, Shivajinagar, Ratnagiri, Maharashtra 415612, India",
    "VenueCode": "CPRT",
    "VenueName": "City Pride Multiplex: Shivaji Nagar, Ratnagiri"
  },
  "CPVJ": {
    "AvailableFormats": "3D|2D",
    "City": "Vijayawada",
    "Latitude": "16.5024",
    "Longitude": "80.6424",
    "RegionCode": "KADU",
    "State": "Andhra Pradesh",
    "SubRegionCode": "KADU",
    "VenueAddress": "4th Floor, PVP Square Mall, Mahatma Gandhi Road, Labbipet, Mogalrajapuram, Vijayawada, Andhra Pradesh 520010, India",
    "VenueCode": "CPVJ",
    "VenueName": "Cinepolis: PVP Square Mall, Vijayawada"
  },
  "CRPR": {
    "AvailableFormats": "2D",
    "City": "Puthoor",
    "Latitude": "9.040496",
    "Longitude": "76.715786",
    "RegionCode": "PUTR",
    "State": "Kerala",
    "SubRegionCode": "PUTR",
    "VenueAddress": "Cheerankavu, Maranadu, Puthoor, Kerala 691507, India",
    "VenueCode": "CRPR",
    "VenueName": "Chellam Theatre 4K Laser Dolby Atmos: Puthoor"
  },
  "CSEP": {
    "AvailableFormats": "2D",
    "City": "Ahmedabad",
    "Latitude": "23.0189",
    "Longitude": "72.5564",
    "RegionCode": "AHD",
    "State": "Gujarat",
    "SubRegionCode": "AHD",
    "VenueAddress": "Parimal Garden, Chimanlal Girdharlal R, Besides Ambuja House Oppo, Ahmedabad, Gujarat 380006, India",
    "VenueCode": "CSEP",
    "VenueName": "Connplex Cinemas: Parimal"
  },
  "CSSL": {
    "AvailableFormats": "2D",
    "City": "Asansol",
    "Latitude": "23.7034",
    "Longitude": "86.9483",
    "RegionCode": "ASANSOL",
    "State": "West Bengal",
    "SubRegionCode": "ASANSOL",
    "VenueAddress": "Sentrum Mall, Lions Club Road, Shristinagar, Asansol, West Bengal 713305, India",
    "VenueCode": "CSSL",
    "VenueName": "CineCosmo: Sentrum Mall, Asansol"
  },
  "CSUB": {
    "AvailableFormats": "2D",
    "City": "Cumbum",
    "Latitude": "9.75236",
    "Longitude": "77.2795",
    "RegionCode": "CMBM",
    "State": "Tamil Nadu",
    "SubRegionCode": "CMBM",
    "VenueAddress": "1587/3A, RJMS Danube Building, Uthamapuram, Theni, Cumbum, Tamil Nadu 625516, India",
    "VenueCode": "CSUB",
    "VenueName": "Cine Square Cinemas 2K DOLBY A/C: Cumbum"
  },
  "CTMG": {
    "AvailableFormats": "2D",
    "City": "Mundargi",
    "Latitude": "15.199",
    "Longitude": "75.8778",
    "RegionCode": "MNDR",
    "State": "Karnataka",
    "SubRegionCode": "MNDR",
    "VenueAddress": "O Block No.27, No.22, Shrihatti Road, District Gadag, Mundargi, Karnataka 582118, India",
    "VenueCode": "CTMG",
    "VenueName": "Chhotu Maharaj CineCafe: Mundargi,Karnataka"
  },
  "CTPR": {
    "AvailableFormats": "",
    "City": "Puthoor",
    "FirstTracked": "2026-07-14",
    "Latitude": "9.040554",
    "Longitude": "76.7158",
    "RegionCode": "PUTR",
    "State": "Kerala",
    "SubRegionCode": "PUTR",
    "VenueAddress": "Cheerankavu - Maranadu - Puthoor Road, Near St. Kuriakose Orthodox Syrian Church, Puthoor, Kerala 691507, India",
    "VenueCode": "CTPR",
    "VenueName": "Chellam Theatre: Puthoor"
  },
  "CUJC": {
    "AvailableFormats": "2D",
    "City": "Hisar",
    "Latitude": "29.0998",
    "Longitude": "75.9068",
    "RegionCode": "HISR",
    "State": "Haryana",
    "SubRegionCode": "HISR",
    "VenueAddress": "Green Valley Lodge, Delhi Hisar Road, Indian Oil Petrol Pump, Hansi, Near Miyar Toll Plaza, Hisar, Haryana 125033, India",
    "VenueCode": "CUJC",
    "VenueName": "Chhotu Maharaj Cine Cafe: Hansi"
  },
  "CVRN": {
    "AvailableFormats": "3D|2D",
    "City": "Nagpur",
    "Latitude": "21.1327",
    "Longitude": "79.0957",
    "RegionCode": "NAGP",
    "State": "Maharashtra",
    "SubRegionCode": "NAGP",
    "VenueAddress": "City Survey No. 362/1, Ward No 90 (New), Mouza Jat - Tarodi, Near Medical Square, Rambagh Road, Nagpur, Maharashtra 440003, India",
    "VenueCode": "CVRN",
    "VenueName": "Cinepolis: VR Mall, Nagpur"
  },
  "CXKR": {
    "AvailableFormats": "2D",
    "City": "Rourkela",
    "Latitude": "22.2342",
    "Longitude": "84.8724",
    "RegionCode": "RKOR",
    "State": "Odisha",
    "SubRegionCode": "RKOR",
    "VenueAddress": "Railway Colony, Ring Road, Rourkela, Odisha 769001, India",
    "VenueCode": "CXKR",
    "VenueName": "Cineplexx: Beside Hotel Deepti, Rourkela"
  },
  "CZVX": {
    "AvailableFormats": "2D",
    "City": "Barshi",
    "Latitude": "18.2404",
    "Longitude": "75.6974",
    "RegionCode": "BRHI",
    "State": "Maharashtra",
    "SubRegionCode": "BRHI",
    "VenueAddress": "Chatrapati Cinema Hall, Chatrapati Bhavan, Latur Road, Barshi, Maharashtra 413401, India",
    "VenueCode": "CZVX",
    "VenueName": "Chatrapati Cinema: Barshi"
  },
  "DCAK": {
    "AvailableFormats": "2D",
    "City": "Kodungallur",
    "Latitude": "10.2315",
    "Longitude": "76.1974",
    "RegionCode": "KODU",
    "State": "Kerala",
    "SubRegionCode": "KODU",
    "VenueAddress": "Kalpaka Road, Star Nagar, Kodungallur, Kerala 680668, India",
    "VenueCode": "DCAK",
    "VenueName": "D CINEMAA: MUGHAL MALL BARCO 4K LASER, KODUNGALLUR"
  },
  "DCIN": {
    "AvailableFormats": "2D",
    "City": "Nagaon",
    "Latitude": "26.3528",
    "Longitude": "92.6713",
    "RegionCode": "NAAM",
    "State": "Assam",
    "SubRegionCode": "NAAM",
    "VenueAddress": "Divyajyoti Cinema Hall, Dhing Gate Flyover, Near Haibargaon Railway Station,Nagaon, Assam 782002, India",
    "VenueCode": "DCIN",
    "VenueName": "Divyajyoti Cinema: Nagaon"
  },
  "DCRP": {
    "AvailableFormats": "2D",
    "City": "Ramanathapuram",
    "Latitude": "9.36634",
    "Longitude": "78.8362",
    "RegionCode": "RAPU",
    "State": "Tamil Nadu",
    "SubRegionCode": "RAPU",
    "VenueAddress": "41, East Coast Road, Chalai Bazar, Ramanathapuram, Near om sakthi temple, Ramanathapuram, Tamil Nadu 623504, India",
    "VenueCode": "DCRP",
    "VenueName": "D Cinema A/C Sony 4K 3D: Ramanathapuram"
  },
  "DDXB": {
    "AvailableFormats": "2D|3D",
    "City": "Bhopal",
    "Latitude": "23.1876",
    "Longitude": "77.4174",
    "RegionCode": "BHOP",
    "State": "Madhya Pradesh",
    "SubRegionCode": "BHOP",
    "VenueAddress": "Kolar Road, Mandakini Colony, Near Vishal Maega Mart, Bhopal, Madhya Pradesh 462042, India",
    "VenueCode": "DDXB",
    "VenueName": "DDX Cinema Kolar: Bhopal"
  },
  "DFCH": {
    "AvailableFormats": "2D",
    "City": "Dhemaji",
    "Latitude": "27.4716",
    "Longitude": "94.5575",
    "RegionCode": "DHEM",
    "State": "Assam",
    "SubRegionCode": "DHEM",
    "VenueAddress": "Ward No 3, Dhemaji Chariali, Chariali, Near Indian Oil Petrol Pump Rupanti Borgohain Path, Dhemaji, Assam 787057, India",
    "VenueCode": "DFCH",
    "VenueName": "Dhemaji Cinema & Cafe"
  },
  "DIKT": {
    "AvailableFormats": "2D",
    "City": "Madurai",
    "Latitude": "9.88169",
    "Longitude": "78.0556",
    "RegionCode": "MADU",
    "State": "Tamil Nadu",
    "SubRegionCode": "MADU",
    "VenueAddress": "National Highway 7, Thirunagar, Thanakkankulam, Near LIC of India, Branch Office, Madurai, Tamil Nadu 625006, India",
    "VenueCode": "DIKT",
    "VenueName": "Dhevi Kalaivani Theatre A/C DTS: Madurai"
  },
  "DLMT": {
    "AvailableFormats": "2D",
    "City": "Akaltara",
    "Latitude": "22.0352",
    "Longitude": "82.4273",
    "RegionCode": "AKAL",
    "State": "Chhattisgarh",
    "SubRegionCode": "AKAL",
    "VenueAddress": "Baloda Road, Beside DL Fuels, Akaltara, Chhattisgarh 495552, India",
    "VenueCode": "DLMT",
    "VenueName": "DL Multiplex: Akaltara"
  },
  "DNCS": {
    "AvailableFormats": "2D",
    "City": "Shirur",
    "Latitude": "18.818",
    "Longitude": "74.3666",
    "RegionCode": "SHRU",
    "State": "Maharashtra",
    "SubRegionCode": "SHRU",
    "VenueAddress": "2nd Floor, A Wing, Oxy Gold, Baburao Nagar, Shirur Bypass, Shirur, Maharashtra 412210, India",
    "VenueCode": "DNCS",
    "VenueName": "Digigold Nova Cinemaz: Shirur"
  },
  "DRCA": {
    "AvailableFormats": "2D",
    "City": "Durgapur",
    "Latitude": "23.5376",
    "Longitude": "87.3015",
    "RegionCode": "DURGA",
    "State": "West Bengal",
    "SubRegionCode": "DURGA",
    "VenueAddress": "Nazrul Sarani, Doctor`s Colony, City Center, Near Srijani Auditorium, Durgapur, West Bengal 713216, India",
    "VenueCode": "DRCA",
    "VenueName": "Durgapur Cinema: Durgapur"
  },
  "DSCZ": {
    "AvailableFormats": "2D",
    "City": "Nabarangpur",
    "Latitude": "19.2204",
    "Longitude": "82.5404",
    "RegionCode": "NAGU",
    "State": "Odisha",
    "SubRegionCode": "NAGU",
    "VenueAddress": "Plot No. 1910, Katha No.122, Ichabatiguda, Nabarangpur, Odisha 764059, India",
    "VenueCode": "DSCZ",
    "VenueName": "DS3 Cinemas: Nabarangpur"
  },
  "DTVP": {
    "AvailableFormats": "2D",
    "City": "Vijayapura",
    "Latitude": "16.8269",
    "Longitude": "75.7164",
    "RegionCode": "VJPR",
    "State": "Karnataka",
    "SubRegionCode": "VJPR",
    "VenueAddress": "Tippu Sultan Circle, D.C Office Road, Near KSRTC Bus Stand, Vijayapura, Karnataka 586101, India",
    "VenueCode": "DTVP",
    "VenueName": "Dreamland A/C Dolby Theatre: Vijayapura (Bijapur)"
  },
  "DVPM": {
    "AvailableFormats": "2D",
    "City": "Pandharpur",
    "Latitude": "17.6802",
    "Longitude": "75.3231",
    "RegionCode": "PNDH",
    "State": "Maharashtra",
    "SubRegionCode": "PNDH",
    "VenueAddress": "Pune - Pandharpur Road, Market Yard, Gokul Nagar, Isbavi, Near New S.T. Stand, Pandharpur, Maharashtra 413304, India",
    "VenueCode": "DVPM",
    "VenueName": "DVP Square: Pandharpur"
  },
  "ECGN": {
    "AvailableFormats": "2D",
    "City": "Gondia",
    "Latitude": "21.4655",
    "Longitude": "80.1894",
    "RegionCode": "AMGN",
    "State": "Maharashtra",
    "SubRegionCode": "AMGN",
    "VenueAddress": "2nd Floor, Platinum Plaza, Ward No 9, Lohiya Ward, Pal Chowk, Rail Toly, Bhandarkar Road, Near State Bank of India, Gondia, Maharashtra 441614, India",
    "VenueCode": "ECGN",
    "VenueName": "EOS Cinemas: Gondia"
  },
  "EETS": {
    "AvailableFormats": "2D",
    "City": "Erode",
    "Latitude": "11.3288",
    "Longitude": "77.7098",
    "RegionCode": "EROD",
    "State": "Tamil Nadu",
    "SubRegionCode": "EROD",
    "VenueAddress": "468, Brough Road, Teachers Colony, Palayapalayam, Near Aanjaneyar Kovil, Erode, Tamil Nadu 638001, India",
    "VenueCode": "EETS",
    "VenueName": "Sangeetha Theatre A/C 4K Dolby 7.1: Erode"
  },
  "EMCI": {
    "AvailableFormats": "2D",
    "City": "Kolkata",
    "Latitude": "22.3973",
    "Longitude": "88.4883",
    "RegionCode": "BARR",
    "State": "West Bengal",
    "SubRegionCode": "BARR",
    "VenueAddress": "Baruipur - Champahati Road, Opposite State Bank of India, Kolkata, West Bengal 743330, India",
    "VenueCode": "EMCI",
    "VenueName": "Elora Multiplex: Champahati"
  },
  "ERSD": {
    "AvailableFormats": "2D|3D",
    "City": "Jabalpur",
    "Latitude": "23.1689",
    "Longitude": "79.9336",
    "RegionCode": "JABL",
    "State": "Madhya Pradesh",
    "SubRegionCode": "JABL",
    "VenueAddress": "Samdareeya Mall, Civic Centre, Near Mata Gujri College, Jabalpur, Madhya Pradesh 482001, India",
    "VenueCode": "ERSD",
    "VenueName": "Samdareeya Era Cinema: Jabalpur"
  },
  "ESSH": {
    "AvailableFormats": "2D",
    "City": "Hisar",
    "Latitude": "29.1543",
    "Longitude": "75.7222",
    "RegionCode": "HISR",
    "State": "Haryana",
    "SubRegionCode": "HISR",
    "VenueAddress": "Railway Road, Mehta Nagar, Rampura Mohalla, Hisar, Haryana 125001, India",
    "VenueCode": "ESSH",
    "VenueName": "Elite Cinema: Hisar"
  },
  "EVMC": {
    "AvailableFormats": "2D",
    "City": "Muvattupuzha",
    "Latitude": "9.97985",
    "Longitude": "76.5837",
    "RegionCode": "MUVA",
    "State": "Kerala",
    "SubRegionCode": "MUVA",
    "VenueAddress": "SH8, Kizhakkekara, Muvattupuzha, Near Nirmala Shopping Centre, Muvattupuzha, Kerala 686661, India",
    "VenueCode": "EVMC",
    "VenueName": "EVM Latha 4k 3D RGB Pure laser 7.1: Muvattupuzha"
  },
  "FCCT": {
    "AvailableFormats": "2D",
    "City": "Talwandi Bhai",
    "Latitude": "30.8429",
    "Longitude": "74.9334",
    "RegionCode": "TALW",
    "State": "Punjab",
    "SubRegionCode": "TALW",
    "VenueAddress": "Talwandi Bhai Moga Road, Near Fun Island, Talwandi Bhai, Punjab 142050, India",
    "VenueCode": "FCCT",
    "VenueName": "FunIsland Cinemas: Talwandi Bhai"
  },
  "FCRT": {
    "AvailableFormats": "2D",
    "City": "Betul",
    "Latitude": "21.9002",
    "Longitude": "77.9061",
    "RegionCode": "BETU",
    "State": "Madhya Pradesh",
    "SubRegionCode": "BETU",
    "VenueAddress": "Hirani Marg, Ganj, Opposite Kapoor Furnitures, Betul, Madhya Pradesh 460001, India",
    "VenueCode": "FCRT",
    "VenueName": "Rajtilak Multiscreen: Betul"
  },
  "FMDA": {
    "AvailableFormats": "2D|3D",
    "City": "Mumbai",
    "Latitude": "19.2633",
    "Longitude": "72.8746",
    "RegionCode": "MUMBAI",
    "State": "Maharashtra",
    "SubRegionCode": "MWEST",
    "VenueAddress": "3rd Floor, Thakur Mall, Opposite Sunshine Hotel, Near Dahisar Toll Naka, Dahisar East, Mumbai, Maharashtra 400068, India",
    "VenueCode": "FMDA",
    "VenueName": "INOX: Thakur Mall, Dahisar"
  },
  "FMPT": {
    "AvailableFormats": "2D",
    "City": "Petlad",
    "Latitude": "22.4938",
    "Longitude": "72.8013",
    "RegionCode": "BORM",
    "State": "Gujarat",
    "SubRegionCode": "BORM",
    "VenueAddress": "Novello Entertainment, Sunav Road, Near Sanatorium, Petlad, Gujarat 388450, India",
    "VenueCode": "FMPT",
    "VenueName": "Flamingo Cinemas: Petlad"
  },
  "FNCH": {
    "AvailableFormats": "2D|3D",
    "City": "Chandigarh",
    "Latitude": "30.713",
    "Longitude": "76.8447",
    "RegionCode": "CHD",
    "State": "Chandigarh",
    "SubRegionCode": "CHD",
    "VenueAddress": "Dhillon Complex, Mani Majra, Chandigarh, Chandigarh 160101, India",
    "VenueCode": "FNCH",
    "VenueName": "Fun Cinemas: Republic Mall, Chandigarh"
  },
  "FNLN": {
    "AvailableFormats": "3D|2D",
    "City": "Delhi",
    "Latitude": "28.6373",
    "Longitude": "77.2858",
    "RegionCode": "NCR",
    "State": "NCR",
    "SubRegionCode": "DELHI",
    "VenueAddress": "East Centre, Plot No-10, Main Vikas Marg, District Centre, Laxminagar, Delhi, NCR 110092, India",
    "VenueCode": "FNLN",
    "VenueName": "Cinepolis: V3S Mall, Laxmi Nagar"
  },
  "FRPU": {
    "AvailableFormats": "2D",
    "City": "Patran",
    "Latitude": "29.9458",
    "Longitude": "76.0642",
    "RegionCode": "PATR",
    "State": "Punjab",
    "SubRegionCode": "PATR",
    "VenueAddress": "Narwana Bye Pass Road, Patiala, Patran, Punjab 147105, India",
    "VenueCode": "FRPU",
    "VenueName": "Om Jee Cinemas: Patran"
  },
  "FVPN": {
    "AvailableFormats": "2D",
    "City": "Vadodara",
    "Latitude": "22.2892",
    "Longitude": "73.2096",
    "RegionCode": "ANKV",
    "State": "Gujarat",
    "SubRegionCode": "ANKV",
    "VenueAddress": "9/10,Pratapnagar Road, Pratapnagar, Bhatia Chawl, Opposite Yogini Vasantdevi Hospital,Moghul Wada, Vadodara, Gujarat 390004, India",
    "VenueCode": "FVPN",
    "VenueName": "Cinemarc Vihar: Pratapnagar"
  },
  "GAJK": {
    "AvailableFormats": "2D",
    "City": "Khamgaon",
    "Latitude": "20.7055",
    "Longitude": "76.5675",
    "RegionCode": "KHMG",
    "State": "Maharashtra",
    "SubRegionCode": "KHMG",
    "VenueAddress": "Gandhi Chowk, Jagdamba Mata Marg, Opposite Congress Office, Khamgaon, Maharashtra 444303, India",
    "VenueCode": "GAJK",
    "VenueName": "Gajanan Talkies: Khamgaon"
  },
  "GAUT": {
    "AvailableFormats": "2D",
    "City": "Berhampur",
    "Latitude": "19.3128",
    "Longitude": "84.7861",
    "RegionCode": "BERP",
    "State": "Odisha",
    "SubRegionCode": "BERP",
    "VenueAddress": "Gandhi Nagar, Near Hanuman Temple, Berhampur, Odisha 760001, India",
    "VenueCode": "GAUT",
    "VenueName": "Gautam Cinema A/C Dolby Digital 2K: Berhampur"
  },
  "GCCH": {
    "AvailableFormats": "2D",
    "City": "Raigarh",
    "Latitude": "21.8949",
    "Longitude": "83.3958",
    "RegionCode": "RAIG",
    "State": "Chhattisgarh",
    "SubRegionCode": "RAIG",
    "VenueAddress": "Grand Mall, 4th Floor, Gouri Shankar Mandir Chowk, Raigarh, Chhattisgarh 496001, India",
    "VenueCode": "GCCH",
    "VenueName": "Grand Cinemas: Raigarh"
  },
  "GCFK": {
    "AvailableFormats": "2D",
    "City": "Kochi",
    "Latitude": "9.95385",
    "Longitude": "76.2477",
    "RegionCode": "PALY",
    "State": "Kerala",
    "SubRegionCode": "PALY",
    "VenueAddress": "Pandikudy, Anavathil, Thamaraparambu, Chullickal, Near Keraleswaram Siva Temple, Kochi, Kerala 682001, India",
    "VenueCode": "GCFK",
    "VenueName": "G Cinemas Fort Kochi: 4K Dolby ATMOS"
  },
  "GCMA": {
    "AvailableFormats": "2D",
    "City": "Morena",
    "Latitude": "26.4905",
    "Longitude": "77.9869",
    "RegionCode": "MRMP",
    "State": "Madhya Pradesh",
    "SubRegionCode": "MRMP",
    "VenueAddress": "Hariraj Palace, M S Road, Morena, Madhya Pradesh 476001, India",
    "VenueCode": "GCMA",
    "VenueName": "Gold Cinema: Morena"
  },
  "GCRP": {
    "AvailableFormats": "2D",
    "City": "Chennai",
    "Latitude": "13.0999",
    "Longitude": "80.1795",
    "RegionCode": "CHEN",
    "State": "Tamil Nadu",
    "SubRegionCode": "CHEN",
    "VenueAddress": "64, Periyar Nagar, Mes Colony, Chennai, Tamil Nadu 600050, India",
    "VenueCode": "GCRP",
    "VenueName": "Green Cinemas 4K Atmos, PLF: Padi"
  },
  "GCYC": {
    "AvailableFormats": "2D",
    "City": "Yewat",
    "Latitude": "18.4758",
    "Longitude": "74.2682",
    "RegionCode": "YEWE",
    "State": "Maharashtra",
    "SubRegionCode": "YEWE",
    "VenueAddress": "Yawat Dorgewadi Road, Yavat, Yewat, Maharashtra 412214, India",
    "VenueCode": "GCYC",
    "VenueName": "Gunjan Cinema: Yewat"
  },
  "GDCP": {
    "AvailableFormats": "",
    "City": "Jaipur",
    "FirstTracked": "2026-07-14",
    "Latitude": "26.9355",
    "Longitude": "75.7919",
    "RegionCode": "JAIP",
    "State": "Rajasthan",
    "SubRegionCode": "JAIP",
    "VenueAddress": "City Plaza Mall, Jhotwara Road, Sindhi Colony, Bani Park, Jaipur, Rajasthan 302016, India",
    "VenueCode": "GDCP",
    "VenueName": "Gold Cinema: City Plaza, Bani Park (Newly Opened)"
  },
  "GDPB": {
    "AvailableFormats": "",
    "City": "Guwahati",
    "FirstTracked": "2026-07-14",
    "Latitude": "26.180979",
    "Longitude": "91.75014",
    "RegionCode": "GUW",
    "State": "Assam",
    "SubRegionCode": "GUW",
    "VenueAddress": "ASTC Complex, Paltan Bazar, Guwahati, Assam 781001, India",
    "VenueCode": "GDPB",
    "VenueName": "Gold Cinema: Paltan Bazar, Guwahati"
  },
  "GGBC": {
    "AvailableFormats": "2D",
    "City": "Chandrapur",
    "Latitude": "20.6064",
    "Longitude": "79.8648",
    "RegionCode": "CHAN",
    "State": "Maharashtra",
    "SubRegionCode": "CHAN",
    "VenueAddress": "New Gold Star Cinema, Churhe Bada, Brahmapuri, Chandrapur, Maharashtra 441206, India",
    "VenueCode": "GGBC",
    "VenueName": "New Gold Star Cinema: Bramhapuri, Chandrapur"
  },
  "GGYP": {
    "AvailableFormats": "",
    "City": "Chennai",
    "FirstTracked": "2026-07-14",
    "Latitude": "13.41042",
    "Longitude": "80.12794",
    "RegionCode": "CHEN",
    "State": "Tamil Nadu",
    "SubRegionCode": "CHEN",
    "VenueAddress": "No 109, GNT Road, Gummidipoondi, Chennai, Tamil Nadu 601201, India",
    "VenueCode": "GGYP",
    "VenueName": "Ganapathy Theatre 2K Dts: Gummidipoondi, Chennai"
  },
  "GKDN": {
    "AvailableFormats": "2D",
    "City": "Kondamallepally",
    "Latitude": "16.7125",
    "Longitude": "78.9814",
    "RegionCode": "NALK",
    "State": "Telangana",
    "SubRegionCode": "NALK",
    "VenueAddress": "3rd Floor, Vishnu Shopping Mall, MLG Road, Near AMC, Kondamallepally, Telangana 508243, India",
    "VenueCode": "GKDN",
    "VenueName": "GK Cineplex Dolby Atmos: Kondamallepally"
  },
  "GMCN": {
    "AvailableFormats": "2D",
    "City": "Jaipur",
    "Latitude": "26.9156",
    "Longitude": "75.8236",
    "RegionCode": "JAIP",
    "State": "Rajasthan",
    "SubRegionCode": "JAIP",
    "VenueAddress": "MI Road, Near syndicate Bank Bayana Branch, Jaipur, Rajasthan 302003, India",
    "VenueCode": "GMCN",
    "VenueName": "GEM Cinema: Jaipur"
  },
  "GOCS": {
    "AvailableFormats": "2D|3D",
    "City": "Mumbai",
    "Latitude": "19.0895",
    "Longitude": "72.8393",
    "RegionCode": "MUMBAI",
    "State": "Maharashtra",
    "SubRegionCode": "MWEST",
    "VenueAddress": "2nd Floor, Milan Garment Hub, Milan Subway Road, Santacruz West, Mumbai, Maharashtra 400054, India",
    "VenueCode": "GOCS",
    "VenueName": "Gold Cinema: Santacruz (W)"
  },
  "GPDC": {
    "AvailableFormats": "3D|2D",
    "City": "Gurugram (Gurgaon)",
    "Latitude": "28.5043",
    "Longitude": "77.0974",
    "RegionCode": "NCR",
    "State": "NCR",
    "SubRegionCode": "GURG",
    "VenueAddress": "4th Floor, Ambience Mall, NH-8, Near Toll Plaza, Gurugram (Gurgaon), NCR 122001, India",
    "VenueCode": "GPDC",
    "VenueName": "Gurugram: PVR Director`s Cut, Ambience Mall"
  },
  "GRCG": {
    "AvailableFormats": "2D|3D",
    "City": "Guwahati",
    "Latitude": "26.1799",
    "Longitude": "91.7514",
    "RegionCode": "GUW",
    "State": "Assam",
    "SubRegionCode": "GUW",
    "VenueAddress": "Grand Plaza, 5th Floor, Hotel Maitri Residency, G.S. Road, Paltan Bazar, Guwahati, Assam 781008, India",
    "VenueCode": "GRCG",
    "VenueName": "Grande Cines: Paltan bazar, Guwahati"
  },
  "GSER": {
    "AvailableFormats": "2D",
    "City": "Sri Ganganagar",
    "Latitude": "29.8695",
    "Longitude": "73.8756",
    "RegionCode": "SRIG",
    "State": "Rajasthan",
    "SubRegionCode": "SRIG",
    "VenueAddress": "Shreenath Enclave, Suratgarh Road, NH62, Sri Ganganagar, Rajasthan 335001, India",
    "VenueCode": "GSER",
    "VenueName": "Gold Cinema:NH-62 Shreenath Enclave,Sri Ganganagar"
  },
  "GTCX": {
    "AvailableFormats": "2D",
    "City": "Kattanam",
    "Latitude": "9.17694",
    "Longitude": "76.5636",
    "RegionCode": "NOOR",
    "State": "Kerala",
    "SubRegionCode": "NOOR",
    "VenueAddress": "Kayamkulam - Punalur Road, Near South Indian Bank, Kattanam, Kerala 690503, India",
    "VenueCode": "GTCX",
    "VenueName": "Ganam Theatre Complex 4K 3D: Kattanam"
  },
  "GTTG": {
    "AvailableFormats": "2D",
    "City": "Talcher",
    "Latitude": "20.9469",
    "Longitude": "85.2157",
    "RegionCode": "TALC",
    "State": "Odisha",
    "SubRegionCode": "TALC",
    "VenueAddress": "Angul Talcher Road, Next to Hingula Jewellers, Talcher, Odisha 759100, India",
    "VenueCode": "GTTG",
    "VenueName": "Ganesh Talkies: Talcher"
  },
  "GWEK": {
    "AvailableFormats": "2D",
    "City": "Kallara",
    "Latitude": "9.70018",
    "Longitude": "76.4759",
    "RegionCode": "ETTU",
    "State": "Kerala",
    "SubRegionCode": "ETTU",
    "VenueAddress": "Kallara - Neendoor - Pravattom Road, Neendoor, Kallara, Kerala 686611, India",
    "VenueCode": "GWEK",
    "VenueName": "Goodwill Cinemas 4K RGB LASER Atmos 3D: Kallara"
  },
  "HARK": {
    "AvailableFormats": "2D",
    "City": "Jalalabad",
    "Latitude": "30.6096",
    "Longitude": "74.2555",
    "RegionCode": "JLAB",
    "State": "Punjab",
    "SubRegionCode": "JLAB",
    "VenueAddress": "Fazilka  Ferozpur Road, Aman Nagar, Near Bus Stand, Jalalabad, Punjab 152024, India",
    "VenueCode": "HARK",
    "VenueName": "Harkishan Cinema: Jalalabad"
  },
  "HFSA": {
    "AvailableFormats": "2D",
    "City": "Panaji",
    "Latitude": "15.497",
    "Longitude": "73.8239",
    "RegionCode": "PANA",
    "State": "Goa",
    "SubRegionCode": "PANA",
    "VenueAddress": "Samrat Ashok Theatre Complex, 2nd Floor, 18th June Road, Hotel Ashok Plaza, Panaji, Goa 403001, India",
    "VenueCode": "HFSA",
    "VenueName": "Z Square Cine Samrat Ashok: Panaji"
  },
  "HKCP": {
    "AvailableFormats": "",
    "City": "Trivandrum",
    "Latitude": "8.62134",
    "Longitude": "76.8995",
    "RegionCode": "ATTI",
    "State": "Kerala",
    "SubRegionCode": "ATTI",
    "VenueAddress": "Kazhakoottam, Kilimanoor Road, Near State Bank of India, Trivandrum, Kerala 695584, India",
    "VenueCode": "HKCP",
    "VenueName": "HK Cinemas 4K 3D Dolby Atmos: Pothencode"
  },
  "HTAG": {
    "AvailableFormats": "2D",
    "City": "Agra",
    "Latitude": "27.2097",
    "Longitude": "78.0068",
    "RegionCode": "AGRA",
    "State": "Uttar Pradesh",
    "SubRegionCode": "AGRA",
    "VenueAddress": "Nehru Nagar, Civil Lines, Agra, Uttar Pradesh 282003, India",
    "VenueCode": "HTAG",
    "VenueName": "Heera Talkies: Agra"
  },
  "ICMG": {
    "AvailableFormats": "2D",
    "City": "Vizag (Visakhapatnam)",
    "Latitude": "17.683",
    "Longitude": "83.201",
    "RegionCode": "VIZA",
    "State": "Andhra Pradesh",
    "SubRegionCode": "VIZA",
    "VenueAddress": "INOX Leisure Limited, 3rd Floor, CMR Central, Chaitanya Nagar, NH 5, Gajuwaka, Vizag (Visakhapatnam), Andhra Pradesh 530026, India",
    "VenueCode": "ICMG",
    "VenueName": "INOX: CMR Central, Gajuwaka"
  },
  "IGCM": {
    "AvailableFormats": "2D|3D",
    "City": "Gorakhpur",
    "Latitude": "26.7536",
    "Longitude": "83.3753",
    "RegionCode": "GRKP",
    "State": "Uttar Pradesh",
    "SubRegionCode": "GRKP",
    "VenueAddress": "City Mall, 2nd Floor, 6 Civil Lines, Park Road, Golghar, Gorakhpur, Uttar Pradesh 273001, India",
    "VenueCode": "IGCM",
    "VenueName": "INOX: City Mall, Gorakhpur"
  },
  "IMCM": {
    "AvailableFormats": "2D|3D",
    "City": "Mumbai",
    "Latitude": "18.943",
    "Longitude": "72.8289",
    "RegionCode": "MUMBAI",
    "State": "Maharashtra",
    "SubRegionCode": "MCENT",
    "VenueAddress": "M.G.Road, Dhobitalao Junction, Mumbai, Maharashtra 400020, India",
    "VenueCode": "IMCM",
    "VenueName": "Metro INOX Cinemas: Marine Lines"
  },
  "IMXS": {
    "AvailableFormats": "2D",
    "City": "Surajpur",
    "Latitude": "23.3911",
    "Longitude": "82.8491",
    "RegionCode": "BSRM",
    "State": "Chhattisgarh",
    "SubRegionCode": "BSRM",
    "VenueAddress": "Bhaiyathan Road, In front of Sarnapara Chowk, Gram Parri, Surajpur, Chhattisgarh 497229, India",
    "VenueCode": "IMXS",
    "VenueName": "IMAXX Multiplex: Surajpur"
  },
  "INBG": {
    "AvailableFormats": "2D|3D",
    "City": "Bengaluru",
    "Latitude": "12.9705",
    "Longitude": "77.61",
    "RegionCode": "HOKT",
    "State": "Karnataka",
    "SubRegionCode": "HOKT",
    "VenueAddress": "4th Floor, Garuda Mall, Magrath Road, Bengaluru, Karnataka 560025, India",
    "VenueCode": "INBG",
    "VenueName": "INOX: Garuda Mall, Magrath Road"
  },
  "INCM": {
    "AvailableFormats": "2D",
    "City": "Vizag (Visakhapatnam)",
    "Latitude": "17.7341",
    "Longitude": "83.3182",
    "RegionCode": "SABB",
    "State": "Andhra Pradesh",
    "SubRegionCode": "SABB",
    "VenueAddress": "Survey No. 67, 3rd Floor, CMR Central, Maddilapalem, Dwaraka Nagar, Vizag, Andhra Pradesh 530013, India",
    "VenueCode": "INCM",
    "VenueName": "INOX: CMR Central, Maddilapalem"
  },
  "INGM": {
    "AvailableFormats": "2D|3D",
    "City": "Bhiwadi",
    "Latitude": "28.1915",
    "Longitude": "76.8137",
    "RegionCode": "REWA",
    "State": "Rajasthan",
    "SubRegionCode": "REWA",
    "VenueAddress": "3rd Floor, Genesis Mall, Alwar Bhiwadi Highway, Bhiwadi, Rajasthan 301019, India",
    "VenueCode": "INGM",
    "VenueName": "INOX: Bhiwadi Genesis Mall"
  },
  "INKM": {
    "AvailableFormats": "2D",
    "City": "Hyderabad",
    "Latitude": "17.3453",
    "Longitude": "78.5316",
    "RegionCode": "HYD",
    "State": "Telangana",
    "SubRegionCode": "HYD",
    "VenueAddress": "10-1-99/7A, Karmanghat Road, Thapovan Colony, Lingojiguda, Saroor Nagar East, Hyderabad, Telangana 500035, India",
    "VenueCode": "INKM",
    "VenueName": "Cine Town Indra Nagendra: Karmanghat"
  },
  "INNP": {
    "AvailableFormats": "3D|2D",
    "City": "Mumbai",
    "Latitude": "18.9266",
    "Longitude": "72.8229",
    "RegionCode": "MUMBAI",
    "State": "Maharashtra",
    "SubRegionCode": "MCENT",
    "VenueAddress": "CR 2 Mall, 2nd Floor, Barrister Rajni Patel Marg, Nariman Point, Opposite Bajaj Bhavan, Mumbai, Maharashtra 400021, India",
    "VenueCode": "INNP",
    "VenueName": "INOX Laserplex: CR2, Nariman Point"
  },
  "INPO": {
    "AvailableFormats": "2D|3D",
    "City": "Goa",
    "Latitude": "15.5259",
    "Longitude": "73.8269",
    "RegionCode": "GOA",
    "State": "Goa",
    "SubRegionCode": "GOA",
    "VenueAddress": "Mall De Goa,Edapally, Nova Cidade Commercial Complex, Alto Porvorim, Bardez, Goa, Goa 403521, India",
    "VenueCode": "INPO",
    "VenueName": "INOX: Porvorim, Goa"
  },
  "INRK": {
    "AvailableFormats": "2D|3D",
    "City": "Kolkata",
    "Latitude": "22.623",
    "Longitude": "88.4505",
    "RegionCode": "KOLK",
    "State": "West Bengal",
    "SubRegionCode": "KOLK",
    "VenueAddress": "3rd Floor,City Center 2 Mall, New Town, Rajarhat, Hatiara, Near Chinar Park, Kolkata, West Bengal 700157, India",
    "VenueCode": "INRK",
    "VenueName": "INOX: City Centre II, Rajarhat"
  },
  "INSO": {
    "AvailableFormats": "2D|3D",
    "City": "Siliguri",
    "Latitude": "26.7523",
    "Longitude": "88.4388",
    "RegionCode": "SILI",
    "State": "West Bengal",
    "SubRegionCode": "SILI",
    "VenueAddress": "Near Jai Service Petrol Pump, Near Bhakti Nagar Thana, Salugara, Sevoke Road, Orbit Mall, Siliguri, West Bengal 734001, India",
    "VenueCode": "INSO",
    "VenueName": "INOX: Vega Circle Mall, Siliguri"
  },
  "INVC": {
    "AvailableFormats": "2D",
    "City": "Vizag (Visakhapatnam)",
    "Latitude": "17.7125",
    "Longitude": "83.3013",
    "RegionCode": "VIZA",
    "State": "Andhra Pradesh",
    "SubRegionCode": "VIZA",
    "VenueAddress": "4th Floor, Chitralayaa, Suryabagh, Chitralaya Road, Vizag, Andhra Pradesh 530020, India",
    "VenueCode": "INVC",
    "VenueName": "INOX: Vizag Chitralaya Mall"
  },
  "INWM": {
    "AvailableFormats": "2D|3D",
    "City": "Gurugram (Gurgaon)",
    "Latitude": "28.3976",
    "Longitude": "77.0721",
    "RegionCode": "NCR",
    "State": "NCR",
    "SubRegionCode": "GURG",
    "VenueAddress": "INOX Leisure Ltd, Ground Floor, Tower 5, WorldMark, Maidawas Road, Sec-65, Gurugram (Gurgaon), NCR 122001, India",
    "VenueCode": "INWM",
    "VenueName": "INOX: World Mark, Gurugram"
  },
  "IOSE": {
    "AvailableFormats": "2D",
    "City": "Vellore",
    "Latitude": "12.9679",
    "Longitude": "79.1496",
    "RegionCode": "RANI",
    "State": "Tamil Nadu",
    "SubRegionCode": "RANI",
    "VenueAddress": "2nd Floor, Selvam Square, Selvam Nagar, Thiruvalam Road, Katpadi, Vellore, Tamil Nadu 632007, India",
    "VenueCode": "IOSE",
    "VenueName": "INOX: Selvam Square, Vellore"
  },
  "IPRS": {
    "AvailableFormats": "2D",
    "City": "Hyderabad",
    "Latitude": "17.4423",
    "Longitude": "78.3625",
    "RegionCode": "HYD",
    "State": "Telangana",
    "SubRegionCode": "HYD",
    "VenueAddress": "PVR INOX Limited, 3rd Floor, Prism Mall, Near Gachibowli Cross Roads, Hyderabad, Telangana 500032, India",
    "VenueCode": "IPRS",
    "VenueName": "INOX: Prism Mall, Hyderabad"
  },
  "ISMT": {
    "AvailableFormats": "2D|3D",
    "City": "Tumakuru (Tumkur)",
    "Latitude": "13.3582",
    "Longitude": "77.1031",
    "RegionCode": "TUMK",
    "State": "Karnataka",
    "SubRegionCode": "TUMK",
    "VenueAddress": "INOX Leisure Ltd, 2nd Floor, S Mall, Sira Road, Tumakuru (Tumkur), Karnataka 572106, India",
    "VenueCode": "ISMT",
    "VenueName": "INOX: S Mall, Tumakuru"
  },
  "IZOP": {
    "AvailableFormats": "IMAX 2D",
    "City": "Delhi",
    "Latitude": "28.5472",
    "Longitude": "77.2519",
    "RegionCode": "NCR",
    "State": "NCR",
    "SubRegionCode": "DELHI",
    "VenueAddress": "1st Floor, Paras Cinema Building, Nehru Place, Delhi, NCR 110019, India",
    "VenueCode": "IZOP",
    "VenueName": "INOX: COCA-COLA IMAX Paras, Nehru Place, Delhi"
  },
  "JBCS": {
    "AvailableFormats": "2D",
    "City": "Kollam",
    "Latitude": "8.92847",
    "Longitude": "76.7067",
    "RegionCode": "KOLM",
    "State": "Kerala",
    "SubRegionCode": "KOLM",
    "VenueAddress": "Almavu Mukku Road, Nallila, Puliyila, Near Nallila Post Office, Kollam, Kerala 691515, India",
    "VenueCode": "JBCS",
    "VenueName": "JB Cinemas 4K 3D: Nallila"
  },
  "JCMN": {
    "AvailableFormats": "2D",
    "City": "Bhopal",
    "Latitude": "23.2335",
    "Longitude": "77.434",
    "RegionCode": "BHOP",
    "State": "Madhya Pradesh",
    "SubRegionCode": "BHOP",
    "VenueAddress": "Service Rd, Zone-I, MP Nagar, Near MP Education Board Office, Bhopal, Madhya Pradesh 462023, India",
    "VenueCode": "JCMN",
    "VenueName": "Jyoti Cineplex (New Seats): Bhopal"
  },
  "JEMC": {
    "AvailableFormats": "2D",
    "City": "Chotila",
    "Latitude": "22.4669",
    "Longitude": "71.2678",
    "RegionCode": "CHOT",
    "State": "Gujarat",
    "SubRegionCode": "CHOT",
    "VenueAddress": "NH. 8, A Magharikhada, Near Bitter Beans Cafe and Food Zone, Chotila, Gujarat 363520, India",
    "VenueCode": "JEMC",
    "VenueName": "Jolly Enjoy Multiplex: Chotila"
  },
  "JJCK": {
    "AvailableFormats": "2D",
    "City": "Siddharthnagar",
    "Latitude": "27.2892",
    "Longitude": "83.0831",
    "RegionCode": "SIDZ",
    "State": "Uttar Pradesh",
    "SubRegionCode": "SIDZ",
    "VenueAddress": "Tetri Bazar Town, Tetari Bazar, Siddharthnagar, Uttar Pradesh 272207, India",
    "VenueCode": "JJCK",
    "VenueName": "Jyoti Cineplex: Siddharthnagar"
  },
  "JMAX": {
    "AvailableFormats": "2D",
    "City": "Kochi",
    "Latitude": "10.0231",
    "Longitude": "76.4502",
    "RegionCode": "KOCH",
    "State": "Kerala",
    "SubRegionCode": "KOCH",
    "VenueAddress": "Pattimattom PO,Pattimattom,Kerala, Near South Indian Bank, Kochi, Kerala 683562, India",
    "VenueCode": "JMAX",
    "VenueName": "J MAX  2K 3D Dolby 7.1: PATTIMATTOM"
  },
  "JOTG": {
    "AvailableFormats": "2D",
    "City": "Chennai",
    "Latitude": "13.0061",
    "Longitude": "80.2014",
    "RegionCode": "CHEN",
    "State": "Tamil Nadu",
    "SubRegionCode": "CHEN",
    "VenueAddress": "Alandur - Parangimalai, Parade Road, Near Kathipara Junction, Chennai, Tamil Nadu 600016, India",
    "VenueCode": "JOTG",
    "VenueName": "Jothi Theatre 4K A/c DTS: ST Thomas Mount"
  },
  "JSRS": {
    "AvailableFormats": "2D",
    "City": "Thrissur",
    "Latitude": "10.5224",
    "Longitude": "76.2155",
    "RegionCode": "THSR",
    "State": "Kerala",
    "SubRegionCode": "THSR",
    "VenueAddress": "Kuruppam, Round South, Near Municipal Stand, Thrissur, Kerala 680001, India",
    "VenueCode": "JSRS",
    "VenueName": "Jos Theatre 4K RGB Laser Atmos: Thrissur"
  },
  "JTGN": {
    "AvailableFormats": "2D",
    "City": "Amalapuram",
    "Latitude": "16.5786",
    "Longitude": "81.9984",
    "RegionCode": "AMAP",
    "State": "Andhra Pradesh",
    "SubRegionCode": "AMAP",
    "VenueAddress": "Amalapuram - Gannavaram Road, Next To Zeta Hotels, Near APSRTC Bus Stand, Amalapuram, Andhra Pradesh 533201, India",
    "VenueCode": "JTGN",
    "VenueName": "Sri Ganapathi Picture Palace: Amalapuram"
  },
  "JTMN": {
    "AvailableFormats": "2D",
    "City": "Jaipur",
    "Latitude": "26.8372",
    "Longitude": "75.8339",
    "RegionCode": "JAIP",
    "State": "Rajasthan",
    "SubRegionCode": "JAIP",
    "VenueAddress": "INOX Leisure Ltd, 4th Floor, JTM Mall, Model Town, Malviya Nagar, Jaipur, Rajasthan 302017, India",
    "VenueCode": "JTMN",
    "VenueName": "INOX: JTM Mall, Malviya Nagar"
  },
  "JTPP": {
    "AvailableFormats": "",
    "City": "Anakapalle",
    "FirstTracked": "2026-07-14",
    "Latitude": "17.68772",
    "Longitude": "83.01431",
    "RegionCode": "ANKP",
    "State": "Andhra Pradesh",
    "SubRegionCode": "ANKP",
    "VenueAddress": "No. 10-16-30, Niddanam Doddi, Anakapalle, Andhra Pradesh 531001, India",
    "VenueCode": "JTPP",
    "VenueName": "Sri Satyanarayana Picture Palace AC DTS: Anakapall"
  },
  "JTSN": {
    "AvailableFormats": "2D",
    "City": "Medarametla",
    "Latitude": "15.7221",
    "Longitude": "80.0159",
    "RegionCode": "MDRM",
    "State": "Andhra Pradesh",
    "SubRegionCode": "MDRM",
    "VenueAddress": "Main Road, Near Indian Bank, Medarametla, Andhra Pradesh 523212, India",
    "VenueCode": "JTSN",
    "VenueName": "Sri Narayana Chitralaya: Medarametla"
  },
  "JUGA": {
    "AvailableFormats": "2D",
    "City": "Kanpur",
    "Latitude": "26.4218",
    "Longitude": "80.3734",
    "RegionCode": "KANP",
    "State": "Uttar Pradesh",
    "SubRegionCode": "KANP",
    "VenueAddress": "GT Road, Krishna Nagar, Near State Bank, Kanpur, Uttar Pradesh 208010, India",
    "VenueCode": "JUGA",
    "VenueName": "Jugul Palace Cinema: Kanpur"
  },
  "JYOE": {
    "AvailableFormats": "2D",
    "City": "Dhule",
    "Latitude": "20.9061",
    "Longitude": "74.7762",
    "RegionCode": "DHLE",
    "State": "Maharashtra",
    "SubRegionCode": "DHLE",
    "VenueAddress": "City Survey No. 3488/3A, Kajwe Road, Dhule, Maharashtra 424001, India",
    "VenueCode": "JYOE",
    "VenueName": "Jyoti Chitra Mandir: Dhule"
  },
  "KALW": {
    "AvailableFormats": "",
    "City": "Jaunpur",
    "FirstTracked": "2026-07-14",
    "Latitude": "25.751034",
    "Longitude": "82.68727",
    "RegionCode": "JANP",
    "State": "Uttar Pradesh",
    "SubRegionCode": "JANP",
    "VenueAddress": "Rizwikhan, Near Bhaichara Bhojnalay, Jaunpur, Uttar Pradesh 222001, India",
    "VenueCode": "KALW",
    "VenueName": "Kewal DD Plex: Jaunpur"
  },
  "KAWS": {
    "AvailableFormats": "2D",
    "City": "Sonari",
    "Latitude": "27.028",
    "Longitude": "95.0312",
    "RegionCode": "SOYW",
    "State": "Assam",
    "SubRegionCode": "SOYW",
    "VenueAddress": "Kalpana Motors, Main Road, Sonari, Assam 785690, India",
    "VenueCode": "KAWS",
    "VenueName": "Kalpana Cine World: Sonari"
  },
  "KCJS": {
    "AvailableFormats": "2D",
    "City": "Jhansi",
    "Latitude": "25.4482",
    "Longitude": "78.5675",
    "RegionCode": "JNSI",
    "State": "Uttar Pradesh",
    "SubRegionCode": "JNSI",
    "VenueAddress": "Civil Lines-5, 165, Prathvipur, Jhansi Elite - Shivpuri Road, Behind HDFC Bank, Jhansi, Uttar Pradesh 284001, India",
    "VenueCode": "KCJS",
    "VenueName": "Khilona Cinema: Jhansi"
  },
  "KCPD": {
    "AvailableFormats": "",
    "City": "Kuchipudi",
    "FirstTracked": "2026-07-14",
    "Latitude": "16.255392",
    "Longitude": "80.9153",
    "RegionCode": "KCPD",
    "State": "Andhra Pradesh",
    "SubRegionCode": "KCPD",
    "VenueAddress": "Kopuri Street, Padapudi, Kuchipudi, Andhra Pradesh 521136, India",
    "VenueCode": "KCPD",
    "VenueName": "Satya Sai Theater: Kuchipudi"
  },
  "KDCG": {
    "AvailableFormats": "",
    "City": "Guwahati",
    "FirstTracked": "2026-07-14",
    "Latitude": "26.1789",
    "Longitude": "91.7423",
    "RegionCode": "GUW",
    "State": "Assam",
    "SubRegionCode": "GUW",
    "VenueAddress": "Shradhanjali Complex, A T Road, Fancy Bazaar, Near Railway Gate No. 3, Guwahati, Assam 781001, India",
    "VenueCode": "KDCG",
    "VenueName": "Kelvin Gold Cinema: Guwahati (Newly Opened)"
  },
  "KFVU": {
    "AvailableFormats": "",
    "City": "Vrindavan",
    "Latitude": "27.56726",
    "Longitude": "77.63679",
    "RegionCode": "VRIN",
    "State": "Uttar Pradesh",
    "SubRegionCode": "VRIN",
    "VenueAddress": "Fun Land Vrindavan, Allhepur, Vrindavan, Uttar Pradesh 281121, India",
    "VenueCode": "KFVU",
    "VenueName": "Krishna Funland Cinema: Vrindavan"
  },
  "KINO": {
    "AvailableFormats": "2D",
    "City": "Bengaluru",
    "Latitude": "13.0131",
    "Longitude": "77.7614",
    "RegionCode": "BANG",
    "State": "Karnataka",
    "SubRegionCode": "BANG",
    "VenueAddress": "Survey No. 84, Greenfield Hub, Block C, Seegehalli Road, Kadugodi, Bengaluru, Karnataka 560067, India",
    "VenueCode": "KINO",
    "VenueName": "Kino Cinemas: Seegehalli Kadugodi, Bengaluru"
  },
  "KKUI": {
    "AvailableFormats": "2D",
    "City": "Mumbai",
    "Latitude": "19.3785",
    "Longitude": "72.8287",
    "RegionCode": "MUMBAI",
    "State": "Maharashtra",
    "SubRegionCode": "MWEST",
    "VenueAddress": "Navghar Road, Anand Nagar, Opposite - West Panchal Nagar Walkway, Vasai West, Mumbai, Maharashtra 401202, India",
    "VenueCode": "KKUI",
    "VenueName": "KT Vision Cinema: Vasai(Screen 1)"
  },
  "KMLG": {
    "AvailableFormats": "",
    "City": "Ghaziabad",
    "FirstTracked": "2026-07-14",
    "Latitude": "28.71101",
    "Longitude": "77.29203",
    "RegionCode": "NCR",
    "State": "NCR",
    "SubRegionCode": "GHAZ",
    "VenueAddress": "Loni Border, Behta Hajipur, 201102, Ghaziabad, NCR 201102, India",
    "VenueCode": "KMLG",
    "VenueName": "Kavita Multiplex Loni: Ghaziabad"
  },
  "KOCI": {
    "AvailableFormats": "2D",
    "City": "Jaipur",
    "Latitude": "26.8127",
    "Longitude": "75.7783",
    "RegionCode": "JAIP",
    "State": "Rajasthan",
    "SubRegionCode": "JAIP",
    "VenueAddress": "Station Road, Sanganer, Bharave Colony, Dada Gurudev Nagar, Near Sri Laxmi, Mobile and Repairing, Jaipur, Rajasthan 302029, India",
    "VenueCode": "KOCI",
    "VenueName": "Kohinoor Cinema (Laser Dolby Atmos): Sanganer"
  },
  "KRCC": {
    "AvailableFormats": "2D",
    "City": "Coimbatore",
    "Latitude": "11.0345",
    "Longitude": "76.9274",
    "RegionCode": "COIM",
    "State": "Tamil Nadu",
    "SubRegionCode": "COIM",
    "VenueAddress": "11/52, Thadagam Road, Edayarpalayam, Koilmedu, Coimbatore, Tamil Nadu 641025, India",
    "VenueCode": "KRCC",
    "VenueName": "Krithika Cinemas A/C 4K Dolby : Coimbatore"
  },
  "KRRC": {
    "AvailableFormats": "2D",
    "City": "Palakonda",
    "Latitude": "18.603",
    "Longitude": "83.7585",
    "RegionCode": "PALK",
    "State": "Andhra Pradesh",
    "SubRegionCode": "PALK",
    "VenueAddress": "Government Hospital Road, Near Ramakalamandir Sachivalayam, Palakonda, Andhra Pradesh 532440, India",
    "VenueCode": "KRRC",
    "VenueName": "Sri Rama and Sai Kalamandir A/c DTS: Palakonda"
  },
  "KSES": {
    "AvailableFormats": "2D",
    "City": "Vasco Da Gama",
    "Latitude": "15.3971",
    "Longitude": "73.813",
    "RegionCode": "PANA",
    "State": "Goa",
    "SubRegionCode": "PANA",
    "VenueAddress": "1930 Vasco, Opposite The  HQ, Swatantra Path, Vasco Da Gama, Goa 403802, India",
    "VenueCode": "KSES",
    "VenueName": "1930 Vasco"
  },
  "KSTK": {
    "AvailableFormats": "2D",
    "City": "Chennai",
    "Latitude": "13.0316",
    "Longitude": "80.2065",
    "RegionCode": "CHEN",
    "State": "Tamil Nadu",
    "SubRegionCode": "CHEN",
    "VenueAddress": "No-4, Pillaiyar Koil St, Jafferkhanpet, Chennai, Tamil Nadu 600083, India",
    "VenueCode": "KSTK",
    "VenueName": "Kasi Talkies Dolby Atmos: Ashok Nagar"
  },
  "KTHV": {
    "AvailableFormats": "",
    "City": "Vizag (Visakhapatnam)",
    "Latitude": "17.8998",
    "Longitude": "83.1891",
    "RegionCode": "VIZA",
    "State": "Andhra Pradesh",
    "SubRegionCode": "VIZA",
    "VenueAddress": "Vizianagaram Road, Kothavalasa, Vizag (Visakhapatnam), Andhra Pradesh 535183, India",
    "VenueCode": "KTHV",
    "VenueName": "SLNT Theatre DTS: Kothavalasa"
  },
  "KUMM": {
    "AvailableFormats": "",
    "City": "Rajahmundry",
    "FirstTracked": "2026-07-14",
    "Latitude": "16.996145",
    "Longitude": "81.771095",
    "RegionCode": "RJMU",
    "State": "Andhra Pradesh",
    "SubRegionCode": "RJMU",
    "VenueAddress": "Tyagaraja Nagar, Nyapathi Vari Street, Rajahmundry, Andhra Pradesh 533101, India",
    "VenueCode": "KUMM",
    "VenueName": "Kumari Theatre A/C Dolby: Rajahmundry"
  },
  "LACM": {
    "AvailableFormats": "",
    "City": "Mayiladuthurai",
    "FirstTracked": "2026-07-14",
    "Latitude": "11.095507",
    "Longitude": "79.64919",
    "RegionCode": "MAYI",
    "State": "Tamil Nadu",
    "SubRegionCode": "MAYI",
    "VenueAddress": "Kamarajar Salai, Pasupathi Street, Koranad, Pattamangalam, Mayiladuthurai, Tamil Nadu 609001, India",
    "VenueCode": "LACM",
    "VenueName": "LA Cinemas Gomathi: Mayiladuthurai"
  },
  "LASM": {
    "AvailableFormats": "",
    "City": "Mannargudi",
    "FirstTracked": "2026-07-14",
    "Latitude": "10.66487",
    "Longitude": "79.44533",
    "RegionCode": "MANB",
    "State": "Tamil Nadu",
    "SubRegionCode": "MANB",
    "VenueAddress": "South Street, Mannargudi, Near Apple shopping mall, Mannargudi, Tamil Nadu 614001, India",
    "VenueCode": "LASM",
    "VenueName": "LA CINEMAS SHANTHI A/C DOLBY ATMOS"
  },
  "LCNK": {
    "AvailableFormats": "2D",
    "City": "Kalluru",
    "Latitude": "17.2008",
    "Longitude": "80.55",
    "RegionCode": "KALR",
    "State": "Telangana",
    "SubRegionCode": "KALR",
    "VenueAddress": "Khammam - Sathupally Road, Near Church of Christ, Kalluru, Telangana 507209, India",
    "VenueCode": "LCNK",
    "VenueName": "Lakshmi Cinesquare: Kallur"
  },
  "LEPV": {
    "AvailableFormats": "2D",
    "City": "Mumbai",
    "Latitude": "19.0562",
    "Longitude": "72.8339",
    "RegionCode": "MUMBAI",
    "State": "Maharashtra",
    "SubRegionCode": "MWEST",
    "VenueAddress": "Corner of Hill Road and Water Field Road, Bandra West, Mumbai, Maharashtra 400050, India",
    "VenueCode": "LEPV",
    "VenueName": "PVR: Le Reve-Globus Mall, Bandra West, Mumbai"
  },
  "LJWT": {
    "AvailableFormats": "2D",
    "City": "Ramgarhwa",
    "Latitude": "26.8775",
    "Longitude": "84.7875",
    "RegionCode": "RGHA",
    "State": "Bihar",
    "SubRegionCode": "RGHA",
    "VenueAddress": "Ground Floor, East Champaran, Ramgarhwa, Bihar 845433, India",
    "VenueCode": "LJWT",
    "VenueName": "Arjun Cineplex: Ramgarhwa"
  },
  "LKTO": {
    "AvailableFormats": "2D",
    "City": "Kosgi",
    "Latitude": "16.9886",
    "Longitude": "77.7157",
    "RegionCode": "KOSG",
    "State": "Telangana",
    "SubRegionCode": "KOSG",
    "VenueAddress": "Near Vegetable Market, Mahabubnagar Road, Kosgi, Telangana 509339, India",
    "VenueCode": "LKTO",
    "VenueName": "Lakshmi Theatre: Kosgi"
  },
  "LMTP": {
    "AvailableFormats": "2D",
    "City": "Metpally",
    "Latitude": "18.8512",
    "Longitude": "78.6311",
    "RegionCode": "METT",
    "State": "Telangana",
    "SubRegionCode": "METT",
    "VenueAddress": "Ambedkar Stadium Road, Chaitanya Nagar, Metpally, Telangana 505325, India",
    "VenueCode": "LMTP",
    "VenueName": "Laxmi AC Deluxe Theatre: Metpally"
  },
  "LSRS": {
    "AvailableFormats": "",
    "City": "Faridabad",
    "FirstTracked": "2026-07-14",
    "Latitude": "28.38653",
    "Longitude": "77.3167",
    "RegionCode": "NCR",
    "State": "NCR",
    "SubRegionCode": "FARI",
    "VenueAddress": "2nd Floor City Centre, Sector 12, Faridabad, NCR 121007, India",
    "VenueCode": "LSRS",
    "VenueName": "Legend SRS Cinemas: Faridabad"
  },
  "LXCY": {
    "AvailableFormats": "2D",
    "City": "Yeola",
    "Latitude": "20.0442",
    "Longitude": "74.4859",
    "RegionCode": "YEOL",
    "State": "Maharashtra",
    "SubRegionCode": "YEOL",
    "VenueAddress": "Pardeshi Complex, Shani Patangan, Near Bus Stand, Yeola, Maharashtra 423401, India",
    "VenueCode": "LXCY",
    "VenueName": "Laxmi Cineplex: Yeola"
  },
  "MABC": {
    "AvailableFormats": "2D|3D",
    "City": "Ahmedabad",
    "Latitude": "23.1202",
    "Longitude": "72.5704",
    "RegionCode": "AHD",
    "State": "Gujarat",
    "SubRegionCode": "AHD",
    "VenueAddress": "Near KB Royal Pheonix, Opposite AMC Garden Chandkheda, Ahmedabad, Gujarat 382424, India",
    "VenueCode": "MABC",
    "VenueName": "Mukta A2 Cinemas: Chandkheda"
  },
  "MACZ": {
    "AvailableFormats": "2D|3D",
    "City": "Ahmedabad",
    "Latitude": "22.9929",
    "Longitude": "72.5438",
    "RegionCode": "AHD",
    "State": "Gujarat",
    "SubRegionCode": "AHD",
    "VenueAddress": "Mukta A2 Cinema 7th Floor, Rajyash Rise, Behind Vishala Hotel, Rajyesh City, South Vasana Narol Round, Ahmedabad, Gujarat 380007, India",
    "VenueCode": "MACZ",
    "VenueName": "Mukta A2 Cinemas: Rajyash, South Vasna, Ahmedabad"
  },
  "MAJB": {
    "AvailableFormats": "3D|2D",
    "City": "Mumbai",
    "Latitude": "18.986",
    "Longitude": "72.8359",
    "RegionCode": "MUMBAI",
    "State": "Maharashtra",
    "SubRegionCode": "MCENT",
    "VenueAddress": "Lal Baug, Dr.B.R.Ambedkar Road, Near Voltas Building, Mumbai, Maharashtra 400033, India",
    "VenueCode": "MAJB",
    "VenueName": "Mukta A2 Cinemas: Jai Hind, Lalbaugh"
  },
  "MAPM": {
    "AvailableFormats": "2D|3D",
    "City": "Bhopal",
    "Latitude": "23.3045",
    "Longitude": "77.4219",
    "RegionCode": "BHOP",
    "State": "Madhya Pradesh",
    "SubRegionCode": "BHOP",
    "VenueAddress": "1st Floor, Peoples Mall, Peoples Campus, Bhanpur, Bhopal, Madhya Pradesh 462037, India",
    "VenueCode": "MAPM",
    "VenueName": "Mukta A2 Cinemas: Peoples Mall, Bhopal"
  },
  "MAVT": {
    "AvailableFormats": "",
    "City": "Punganur",
    "FirstTracked": "2026-07-14",
    "Latitude": "13.36582",
    "Longitude": "78.57048",
    "RegionCode": "PGNR",
    "State": "Andhra Pradesh",
    "SubRegionCode": "PGNR",
    "VenueAddress": "Tatimakula palem road, Near Hotel SRI Restaurant, Punganur, Andhra Pradesh 517247, India",
    "VenueCode": "MAVT",
    "VenueName": "Sri Venkateshwara Mahal A/C Dolby Atmos 2K"
  },
  "MBDC": {
    "AvailableFormats": "2D",
    "City": "Kozhikode",
    "Latitude": "11.2599",
    "Longitude": "75.787",
    "RegionCode": "KOZH",
    "State": "Kerala",
    "SubRegionCode": "KOZH",
    "VenueAddress": "3rd Floor, Mavoor Road, Near Mofussil Bus Stand, Kozhikode, Kerala 673004, India",
    "VenueCode": "MBDC",
    "VenueName": "Miraj Cinemas: Blue Diamond Mall, Calicut"
  },
  "MCAZ": {
    "AvailableFormats": "",
    "City": "Delhi",
    "Latitude": "28.7099",
    "Longitude": "77.1782",
    "RegionCode": "NCR",
    "State": "NCR",
    "SubRegionCode": "DELHI",
    "VenueAddress": "Aakash Cinema Complex, 2nd Floor, Naniwala Bagh, Azadpur, Delhi, NCR 110033, India",
    "VenueCode": "MCAZ",
    "VenueName": "Miraj Cinemas: Aakash, Azadpur"
  },
  "MCCZ": {
    "AvailableFormats": "2D",
    "City": "Ambajogai",
    "Latitude": "18.7313",
    "Longitude": "76.391",
    "RegionCode": "AMBG",
    "State": "Maharashtra",
    "SubRegionCode": "AMBG",
    "VenueAddress": "Prashant Nagar, Dr. B.R Ambedkar Road, Ambajogai, Maharashtra 431517, India",
    "VenueCode": "MCCZ",
    "VenueName": "Mohan Cinemark: Ambajogai"
  },
  "MCFS": {
    "AvailableFormats": "",
    "City": "Tirur",
    "FirstTracked": "2026-07-14",
    "Latitude": "10.90895",
    "Longitude": "75.919014",
    "RegionCode": "TRUR",
    "State": "Kerala",
    "SubRegionCode": "TRUR",
    "VenueAddress": "Paravanna Road, Poongotukulam, Tirur, Kerala 676101, India",
    "VenueCode": "MCFS",
    "VenueName": "Magic Frames Khayaam 4k Dolby Atmos 3D: Tirur"
  },
  "MCHR": {
    "AvailableFormats": "",
    "City": "Hisar",
    "FirstTracked": "2026-07-14",
    "Latitude": "29.15723",
    "Longitude": "75.72142",
    "RegionCode": "HISR",
    "State": "Haryana",
    "SubRegionCode": "HISR",
    "VenueAddress": "3rd Floor, Eminent Mall - Red Square Market, Delhi Road, Hisar, Haryana 125001, India",
    "VenueCode": "MCHR",
    "VenueName": "Miraj Cinemas: Hisar"
  },
  "MCKP": {
    "AvailableFormats": "",
    "City": "Abohar",
    "Latitude": "30.1284",
    "Longitude": "74.2053",
    "RegionCode": "ABOR",
    "State": "Punjab",
    "SubRegionCode": "ABOR",
    "VenueAddress": "Abohar - Hanumangarh Road, Hanumangarh, Abohar, Punjab 152116, India",
    "VenueCode": "MCKP",
    "VenueName": "Miraj Cinemas: Kundan Palace, Abohar"
  },
  "MCNA": {
    "AvailableFormats": "2D|3D",
    "City": "Ahmedabad",
    "Latitude": "23.082",
    "Longitude": "72.6727",
    "RegionCode": "AHD",
    "State": "Gujarat",
    "SubRegionCode": "AHD",
    "VenueAddress": "5th floor, Vitthal Plaza, Naroda Dahegam Road, New Naroda, Opp GEB, Ahmedabad, Gujarat 382330, India",
    "VenueCode": "MCNA",
    "VenueName": "Miraj Cinemas: Vitthal Plaza, New Naroda"
  },
  "MCRM": {
    "AvailableFormats": "3D|2D",
    "City": "Mumbai",
    "Latitude": "19.1841",
    "Longitude": "72.9524",
    "RegionCode": "MUMBAI",
    "State": "Maharashtra",
    "SubRegionCode": "MCENT",
    "VenueAddress": "3rd Floor, R Mall, L.B.S Marg, Near Mulund Check Naka and Kamgar Colony, Mulund West, Mumbai, Maharashtra 400080, India",
    "VenueCode": "MCRM",
    "VenueName": "Miraj Cinemas: R Mall, Mulund"
  },
  "MCSS": {
    "AvailableFormats": "",
    "City": "Hyderabad",
    "Latitude": "17.3678",
    "Longitude": "78.5363",
    "RegionCode": "HYD",
    "State": "Telangana",
    "SubRegionCode": "HYD",
    "VenueAddress": "Opposite Kothapet Fruit Market, Beside Reddy Bar and Restaurant, Kothapet Near Induss Hospital, Hyderabad, Telangana 500036, India",
    "VenueCode": "MCSS",
    "VenueName": "Miraj Cinemas: Shalini Shivani, Kothapet"
  },
  "MCVM": {
    "AvailableFormats": "",
    "City": "Delhi",
    "Latitude": "28.6123",
    "Longitude": "77.3111",
    "RegionCode": "NCR",
    "State": "NCR",
    "SubRegionCode": "DELHI",
    "VenueAddress": "Chand Cinema Building, Trilokpuri, Mayur Vihar Phase 1, Near Sanjay Lake Trilokpuri Metro Station, New Delhi, Delhi, NCR 110091, India",
    "VenueCode": "MCVM",
    "VenueName": "Miraj Cinemas: Chand, Mayur Vihar Phase 1"
  },
  "MDIT": {
    "AvailableFormats": "2D",
    "City": "Trichy",
    "Latitude": "10.7464",
    "Longitude": "78.59",
    "RegionCode": "TRIC",
    "State": "Tamil Nadu",
    "SubRegionCode": "TRIC",
    "VenueAddress": "484 Navalurkottapattu, Dindigul High Road, Trichy, Tamil Nadu 620009, India",
    "VenueCode": "MDIT",
    "VenueName": "A-Moorthys Drive-In Theatre: Trichy"
  },
  "MELD": {
    "AvailableFormats": "2D",
    "City": "Vizag (Visakhapatnam)",
    "Latitude": "17.7113",
    "Longitude": "83.3005",
    "RegionCode": "SABB",
    "State": "Andhra Pradesh",
    "SubRegionCode": "SABB",
    "VenueAddress": "Suryabagh, Jagadamba Junction, V Max Theatre, Vizag, Andhra Pradesh 530020, India",
    "VenueCode": "MELD",
    "VenueName": "Sri Melody HDR Dolby Atmos: Vizag"
  },
  "METH": {
    "AvailableFormats": "2D|3D",
    "City": "Ahmedabad",
    "Latitude": "23.1027",
    "Longitude": "72.5952",
    "RegionCode": "AHD",
    "State": "Gujarat",
    "SubRegionCode": "AHD",
    "VenueAddress": "4D Square Mall, Visat - Gandhinagar Highway, Ahmedabad, Gujarat 380005, India",
    "VenueCode": "METH",
    "VenueName": "PVR: Motera, Ahmedabad"
  },
  "MHFF": {
    "AvailableFormats": "3D|2D",
    "City": "Yavatmal",
    "Latitude": "20.4011",
    "Longitude": "78.1302",
    "RegionCode": "YAVA",
    "State": "Maharashtra",
    "SubRegionCode": "YAVA",
    "VenueAddress": "Bombaywala Compound, C/o Zuber Imdad Ali Bombaywala, Plot No.6 Wanjari Fail SBI Road, Opposite Khoja Colony, Yavatmal, Maharashtra 445001, India",
    "VenueCode": "MHFF",
    "VenueName": "MH29 Fun N Food Miniplex: Yavatmal"
  },
  "MINL": {
    "AvailableFormats": "2D",
    "City": "Sangli",
    "Latitude": "17.094",
    "Longitude": "74.459",
    "RegionCode": "ASMA",
    "State": "Maharashtra",
    "SubRegionCode": "ASMA",
    "VenueAddress": "Karad Tasgaon Road, Near Old S T Stand, Sangli, Maharashtra 416310, India",
    "VenueCode": "MINL",
    "VenueName": "Minakshi Cinema: Palus"
  },
  "MJMJ": {
    "AvailableFormats": "2D|3D",
    "City": "Jabalpur",
    "Latitude": "23.1241",
    "Longitude": "79.9273",
    "RegionCode": "JABL",
    "State": "Madhya Pradesh",
    "SubRegionCode": "JABL",
    "VenueAddress": "2nd Floor, South Avenue Mall, Narmada Road, Polipather, Jabalpur, Madhya Pradesh 482008, India",
    "VenueCode": "MJMJ",
    "VenueName": "Movie Magic (SAM): Jabalpur"
  },
  "MKNS": {
    "AvailableFormats": "",
    "City": "Aligarh",
    "FirstTracked": "2026-07-14",
    "Latitude": "27.886385",
    "Longitude": "78.07768",
    "RegionCode": "ALI",
    "State": "Uttar Pradesh",
    "SubRegionCode": "ALI",
    "VenueAddress": "Ramghat Road, Shyam Nagar, Aligarh, Uttar Pradesh 202001, India",
    "VenueCode": "MKNS",
    "VenueName": "Meenakshi Cinema: Aligarh"
  },
  "MLDT": {
    "AvailableFormats": "2D",
    "City": "Bengaluru",
    "Latitude": "12.9987",
    "Longitude": "77.5035",
    "RegionCode": "HOKT",
    "State": "Karnataka",
    "SubRegionCode": "HOKT",
    "VenueAddress": "Magadi Main Road, Near Hegganahalli Cross, Sunkadakatte, Bengaluru, Karnataka 560091, India",
    "VenueCode": "MLDT",
    "VenueName": "Mohan Cinema Barco 4K A/C 7.1: Sunkadakatte"
  },
  "MMCK": {
    "AvailableFormats": "2D",
    "City": "Katghora",
    "Latitude": "22.4996",
    "Longitude": "82.5419",
    "RegionCode": "KATG",
    "State": "Chhattisgarh",
    "SubRegionCode": "KATG",
    "VenueAddress": "Murli Metro Cinema, Near Gopal Petro Pump, Bilaspur - Katghora Highway, Katghora, Chhattisgarh 495445, India",
    "VenueCode": "MMCK",
    "VenueName": "Murli Metro Cinema: Katghora"
  },
  "MMKJ": {
    "AvailableFormats": "",
    "City": "Selu",
    "FirstTracked": "2026-07-14",
    "Latitude": "19.460514",
    "Longitude": "76.43564",
    "RegionCode": "SELU",
    "State": "Maharashtra",
    "SubRegionCode": "SELU",
    "VenueAddress": "Swami Vivekanand Nagar, Maulana Azad Nagar, College Road Roadseludegaon, Phata Road, Sailu, Selu, Maharashtra 431503, India",
    "VenueCode": "MMKJ",
    "VenueName": "Meenakshi Cinemark: Selu"
  },
  "MMOM": {
    "AvailableFormats": "",
    "City": "Patiala",
    "FirstTracked": "2026-07-14",
    "Latitude": "30.337278",
    "Longitude": "76.39434",
    "RegionCode": "PATI",
    "State": "Punjab",
    "SubRegionCode": "PATI",
    "VenueAddress": "MovieMax, 2nd Floor, Omaxe Mall, Near Kali Mata Mandir, Patiala, Punjab 147001, India",
    "VenueCode": "MMOM",
    "VenueName": "MovieMax: Omaxe Mall, Patiala (SRS Earlier)"
  },
  "MMTZ": {
    "AvailableFormats": "",
    "City": "Nashik",
    "FirstTracked": "2026-07-14",
    "Latitude": "20.005316",
    "Longitude": "73.76628",
    "RegionCode": "NASK",
    "State": "Maharashtra",
    "SubRegionCode": "NASK",
    "VenueAddress": "MovieMax, Above Big Bazaar, College Road, Near Vitthal Mandir, Nashik, Maharashtra 422005, India",
    "VenueCode": "MMTZ",
    "VenueName": "MovieMaX: The Zone, College Road, Nashik"
  },
  "MMZP": {
    "AvailableFormats": "2D",
    "City": "Ponda",
    "Latitude": "15.4001",
    "Longitude": "74.0185",
    "RegionCode": "GOA",
    "State": "Goa",
    "SubRegionCode": "PONA",
    "VenueAddress": "Upper Bazar Road, Prabhu Nagar, Ponda, Goa 403401, India",
    "VenueCode": "MMZP",
    "VenueName": "Magic Moviez: Ponda"
  },
  "MNSC": {
    "AvailableFormats": "",
    "City": "Jajpur Road",
    "FirstTracked": "2026-07-14",
    "Latitude": "20.93864",
    "Longitude": "86.15278",
    "RegionCode": "JAJP",
    "State": "Odisha",
    "SubRegionCode": "JAJP",
    "VenueAddress": "Vyasanagar, Panikoili Road, Jajpur Road, Odisha 755019, India",
    "VenueCode": "MNSC",
    "VenueName": "Mission Shakti Cinema: Jajpur Road"
  },
  "MRAA": {
    "AvailableFormats": "2D|3D",
    "City": "Hyderabad",
    "Latitude": "17.4824",
    "Longitude": "78.4487",
    "RegionCode": "HYD",
    "State": "Telangana",
    "SubRegionCode": "HYD",
    "VenueAddress": "A2A Central Mall, 4th Floor, Adarsh Nagar, Hyderabad, Telangana 500037, India",
    "VenueCode": "MRAA",
    "VenueName": "Miraj Cinemas: A2A Central Mall, Balanagar"
  },
  "MRHT": {
    "AvailableFormats": "",
    "City": "Kothagudem",
    "Latitude": "17.5638",
    "Longitude": "80.623",
    "RegionCode": "KTGM",
    "State": "Telangana",
    "SubRegionCode": "KTGM",
    "VenueAddress": "9-60 Behind Rajya Laxmi Motors Laxmidevipally, Srinagar, Laxmidevipalle Rural, Near Axis Bank, Kothagudem, Telangana 507101, India",
    "VenueCode": "MRHT",
    "VenueName": "Maheshwari 2K Dolby Atmos: Kothagudem"
  },
  "MRTE": {
    "AvailableFormats": "2D",
    "City": "Mandya",
    "Latitude": "12.5275",
    "Longitude": "76.8955",
    "RegionCode": "MND",
    "State": "Karnataka",
    "SubRegionCode": "MND",
    "VenueAddress": "Bangalore Mysore Highway, M.C. Road, Ashok Nagar, Mandya, Karnataka 571401, India",
    "VenueCode": "MRTE",
    "VenueName": "Mahaveer Theatre: Mandya"
  },
  "MSMA": {
    "AvailableFormats": "2D|3D",
    "City": "Kolkata",
    "Latitude": "22.5777",
    "Longitude": "88.4008",
    "RegionCode": "KOLK",
    "State": "West Bengal",
    "SubRegionCode": "KOLK",
    "VenueAddress": "Mani Square Mall,Plot No 164/1, EM Bypass Road, Beside Apollo Gleaneagles Hospital, Kolkata, West Bengal 700054, India",
    "VenueCode": "MSMA",
    "VenueName": "PVR: Mani Square Mall, Kolkata"
  },
  "MTBN": {
    "AvailableFormats": "",
    "City": "Barwani",
    "FirstTracked": "2026-07-14",
    "Latitude": "22.02927",
    "Longitude": "74.90415",
    "RegionCode": "BRWN",
    "State": "Madhya Pradesh",
    "SubRegionCode": "BRWN",
    "VenueAddress": "Moulana Azad Marg, Maa Vaishno Devi Road, Opposite Ganesh Temple, Near MPEB, Barwani, Madhya Pradesh 451551, India",
    "VenueCode": "MTBN",
    "VenueName": "Mahendra Talkies: Barwani"
  },
  "MTGD": {
    "AvailableFormats": "2D",
    "City": "Mumbai",
    "Latitude": "19.2519",
    "Longitude": "72.8629",
    "RegionCode": "MUMBAI",
    "State": "Maharashtra",
    "SubRegionCode": "MWEST",
    "VenueAddress": "Old Rajeshri Cinema Building, S V Road, Maratha Colony Road, Dahisar East, Near Ravindra Hotel, Mumbai, Maharashtra 400068, India",
    "VenueCode": "MTGD",
    "VenueName": "Movietime: Dahisar (E)"
  },
  "MTLM": {
    "AvailableFormats": "2D",
    "City": "Chennai",
    "Latitude": "13.2795",
    "Longitude": "80.2606",
    "RegionCode": "CHEN",
    "State": "Tamil Nadu",
    "SubRegionCode": "CHEN",
    "VenueAddress": "27,Thiruvottiyur High Road, Minjur, Tiruvallur, Chennai, Tamil Nadu 601203, India",
    "VenueCode": "MTLM",
    "VenueName": "Mani Talkies 2K RGB Laser ATMOS: Minjur"
  },
  "MTRB": {
    "AvailableFormats": "2D|3D",
    "City": "Ahmedabad",
    "Latitude": "23.0303",
    "Longitude": "72.4713",
    "RegionCode": "AHD",
    "State": "Gujarat",
    "SubRegionCode": "AHD",
    "VenueAddress": "5th floor, Block A, The Retail Park (TRP), Near Rajyash City, Central Bopal, Ahmedabad, Gujarat 380058, India",
    "VenueCode": "MTRB",
    "VenueName": "Mukta A2 Cinemas: The Retail Park (TRP) Bopal"
  },
  "MUCK": {
    "AvailableFormats": "3D|2D",
    "City": "Kalyan",
    "Latitude": "19.2602",
    "Longitude": "73.1236",
    "RegionCode": "MUMBAI",
    "State": "Maharashtra",
    "SubRegionCode": "KALYAN",
    "VenueAddress": "Triveni Grande, 4th Floor, D.B Chowk, Adharwadi Jail Road, Kalyan West, Thane, Near Don Bosco School, Kalyan, Maharashtra 421301, India",
    "VenueCode": "MUCK",
    "VenueName": "Mukta A2 Cinemas: Triveni Grande, Kalyan (West)"
  },
  "MVRP": {
    "AvailableFormats": "2D",
    "City": "Rudrapur",
    "Latitude": "28.9757",
    "Longitude": "79.3866",
    "RegionCode": "RUDP",
    "State": "Uttarakhand",
    "SubRegionCode": "RUDP",
    "VenueAddress": "Ground Floor, Old Chawla Cinema, Gaba Chowk, Near Essar Petrol Pump, Rudrapur, Uttarakhand 263153, India",
    "VenueCode": "MVRP",
    "VenueName": "Movietime Cinemas: Rudrapur"
  },
  "MXCS": {
    "AvailableFormats": "2D|3D",
    "City": "Greater Noida",
    "Latitude": "28.458",
    "Longitude": "77.5281",
    "RegionCode": "NCR",
    "State": "NCR",
    "SubRegionCode": "GRET",
    "VenueAddress": "MSX CINEMA, 3rd Floor, Sec-19, Block F, Industrial Area, Greater Noida, NCR 201310, India",
    "VenueCode": "MXCS",
    "VenueName": "MSX Cinemas: Greater Noida"
  },
  "MYCT": {
    "AvailableFormats": "2D",
    "City": "Thalayolaparambu",
    "Latitude": "9.78555",
    "Longitude": "76.4529",
    "RegionCode": "THAL",
    "State": "Kerala",
    "SubRegionCode": "THAL",
    "VenueAddress": "Thalayolaparambu P.O,Kottayam, Ernakulam Road, Ernakulam Road, Near Bharat Petrol Pump, Thalayolaparambu, Kerala 686605, India",
    "VenueCode": "MYCT",
    "VenueName": "MY Cinemas: Thalayolaparambu, Kerala"
  },
  "NACK": {
    "AvailableFormats": "2D",
    "City": "Kolkata",
    "Latitude": "22.5009",
    "Longitude": "88.3486",
    "RegionCode": "KOLK",
    "State": "West Bengal",
    "SubRegionCode": "KOLK",
    "VenueAddress": "85, Prince Anwar Shah Road, Tollygunge, Rajendra Prasad Colony, Kolkata, West Bengal 700033, India",
    "VenueCode": "NACK",
    "VenueName": "Navina Cinema: Tollygunge"
  },
  "NBCH": {
    "AvailableFormats": "2D",
    "City": "Diamond Harbour",
    "Latitude": "22.2053",
    "Longitude": "88.1842",
    "RegionCode": "MNHR",
    "State": "West Bengal",
    "SubRegionCode": "MNHR",
    "VenueAddress": "NH34 New Town, Harindanga, Jaydebpur, Diamond Harbour, West Bengal 743331, India",
    "VenueCode": "NBCH",
    "VenueName": "New Bijoli Cinema: Diamond Harbour"
  },
  "NCJA": {
    "AvailableFormats": "2D",
    "City": "Jalna",
    "Latitude": "19.835",
    "Longitude": "75.8936",
    "RegionCode": "JALN",
    "State": "Maharashtra",
    "SubRegionCode": "JALN",
    "VenueAddress": "Railway Station Road, Nariman Nagar, Jalna, Maharashtra 431213, India",
    "VenueCode": "NCJA",
    "VenueName": "Neelam Cineplex: Jalna"
  },
  "NCTH": {
    "AvailableFormats": "2D",
    "City": "Vizianagaram",
    "Latitude": "18.1174",
    "Longitude": "83.4003",
    "RegionCode": "JAMI",
    "State": "Andhra Pradesh",
    "SubRegionCode": "JAMI",
    "VenueAddress": "Chinna Veedhi, Balaji Nagar, MG Rd NCS Area, Near SBI Main Branch, Vizianagaram, Andhra Pradesh 535001, India",
    "VenueCode": "NCTH",
    "VenueName": "NCS 4K Laser Dolby Atmos: Vizianagaram"
  },
  "NEWC": {
    "AvailableFormats": "2D",
    "City": "Siliguri",
    "Latitude": "26.7048",
    "Longitude": "88.4286",
    "RegionCode": "SILI",
    "State": "West Bengal",
    "SubRegionCode": "SILI",
    "VenueAddress": "Ward 28, New Cinema Road, Para, Siliguri, West Bengal 734001, India",
    "VenueCode": "NEWC",
    "VenueName": "New Cinema: Siliguri"
  },
  "NKCL": {
    "AvailableFormats": "2D",
    "City": "Lakhimpur",
    "Latitude": "27.2374",
    "Longitude": "94.1065",
    "RegionCode": "LAHA",
    "State": "Assam",
    "SubRegionCode": "LAHA",
    "VenueAddress": "Adarsha Market Complex, North Lakhimpur, CD Road, Near State Bank of India, Lakhimpur, Assam 787001, India",
    "VenueCode": "NKCL",
    "VenueName": "A Nakshatra Cinemas: Lakhimpur"
  },
  "NMNA": {
    "AvailableFormats": "2D",
    "City": "Nagari",
    "Latitude": "13.3251",
    "Longitude": "79.5877",
    "RegionCode": "NAGI",
    "State": "Andhra Pradesh",
    "SubRegionCode": "NAGI",
    "VenueAddress": "NH71, Nagari, Near ABCWO office, Nagari, Andhra Pradesh 517590, India",
    "VenueCode": "NMNA",
    "VenueName": "NMC Cinemas A/C 3D 4K DOLBY ATMOS: Nagari"
  },
  "NOPL": {
    "AvailableFormats": "",
    "City": "Khatta",
    "FirstTracked": "2026-07-14",
    "Latitude": "28.924164",
    "Longitude": "77.3284",
    "RegionCode": "KHAT",
    "State": "Uttar Pradesh",
    "SubRegionCode": "KHAT",
    "VenueAddress": "Khasra Number: 855, Village Khatta Prahladpur, Tehsil Baghpat, Khatta, Uttar Pradesh 250615, India",
    "VenueCode": "NOPL",
    "VenueName": "Novaplex: Khatta"
  },
  "NRDP": {
    "AvailableFormats": "",
    "City": "Pratapgarh (UP)",
    "FirstTracked": "2026-07-14",
    "Latitude": "25.915697",
    "Longitude": "81.99923",
    "RegionCode": "PRAT",
    "State": "Uttar Pradesh",
    "SubRegionCode": "PRAT",
    "VenueAddress": "D D Plex, 106, Station Road, Pratapgarh (UP), Uttar Pradesh 230001, India",
    "VenueCode": "NRDP",
    "VenueName": "Nirmal D D Plex: Pratapgarh"
  },