{
  "AAME": {
    "AvailableFormats": "2D",
    "City": "Deesa",
    "Latitude": "24.2421",
    "Longitude": "72.1826",
    "RegionCode": "DEES",
    "State": "Gujarat",
    "SubRegionCode": "DEES",
    "VenueAddress": "Multiplex Entertainment Complex, Patan Cross Road, Deesa, Gujarat 385535, India",
    "VenueCode": "AAME",
    "VenueName": "Shree Ram Multiplex: Deesa"
  },
  "AAVB": {
    "AvailableFormats": "2D",
    "City": "Vijayapura (Bijapur)",
    "Latitude": "16.8338",
    "Longitude": "75.7151",
    "RegionCode": "VJPR",
    "State": "Karnataka",
    "SubRegionCode": "VJPR",
    "VenueAddress": "Ram Mandir Road, Behind Sideshwara Gudi, Sholapur, Vijayapura (Bijapur), Karnataka 586101, India",
    "VenueCode": "AAVB",
    "VenueName": "Amir Talkies: Vijayapura (Bijapur)"
  },
  "ABND": {
    "AvailableFormats": "2D",
    "City": "Nandyal",
    "Latitude": "15.4858",
    "Longitude": "78.4861",
    "RegionCode": "NADY",
    "State": "Andhra Pradesh",
    "SubRegionCode": "NADY",
    "VenueAddress": "Ramnath Cine Complex, Telugu Peta, Nandyal, Andhra Pradesh 518501, India",
    "VenueCode": "ABND",
    "VenueName": "Abhiram Theater: Nandyal"
  },
  "ACBX": {
    "AvailableFormats": "2D",
    "City": "Birra",
    "Latitude": "21.7551",
    "Longitude": "82.7759",
    "RegionCode": "BIRR",
    "State": "Chhattisgarh",
    "SubRegionCode": "BIRR",
    "VenueAddress": "Near SBI bank, Gatwa, Birra, Birra, Chhattisgarh 495661, India",
    "VenueCode": "ACBX",
    "VenueName": "AAB Cineplex: Birra"
  },
  "ACHU": {
    "AvailableFormats": "2D",
    "City": "Udaynarayanpur",
    "Latitude": "22.7258",
    "Longitude": "87.9847",
    "RegionCode": "UDAY",
    "State": "West Bengal",
    "SubRegionCode": "UDAY",
    "VenueAddress": "Udaynarayanpur-Pursura Road, Near Tarama Mithanno Vandar, Udaynarayanpur, West Bengal 711226, India",
    "VenueCode": "ACHU",
    "VenueName": "Anandamoyee Cinema Hall: Udaynarayanpur"
  },
  "ACMC": {
    "AvailableFormats": "2D",
    "City": "Mahabubabad",
    "Latitude": "17.5954",
    "Longitude": "80.0052",
    "RegionCode": "MAHA",
    "State": "Telangana",
    "SubRegionCode": "MAHA",
    "VenueAddress": "Gundal - Yellandu Road, Shikarkana Gadda, Near CSI Church, Mahabubabad, Telangana 506101, India",
    "VenueCode": "ACMC",
    "VenueName": "Asian Mukund: Mahabubabad"
  },
  "ACPK": {
    "AvailableFormats": "2D",
    "City": "Kochi",
    "Latitude": "10.1135",
    "Longitude": "76.4791",
    "RegionCode": "PALY",
    "State": "Kerala",
    "SubRegionCode": "PALY",
    "VenueAddress": "K.S.R.T.C Bus Stand Road, Perumbavoor, Eranakulam District, Near Marvel Aquarium, Kochi, Kerala 683549, India",
    "VenueCode": "ACPK",
    "VenueName": "Aashirvad Cineplexx: Perumbavoor"
  },
  "ACTZ": {
    "AvailableFormats": "2D",
    "City": "Tezpur",
    "Latitude": "26.6223",
    "Longitude": "92.7964",
    "RegionCode": "TEZP",
    "State": "Assam",
    "SubRegionCode": "TEZP",
    "VenueAddress": "Mahatma Gandhi Road, Near Annapurna Hotel, Tezpur, Assam 784001, India",
    "VenueCode": "ACTZ",
    "VenueName": "Anwar VRS Cinema: Tezpur"
  },
  "ADCU": {
    "AvailableFormats": "2D",
    "City": "Ujhani",
    "Latitude": "28.0031",
    "Longitude": "79.0155",
    "RegionCode": "UJHA",
    "State": "Uttar Pradesh",
    "SubRegionCode": "UJHA",
    "VenueAddress": "Mohalla Gaddi Tola Budaun Road, Near Krishna Colony, Ujhani, Uttar Pradesh 243639, India",
    "VenueCode": "ADCU",
    "VenueName": "ADS Cineplex: Ujhani"
  },
  "AGCD": {
    "AvailableFormats": "2D",
    "City": "Dindigul",
    "Latitude": "10.3655",
    "Longitude": "77.9815",
    "RegionCode": "DIND",
    "State": "Tamil Nadu",
    "SubRegionCode": "DIND",
    "VenueAddress": "15 A, Aarthi Theatre Road, Dindigul, Tamil Nadu 624001, India",
    "VenueCode": "AGCD",
    "VenueName": "Aarthi Grand Cineplex: Dindigul"
  },
  "AKCC": {
    "AvailableFormats": "2D",
    "City": "Cherupuzha",
    "Latitude": "12.27429",
    "Longitude": "75.36086",
    "RegionCode": "CRUZ",
    "State": "Kerala",
    "SubRegionCode": "CRUZ",
    "VenueAddress": "Cherupuzha Road, ., Cherupuzha, Kerala 670511, India",
    "VenueCode": "AKCC",
    "VenueName": "Ak CinePalace by Sj: 4K Dolby Atmos"
  },
  "AKTG": {
    "AvailableFormats": "2D",
    "City": "Gadarwara",
    "Latitude": "22.9202",
    "Longitude": "78.7821",
    "RegionCode": "GDWR",
    "State": "Madhya Pradesh",
    "SubRegionCode": "GDWR",
    "VenueAddress": "Alka Talkies Road, Vijay Colony, Bhabha Ward, Gadarwara, Madhya Pradesh 487551, India",
    "VenueCode": "AKTG",
    "VenueName": "Alka Talkies: Gadarwara"
  },
  "ALUC": {
    "AvailableFormats": "2D",
    "City": "Hyderabad",
    "Latitude": "17.3896272",
    "Longitude": "78.3438856",
    "RegionCode": "HYD",
    "State": "Telangana",
    "SubRegionCode": "HYD",
    "VenueAddress": "Plot 20, Adjacent to Allu Studios, Power Welfare Society, Narsingi, Hyderabad, Telangana 500075, India",
    "VenueCode": "ALUC",
    "VenueName": "ALLU Cinemas: Kokapet"
  },
  "AMDK": {
    "AvailableFormats": "2D",
    "City": "Devarakonda",
    "Latitude": "16.6908",
    "Longitude": "78.9227",
    "RegionCode": "DEVK",
    "State": "Telangana",
    "SubRegionCode": "DEVK",
    "VenueAddress": "Devarakonda Road, Mallepally Road, Near State Bank of India ATM, Devarakonda, Telangana 508248, India",
    "VenueCode": "AMDK",
    "VenueName": "Asian Manoj: Devarakonda"
  },
  "AMOE": {
    "AvailableFormats": "3D|2D",
    "City": "Amravati",
    "Latitude": "20.8983",
    "Longitude": "77.7477",
    "RegionCode": "AMRA",
    "State": "Maharashtra",
    "SubRegionCode": "AMRA",
    "VenueAddress": "Elite Mall, Guruchhaya Colony, Saturna, Sai Nagar,Badnera Road, Near Bhakti Dham Mandir, Amravati, Maharashtra 444607, India",
    "VenueCode": "AMOE",
    "VenueName": "E Orbit Multiplex: Amravati"
  },
  "ANAN": {
    "AvailableFormats": "2D",
    "City": "Khed",
    "Latitude": "17.7125",
    "Longitude": "73.4093",
    "RegionCode": "KHED",
    "State": "Maharashtra",
    "SubRegionCode": "KHED",
    "VenueAddress": "Near Nagarpalika, Khed Dapoli Road, Khed, Maharashtra 415709, India",
    "VenueCode": "ANAN",
    "VenueName": "City Pride: Annand"
  },
  "ANNK": {
    "AvailableFormats": "2D",
    "City": "Kothamangalam",
    "Latitude": "10.063",
    "Longitude": "76.6202",
    "RegionCode": "KTMM",
    "State": "Kerala",
    "SubRegionCode": "KTMM",
    "VenueAddress": "Dhanushkodi Rd, Kothamangalam, Near Kothamangalam Bus Stand, Kothamangalam, Kerala 686666, India",
    "VenueCode": "ANNK",
    "VenueName": "ANN Cinema Complex 4K 3D Dolby Atmos RGB LASER"
  },
  "ANTP": {
    "AvailableFormats": "2D",
    "City": "Ramachandrapuram",
    "Latitude": "16.83799",
    "Longitude": "82.02889",
    "RegionCode": "RCPR",
    "State": "Andhra Pradesh",
    "SubRegionCode": "RCPR",
    "VenueAddress": "Ramachandrapuram Road, Ramachandrapuram, Andhra Pradesh 533255, India",
    "VenueCode": "ANTP",
    "VenueName": "Annapurna A/C 2K Dolby 7.1 : Ramachandrapuram"
  },
  "APCY": {
    "AvailableFormats": "2D|3D",
    "City": "Karimnagar",
    "Latitude": "18.4409",
    "Longitude": "79.1323",
    "RegionCode": "KARIM",
    "State": "Telangana",
    "SubRegionCode": "KARIM",
    "VenueAddress": "C4RJ+9WW, Sharma Nagar, Karimnagar, Telangana 505001, India",
    "VenueCode": "APCY",
    "VenueName": "Asian Paradise Cinemas: Karimnagar"
  },
  "APSU": {
    "AvailableFormats": "2D",
    "City": "Hubli",
    "Latitude": "15.3481",
    "Longitude": "75.144",
    "RegionCode": "HUBL",
    "State": "Karnataka",
    "SubRegionCode": "HUBL",
    "VenueAddress": "Coen Road, New Hubli, Opposite Corporation Bank, Hubli, Karnataka 580020, India",
    "VenueCode": "APSU",
    "VenueName": "Apsara & Sudha Cinemas: Hubli"
  },
  "ARCR": {
    "AvailableFormats": "2D",
    "City": "Peravoor",
    "Latitude": "11.9016",
    "Longitude": "75.7307",
    "RegionCode": "PPVR",
    "State": "Kerala",
    "SubRegionCode": "PPVR",
    "VenueAddress": "Iritty Nedumpoil Road, Near Crystal Mall, Peravoor, Kerala 670673, India",
    "VenueCode": "ARCR",
    "VenueName": "Aura Cinemas: Peravoor"
  },
  "ARTH": {
    "AvailableFormats": "2D",
    "City": "Hyderabad",
    "Latitude": "17.4249",
    "Longitude": "78.5335",
    "RegionCode": "HYD",
    "State": "Telangana",
    "SubRegionCode": "HYD",
    "VenueAddress": "Professors Quarters, Inner Ring Road, Opposite Big Bazaar, Hyderabad, Telangana 500017, India",
    "VenueCode": "ARTH",
    "VenueName": "Aradhana Theatre: Hyderabad"
  },
  "ASCT": {
    "AvailableFormats": "2D",
    "City": "Thodupuzha",
    "Latitude": "9.89105",
    "Longitude": "76.7075",
    "RegionCode": "THOD",
    "State": "Kerala",
    "SubRegionCode": "THOD",
    "VenueAddress": "Near Pvt. Bus Stand, Pala Road, Thodupuzha, Kerala 685584, India",
    "VenueCode": "ASCT",
    "VenueName": "Aashirvad Cineplexx: Thodupuzha"
  },
  "ASLC": {
    "AvailableFormats": "2D",
    "City": "Trivandrum",
    "Latitude": "8.48853",
    "Longitude": "76.9461",
    "RegionCode": "VKAL",
    "State": "Kerala",
    "SubRegionCode": "VKAL",
    "VenueAddress": "Sahodara Samajam Road, near OverBridge, Thampanoor, Thiruvananthapuram, Trivandrum, Kerala 695035, India",
    "VenueCode": "ASLC",
    "VenueName": "Ariesplex SL Cinemas Cinionic Dolby Atmos"
  },
  "ASRM": {
    "AvailableFormats": "2D",
    "City": "Madanapalle",
    "Latitude": "13.5553",
    "Longitude": "78.5081",
    "RegionCode": "MDNP",
    "State": "Andhra Pradesh",
    "SubRegionCode": "MDNP",
    "VenueAddress": "Rama Gopal Naidu Colony, Near State Bank of India, Madanapalle, Andhra Pradesh 517325, India",
    "VenueCode": "ASRM",
    "VenueName": "ASR A/C 4K Laser Dolby Surround 7.1: Madanapalle"
  },
  "ASTS": {
    "AvailableFormats": "2D",
    "City": "Davanagere",
    "Latitude": "14.4673",
    "Longitude": "75.9249",
    "RegionCode": "DAVA",
    "State": "Karnataka",
    "SubRegionCode": "DAVA",
    "VenueAddress": "SH 65, Ashoka Road, KB Extension, Near Railway Gate, Davanagere, Karnataka 577001, India",
    "VenueCode": "ASTS",
    "VenueName": "Ashoka Talkies: Davanagere"
  },
  "ATEV": {
    "AvailableFormats": "",
    "City": "Salem",
    "Latitude": "11.701",
    "Longitude": "78.2565",
    "RegionCode": "SALM",
    "State": "Tamil Nadu",
    "SubRegionCode": "SALM",
    "VenueAddress": "Vaniyambadi Road, Valasaiyur, Salem, Tamil Nadu 636122, India",
    "VenueCode": "ATEV",
    "VenueName": "Anandha Theatre A/C DTS: Valasaiyur"
  },
  "ATRT": {
    "AvailableFormats": "2D",
    "City": "Rayagada",
    "Latitude": "19.1759",
    "Longitude": "83.4137",
    "RegionCode": "RADA",
    "State": "Odisha",
    "SubRegionCode": "RADA",
    "VenueAddress": "College Road, Gandhi Nagar, Rayagada, Odisha 765001, India",
    "VenueCode": "ATRT",
    "VenueName": "Ashok Talkies: Rayagada"
  },
  "AVCH": {
    "AvailableFormats": "2D",
    "City": "Khandwa",
    "Latitude": "21.8169",
    "Longitude": "76.3434",
    "RegionCode": "KHDW",
    "State": "Madhya Pradesh",
    "SubRegionCode": "KHDW",
    "VenueAddress": "Burhanpur - Pandhana Road, Plot No.106, Kunbi, East Nimar, Khandwa, Madhya Pradesh 450001, India",
    "VenueCode": "AVCH",
    "VenueName": "Abhishek Veer Cinemas: Khandwa"
  },
  "AXAM": {
    "AvailableFormats": "2D",
    "City": "Amroha",
    "Latitude": "28.9054",
    "Longitude": "78.4811",
    "RegionCode": "AMRO",
    "State": "Uttar Pradesh",
    "SubRegionCode": "AMRO",
    "VenueAddress": "Kailsa Road, Chevara, Amroha, Uttar Pradesh 244221, India",
    "VenueCode": "AXAM",
    "VenueName": "Anand Cineplex: Amroha"
  },
  "BACS": {
    "AvailableFormats": "2D",
    "City": "Surat",
    "Latitude": "21.214",
    "Longitude": "72.8219",
    "RegionCode": "SURT",
    "State": "Gujarat",
    "SubRegionCode": "SURT",
    "VenueAddress": "72-78, Ved Road, Opposite Ramji Nagar Society, Fatakdawadi, Pandol, Industrial Estate, Katargam, Surat, Gujarat 395004, India",
    "VenueCode": "BACS",
    "VenueName": "Bajrang Cinema: Surat"
  },
  "BATK": {
    "AvailableFormats": "2D",
    "City": "Kanchipuram",
    "Latitude": "12.8294",
    "Longitude": "79.7001",
    "RegionCode": "MMNR",
    "State": "Tamil Nadu",
    "SubRegionCode": "MMNR",
    "VenueAddress": "Madam Thottam Street Madam, Pillaiyarpalayam, Kanchipuram, Tamil Nadu 631501, India",
    "VenueCode": "BATK",
    "VenueName": "Babu Cinemas - RGB Laser: Kanchipuram"
  },
  "BCCR": {
    "AvailableFormats": "3D|2D",
    "City": "Cooch Behar",
    "Latitude": "26.3296",
    "Longitude": "89.4426",
    "RegionCode": "COBE",
    "State": "West Bengal",
    "SubRegionCode": "COBE",
    "VenueAddress": "Bhavani Cinema, Keshav Road, Cooch Behar, West Bengal 736101, India",
    "VenueCode": "BCCR",
    "VenueName": "Bhavani Cinema: Cooch Behar"
  },
  "BGGM": {
    "AvailableFormats": "2D",
    "City": "Asansol",
    "Latitude": "23.6847",
    "Longitude": "86.9416",
    "RegionCode": "ASANSOL",
    "State": "West Bengal",
    "SubRegionCode": "ASANSOL",
    "VenueAddress": "Burnpur Road, Chitra More, Mouja  Santa, P.O  Hirapur, District  West Burdwan, Asansol, West Bengal 713325, India",
    "VenueCode": "BGGM",
    "VenueName": "Bioscope: Galaxy Mall, Asansol"
  },
  "BIJH": {
    "AvailableFormats": "2D",
    "City": "Jhabua",
    "Latitude": "22.7609",
    "Longitude": "74.5879",
    "RegionCode": "JHAB",
    "State": "Madhya Pradesh",
    "SubRegionCode": "JHAB",
    "VenueAddress": "Infront of College Ground, Ranapur Road, Jhabua, Madhya Pradesh 457661, India",
    "VenueCode": "BIJH",
    "VenueName": "B4 Cinema: Jhabua"
  },
  "BJTS": {
    "AvailableFormats": "2D",
    "City": "Chikkaballapur",
    "Latitude": "13.4311",
    "Longitude": "77.7307",
    "RegionCode": "CHIK",
    "State": "Karnataka",
    "SubRegionCode": "CHIK",
    "VenueAddress": "B B Road, Near Chikkaballapur Road, Chikkaballapur, Karnataka 562101, India",
    "VenueCode": "BJTS",
    "VenueName": "Balaji Talkies: Chikkaballapura"
  },
  "BMBK": {
    "AvailableFormats": "2D",
    "City": "Bhawanipatna",
    "Latitude": "19.9065",
    "Longitude": "83.1421",
    "RegionCode": "BHAW",
    "State": "Odisha",
    "SubRegionCode": "BHAW",
    "VenueAddress": "Bhagirathi Mall, Sambhunagar Pada, Bhawanipatna, Odisha 766002, India",
    "VenueCode": "BMBK",
    "VenueName": "Bhagirathi Multiplex: Bhawanipatna"
  },
  "BRKH": {
    "AvailableFormats": "2D",
    "City": "Hyderabad",
    "Latitude": "17.5002",
    "Longitude": "78.3866",
    "RegionCode": "HYD",
    "State": "Telangana",
    "SubRegionCode": "HYD",
    "VenueAddress": "Jai Bharat Nagar, Hyder Nagar, Vasantha Nagar, Kukatpally, Near Karachi Bakery, Hyderabad, Telangana 500072, India",
    "VenueCode": "BRKH",
    "VenueName": "Bhramaramba 70MM A/C 4K Dolby: Kukatpally"
  },
  "BSPC": {
    "AvailableFormats": "2D",
    "City": "Dhampur",
    "Latitude": "29.3028",
    "Longitude": "78.5065",
    "RegionCode": "DHPR",
    "State": "Uttar Pradesh",
    "SubRegionCode": "DHPR",
    "VenueAddress": "Near Champa Devi Temple, Udaipur, Dhampur, Uttar Pradesh 246761, India",
    "VenueCode": "BSPC",
    "VenueName": "Bansal Cineplex: Dhampur"
  },
  "BTKD": {
    "AvailableFormats": "2D",
    "City": "Ongole",
    "Latitude": "15.5466",
    "Longitude": "79.9397",
    "RegionCode": "ONGL",
    "State": "Andhra Pradesh",
    "SubRegionCode": "ONGL",
    "VenueAddress": "GWWQ+JVV, Santhanuthalapadu, Ongole, Andhra Pradesh 523225, India",
    "VenueCode": "BTKD",
    "VenueName": "Sai Balaji A/c Dolby Surround: Santhanutalapadu"
  },
  "CACN": {
    "AvailableFormats": "2D",
    "City": "Mahuva",
    "Latitude": "21.1266",
    "Longitude": "71.7984",
    "RegionCode": "MAHV",
    "State": "Gujarat",
    "SubRegionCode": "MAHV",
    "VenueAddress": "City Mall Opposite Reliance Petrol Pump, Next to Vibrant Dehydration, At. Bhadrod, Mahuva, Mahuva, Gujarat 364290, India",
    "VenueCode": "CACN",
    "VenueName": "Cine Arc Multiplex: Mahuva"
  },
  "CBSM": {
    "AvailableFormats": "2D|3D",
    "City": "Chandigarh",
    "Latitude": "30.6734",
    "Longitude": "76.7398",
    "RegionCode": "CHD",
    "State": "Punjab",
    "SubRegionCode": "CHD",
    "VenueAddress": "Bestech Square Mall, Sector 66, Sahibzada Ajit Singh Nagar (Mohali), Chandigarh, Punjab 160062, India",
    "VenueCode": "CBSM",
    "VenueName": "Cinepolis: Bestech Square, Mohali"
  },
  "CCCB": {
    "AvailableFormats": "2D",
    "City": "Coimbatore",
    "Latitude": "11.0137",
    "Longitude": "77.0026",
    "RegionCode": "COIM",
    "State": "Tamil Nadu",
    "SubRegionCode": "COIM",
    "VenueAddress": "14, Renganayaki Nagar, Thirumagal Nagar, Udayampalayam, Coimbatore, Tamil Nadu 641028, India",
    "VenueCode": "CCCB",
    "VenueName": "Cosmo Cinemas PEELAMEDU AC 4K RGB Lase:Coimbatore"
  },
  "CCKS": {
    "AvailableFormats": "2D|3D",
    "City": "Surat",
    "Latitude": "21.2319",
    "Longitude": "72.8362",
    "RegionCode": "SURT",
    "State": "Gujarat",
    "SubRegionCode": "SURT",
    "VenueAddress": "6th floor, Laxmi Enclave 2, Near Gajera School, Surat, Gujarat 395004, India",
    "VenueCode": "CCKS",
    "VenueName": "Cineverse Cinema: Katargam, Surat"
  },
  "CCMX": {
    "AvailableFormats": "2D",
    "City": "Madhubani",
    "Latitude": "26.3545",
    "Longitude": "86.0693",
    "RegionCode": "MADZ",
    "State": "Bihar",
    "SubRegionCode": "MADZ",
    "VenueAddress": "Mahaseth Complex, Opposite Suri High School, Bara Bazar, Madhubani, Bihar 847211, India",
    "VenueCode": "CCMX",
    "VenueName": "Connplex Cinemas: Madhubani"
  },
  "CCSI": {
    "AvailableFormats": "2D|3D",
    "City": "Siliguri",
    "Latitude": "26.7394",
    "Longitude": "88.4027",
    "RegionCode": "SILI",
    "State": "West Bengal",
    "SubRegionCode": "SILI",
    "VenueAddress": "Savin Plaza, Savin Kingdom,Hill Kart Road, Dagapur, Behind Baba Loknath Mandir, Siliguri, West Bengal 734003, India",
    "VenueCode": "CCSI",
    "VenueName": "Savin Cinemas: Siliguri"
  },
  "CDOK": {
    "AvailableFormats": "2D",
    "City": "Jajpur Road",
    "Latitude": "20.9518",
    "Longitude": "86.1306",
    "RegionCode": "JAJP",
    "State": "Odisha",
    "SubRegionCode": "JAJP",
    "VenueAddress": "Utkal Centre Point Mall, Chorda Bypass Square, Byasanagar Main Road, Jajpur Road, Odisha 755019, India",
    "VenueCode": "CDOK",
    "VenueName": "Connplex Cinemas (Signature): Utkal Centre Point"
  },
  "CEST": {
    "AvailableFormats": "2D|3D",
    "City": "Delhi",
    "Latitude": "28.6372",
    "Longitude": "77.2869",
    "RegionCode": "NCR",
    "State": "NCR",
    "SubRegionCode": "DELHI",
    "VenueAddress": "Laxmi Nagar Commercial Complex, Swasthya Vihar, Delhi, NCR 110092, India",
    "VenueCode": "CEST",
    "VenueName": "Cinepolis: V3S East Centre (New)"
  },
  "CGGM": {
    "AvailableFormats": "2D",
    "City": "Kozhikode",
    "Latitude": "11.2581",
    "Longitude": "75.7931",
    "RegionCode": "KOZH",
    "State": "Kerala",
    "SubRegionCode": "KOZH",
    "VenueAddress": "97, Mavoor Road, Arayidathupalam, Near Federal Tower, Kozhikode, Kerala 673016, India",
    "VenueCode": "CGGM",
    "VenueName": "Cinepolis: Gokulam Galleria Mall"
  },
  "CHGV": {
    "AvailableFormats": "2D",
    "City": "Belagavi (Belgaum)",
    "Latitude": "15.8594",
    "Longitude": "74.5122",
    "RegionCode": "BELG",
    "State": "Karnataka",
    "SubRegionCode": "BELG",
    "VenueAddress": "1724/A, Huns Talkies Road, Burud Galli, Nana Shankar Sheth Marg, Ravivar Peth, Near Karur Vysya Bank, Belagavi (Belgaum), Karnataka 590001, India",
    "VenueCode": "CHGV",
    "VenueName": "Chitra Talkies: Belagavi"
  },
  "CIBA": {
    "AvailableFormats": "2D",
    "City": "Korba",
    "Latitude": "22.3513",
    "Longitude": "82.6993",
    "RegionCode": "KRBA",
    "State": "Chhattisgarh",
    "SubRegionCode": "KRBA",
    "VenueAddress": "City Center Mall, B-10, Purani Basti, Power House Road, Korba, Chhattisgarh 495678, India",
    "VenueCode": "CIBA",
    "VenueName": "Cinemood Multiplex (Dolby Atmos Sound): Korba"
  },
  "CIPS": {
    "AvailableFormats": "2D|3D|4DX",
    "City": "Delhi",
    "Latitude": "28.5283",
    "Longitude": "77.2176",
    "RegionCode": "NCR",
    "State": "NCR",
    "SubRegionCode": "DELHI",
    "VenueAddress": "DLF Avenue, Saket District Centre, Plot-A4, Near Marriot Hotel, Saket, Delhi, NCR 110017, India",
    "VenueCode": "CIPS",
    "VenueName": "Cinepolis: DLF Avenue, Saket"
  },
  "CLCU": {
    "AvailableFormats": "2D",
    "City": "Umred",
    "Latitude": "20.8595",
    "Longitude": "79.3164",
    "RegionCode": "UMRD",
    "State": "Maharashtra",
    "SubRegionCode": "UMRD",
    "VenueAddress": "Kawarapeth, Gangapur, Umred, Maharashtra 441203, India",
    "VenueCode": "CLCU",
    "VenueName": "Balaji Multiplex: Umred"
  },
  "CLMM": {
    "AvailableFormats": "2D|3D",
    "City": "Mumbai",
    "Latitude": "19.0305",
    "Longitude": "72.8415",
    "RegionCode": "MUMBAI",
    "State": "Maharashtra",
    "SubRegionCode": "MCENT",
    "VenueAddress": "4th Floor, Ashford Chambers, L.J. Road, Mahim (West), Mumbai, Maharashtra 400016, India",
    "VenueCode": "CLMM",
    "VenueName": "Citylight Cinema: Mahim"
  },
  "CMGJ": {
    "AvailableFormats": "2D",
    "City": "Godda",
    "Latitude": "24.8314",
    "Longitude": "87.21",
    "RegionCode": "GDDA",
    "State": "Jharkhand",
    "SubRegionCode": "GDDA",
    "VenueAddress": "Rooftop Of Reliance Smart Bazaar, Near Petrol Pump Bhagalpur Road, Godda, Jharkhand 814133, India",
    "VenueCode": "CMGJ",
    "VenueName": "Chhotu Maharaj Cine Cafe: Godda, Jharkhand"
  },
  "CMMP": {
    "AvailableFormats": "2D",
    "City": "Rampur",
    "Latitude": "28.7516",
    "Longitude": "79.0545",
    "RegionCode": "RAMU",
    "State": "Uttar Pradesh",
    "SubRegionCode": "RAMU",
    "VenueAddress": "Modi Mall, Modipur, Faizulla Nagar, Nh-24, Bareilly Road, Rampur, Uttar Pradesh 244901, India",
    "VenueCode": "CMMP",
    "VenueName": "Cinepolis: Modi Mall, Rampur"
  },
  "CMUA": {
    "AvailableFormats": "",
    "City": "Howrah",
    "Latitude": "22.4874",
    "Longitude": "88.1111",
    "RegionCode": "HWRH",
    "State": "West Bengal",
    "SubRegionCode": "HWRH",
    "VenueAddress": "National Highway 16, Avarland, Uluberia, Near Coffee House Classic, Howrah, West Bengal 711316, India",
    "VenueCode": "CMUA",
    "VenueName": "Chhotu Maharaj: Uluberia, Howrah"
  },
  "CMXS": {
    "AvailableFormats": "2D",
    "City": "Dabhara",
    "Latitude": "21.7876",
    "Longitude": "82.9951",
    "RegionCode": "DABH",
    "State": "Chhattisgarh",
    "SubRegionCode": "DABH",
    "VenueAddress": "Bhagat Shopping Mall, Chhapora to Dabhara Main Road, Malkharoda, Dabhara, Chhattisgarh 495691, India",
    "VenueCode": "CMXS",
    "VenueName": "Chandra Multiplex Cinema: Dabhara"
  },
  "CNFX": {
    "AvailableFormats": "2D",
    "City": "Datia",
    "Latitude": "25.6653",
    "Longitude": "78.4609",
    "RegionCode": "DATI",
    "State": "Madhya Pradesh",
    "SubRegionCode": "DATI",
    "VenueAddress": "National Highway 44 Jhansi road, First floor Ratan mega mall, Near District and sessions court, Datia, Madhya Pradesh 475661, India",
    "VenueCode": "CNFX",
    "VenueName": "Cineflix Cinemas: Datia"
  },
  "CNPS": {
    "AvailableFormats": "3D|2D",
    "City": "Bilaspur",
    "Latitude": "22.071",
    "Longitude": "82.1504",
    "RegionCode": "BILA",
    "State": "Chhattisgarh",
    "SubRegionCode": "BILA",
    "VenueAddress": "4th Floor, Shri Krishna Central Mall, Vinoba Nagar, Bilaspur, Chhattisgarh 495001, India",
    "VenueCode": "CNPS",
    "VenueName": "Connplex Cinemas (Signature) : Bilaspur"
  },
  "CNWE": {
    "AvailableFormats": "2D|IMAX 2D|3D",
    "City": "Pune",
    "Latitude": "18.5625",
    "Longitude": "73.8072",
    "RegionCode": "PUNE",
    "State": "Maharashtra",
    "SubRegionCode": "PUNE",
    "VenueAddress": "5, Gurukul Park Road, Ward No. 8, Wireless Colony, Aundh, Pune, Maharashtra 411007, India",
    "VenueCode": "CNWE",
    "VenueName": "Cinepolis: Nexus WESTEND Mall Aundh, Pune"
  },
  "COPC": {
    "AvailableFormats": "2D",
    "City": "Raisinghnagar",
    "Latitude": "29.5374",
    "Longitude": "73.4503",
    "RegionCode": "RSNG",
    "State": "Rajasthan",
    "SubRegionCode": "RSNG",
    "VenueAddress": "22 PS Road, Near - Raisingnagar railway station, Raisinghnagar, Rajasthan 335051, India",
    "VenueCode": "COPC",
    "VenueName": "Cosmo Palace Cinema: Raisinghnagar"
  },
  "CPCM": {
    "AvailableFormats": "2D|3D",
    "City": "Mangalore",
    "Latitude": "12.8717",
    "Longitude": "74.8425",
    "RegionCode": "MLR",
    "State": "Karnataka",
    "SubRegionCode": "MLR",
    "VenueAddress": "K S Rao Road, Hampankatta, Mangalore, Karnataka 122002, India",
    "VenueCode": "CPCM",
    "VenueName": "Cinepolis: City Centre Mall, Mangaluru"
  },
  "CPIV": {
    "AvailableFormats": "2D|3D",
    "City": "Vadodara",
    "Latitude": "22.3227",
    "Longitude": "73.1662",
    "RegionCode": "VAD",
    "State": "Gujarat",
    "SubRegionCode": "VAD",
    "VenueAddress": "2nd Floor, Inorbit Mall,Nr. Gunjan Tower, Gorwa Road, Gorwa, Opp. Alembic School, Vadodara, Gujarat 390023, India",
    "VenueCode": "CPIV",
    "VenueName": "Cinepolis: Inorbit Vadodara Mall"
  },
  "CPLX": {
    "AvailableFormats": "2D",
    "City": "Jeypore",
    "Latitude": "18.8588",
    "Longitude": "82.5902",
    "RegionCode": "JEYP",
    "State": "Odisha",
    "SubRegionCode": "JEYP",
    "VenueAddress": "Industrial Estate, Jeypore Vizianagaram Road, Jeypore, Odisha 764001, India",
    "VenueCode": "CPLX",
    "VenueName": "Celebration Cineplex: Jeypore"
  },
  "CPOV": {
    "AvailableFormats": "2D|3D",
    "City": "Vijayawada",
    "Latitude": "16.4888",
    "Longitude": "80.6752",
    "RegionCode": "KADU",
    "State": "Andhra Pradesh",
    "SubRegionCode": "KADU",
    "VenueAddress": "Cinepolis India Pvt Ltd, 3rd Floor, Power One Mall, Survery no -220/4 Kanuru gram, Bunder Road, District- Krishna, Vijayawada, Andhra Pradesh 520007, India",
    "VenueCode": "CPOV",
    "VenueName": "Cinepolis: Power One Mall, Vijayawada"
  },
  "CPUM": {
    "AvailableFormats": "2D|3D",
    "City": "Delhi",
    "Latitude": "28.7149",
    "Longitude": "77.1164",
    "RegionCode": "NCR",
    "State": "NCR",
    "SubRegionCode": "DELHI",
    "VenueAddress": "Unity One Rohini, Bhagawan Mahavir Marg, Rohini West Metro Station, Sector 10, Rohini, Delhi, NCR 110085, India",
    "VenueCode": "CPUM",
    "VenueName": "Cinepolis: Unity One Mall Rohini, Delhi"
  },
  "CRJA": {
    "AvailableFormats": "2D|3D",
    "City": "Jamnagar",
    "Latitude": "22.4717",
    "Longitude": "70.049",
    "RegionCode": "JAM",
    "State": "Gujarat",
    "SubRegionCode": "JAM",
    "VenueAddress": "4th Floor, Crystal Mall, Airport Road, Khodiyar Colony, Jamnagar, Gujarat 361005, India",
    "VenueCode": "CRJA",
    "VenueName": "INOX: Crystal Mall, Jamnagar"
  },
  "CSEP": {
    "AvailableFormats": "2D",
    "City": "Ahmedabad",
    "Latitude": "23.0189",
    "Longitude": "72.5564",
    "RegionCode": "AHD",
    "State": "Gujarat",
    "SubRegionCode": "AHD",
    "VenueAddress": "Parimal Garden, Chimanlal Girdharlal R, Besides Ambuja House Oppo, Ahmedabad, Gujarat 380006, India",
    "VenueCode": "CSEP",
    "VenueName": "Connplex Cinemas: Parimal"
  },
  "CSSM": {
    "AvailableFormats": "2D",
    "City": "Gangoh",
    "Latitude": "29.7851",
    "Longitude": "77.2604",
    "RegionCode": "GANZ",
    "State": "Uttar Pradesh",
    "SubRegionCode": "GANZ",
    "VenueAddress": "Kasimsiddqui, MDR 147W, Opposite Umar Unani Ayurvedic Agency, Gangoh, Uttar Pradesh 247341, India",
    "VenueCode": "CSSM",
    "VenueName": "Chaudhary SS Multiplex: Gangoh"
  },
  "CSWO": {
    "AvailableFormats": "3D|IMAX 2D|2D|4DX|4DX 3D",
    "City": "Navi Mumbai",
    "Latitude": "19.0214",
    "Longitude": "73.0184",
    "RegionCode": "MUMBAI",
    "State": "Maharashtra",
    "SubRegionCode": "THAN",
    "VenueAddress": "Unit Multiplex Seawoods Railway, Sector No 40, Plot R1, Nerul, Navi Mumbai, Maharashtra 400706, India",
    "VenueCode": "CSWO",
    "VenueName": "Cinepolis: Nexus Seawoods, Nerul, Navi Mumbai"
  },
  "CTMP": {
    "AvailableFormats": "2D|3D",
    "City": "Pune",
    "Latitude": "18.5247",
    "Longitude": "73.8546",
    "RegionCode": "PUNE",
    "State": "Maharashtra",
    "SubRegionCode": "PUNE",
    "VenueAddress": "111, Behind Pune Muncipal Corporation Building, Shivaji Road, Shivaji Nagar, Pune, Maharashtra 411005, India",
    "VenueCode": "CTMP",
    "VenueName": "City Pride: Mangala Cinema"
  },
  "CUDN": {
    "AvailableFormats": "",
    "City": "Nagpur",
    "Latitude": "20.8422",
    "Longitude": "79.3181",
    "RegionCode": "NAGP",
    "State": "Maharashtra",
    "SubRegionCode": "NAGP",
    "VenueAddress": "Plot No. 1, 2, and 3, Giradkar Layout, Bypass Road, Nagpur, Maharashtra 441203, India",
    "VenueCode": "CUDN",
    "VenueName": "Chhotu Maharaj: Umred, Nagpur"
  },
  "CVTT": {
    "AvailableFormats": "2D",
    "City": "Tirupati",
    "Latitude": "13.6301",
    "Longitude": "79.424",
    "RegionCode": "TIRU",
    "State": "Andhra Pradesh",
    "SubRegionCode": "TIRU",
    "VenueAddress": "Jayasam Road, Tata Nagar, Tirupati, Andhra Pradesh 517501, India",
    "VenueCode": "CVTT",
    "VenueName": "CVS Movie Land A/c DTS: Tirupati"
  },
  "CXMH": {
    "AvailableFormats": "2D",
    "City": "Himmatnagar",
    "Latitude": "23.5823",
    "Longitude": "72.9728",
    "RegionCode": "HIMM",
    "State": "Gujarat",
    "SubRegionCode": "HIMM",
    "VenueAddress": "Devdhan Complex, Sahakari Jin Road, Near Jyoti Supermarket, Himmatnagar, Gujarat 383001, India",
    "VenueCode": "CXMH",
    "VenueName": "Cinemunch Mplex MCR: Himmatnagar"
  },
  "DBJR": {
    "AvailableFormats": "2D",
    "City": "Kalady",
    "Latitude": "10.1687",
    "Longitude": "76.443",
    "RegionCode": "KLDY",
    "State": "Kerala",
    "SubRegionCode": "KLDY",
    "VenueAddress": "Kalady Malayattoor Road, Thalayattumpilli, Kalady, Kerala 683574, India",
    "VenueCode": "DBJR",
    "VenueName": "Dreambig Jawahar CInemas: Kalady"
  },
  "DCGO": {
    "AvailableFormats": "2D",
    "City": "Guruvayur",
    "Latitude": "10.5918",
    "Longitude": "76.0405",
    "RegionCode": "GUVY",
    "State": "Kerala",
    "SubRegionCode": "GUVY",
    "VenueAddress": "Opposite Temple Police Station, South Nada, Guruvayur, Kerala 680101, India",
    "VenueCode": "DCGO",
    "VenueName": "Devaky Cinemas 2K 3D Dolby Atmos: Guruvayoor"
  },
  "DCRP": {
    "AvailableFormats": "2D",
    "City": "Ramanathapuram",
    "Latitude": "9.36634",
    "Longitude": "78.8362",
    "RegionCode": "RAPU",
    "State": "Tamil Nadu",
    "SubRegionCode": "RAPU",
    "VenueAddress": "41, East Coast Road, Chalai Bazar, Ramanathapuram, Near om sakthi temple, Ramanathapuram, Tamil Nadu 623504, India",
    "VenueCode": "DCRP",
    "VenueName": "D Cinema A/C Sony 4K 3D: Ramanathapuram"
  },
  "DDXB": {
    "AvailableFormats": "2D|3D",
    "City": "Bhopal",
    "Latitude": "23.1876",
    "Longitude": "77.4174",
    "RegionCode": "BHOP",
    "State": "Madhya Pradesh",
    "SubRegionCode": "BHOP",
    "VenueAddress": "Kolar Road, Mandakini Colony, Near Vishal Maega Mart, Bhopal, Madhya Pradesh 462042, India",
    "VenueCode": "DDXB",
    "VenueName": "DDX Cinema Kolar: Bhopal"
  },
  "DGCA": {
    "AvailableFormats": "2D",
    "City": "Rangia",
    "Latitude": "26.4422",
    "Longitude": "91.6094",
    "RegionCode": "RAAA",
    "State": "Assam",
    "SubRegionCode": "RAAA",
    "VenueAddress": "Ward No. 2, Station Road, Kamrup, Rangia, Assam 781365, India",
    "VenueCode": "DGCA",
    "VenueName": "Delight Gold Cinema Hall: Rangia"
  },
  "DKTI": {
    "AvailableFormats": "2D",
    "City": "Bengaluru",
    "Latitude": "12.7978",
    "Longitude": "77.3838",
    "RegionCode": "BANG",
    "State": "Karnataka",
    "SubRegionCode": "BANG",
    "VenueAddress": "Nelligudda Tank Road, Next to Karnataka Bank, Behind Bidadi Bus Stand, Ramanagar District, Bengaluru, Karnataka 562109, India",
    "VenueCode": "DKTI",
    "VenueName": "Deepak Talkies: Bidadi"
  },
  "DMHA": {
    "AvailableFormats": "2D",
    "City": "Kalyani",
    "Latitude": "22.9673",
    "Longitude": "88.539",
    "RegionCode": "KALY",
    "State": "West Bengal",
    "SubRegionCode": "KALY",
    "VenueAddress": "2nd, Ward No 6 Balindi, Kalyani Road, Haringhata, Nadia, Kalyani, West Bengal 741246, India",
    "VenueCode": "DMHA",
    "VenueName": "Dolphin Multiplex: Haringhata (Dolby 7.1)"
  },
  "DNRP": {
    "AvailableFormats": "2D",
    "City": "Pathanamthitta",
    "Latitude": "9.26514",
    "Longitude": "76.7891",
    "RegionCode": "PTNM",
    "State": "Kerala",
    "SubRegionCode": "PTNM",
    "VenueAddress": "NH 183A Valanchuzhy, Pathanamthitta - Kadammanitta Road, Near Aananda Bavan Vegetarian Restaurant, Pathanamthitta, Kerala 689645, India",
    "VenueCode": "DNRP",
    "VenueName": "Dhanya Remya: Pathanamthitta"
  },
  "DSCZ": {
    "AvailableFormats": "2D",
    "City": "Nabarangpur",
    "Latitude": "19.2204",
    "Longitude": "82.5404",
    "RegionCode": "NAGU",
    "State": "Odisha",
    "SubRegionCode": "NAGU",
    "VenueAddress": "Plot No. 1910, Katha No.122, Ichabatiguda, Nabarangpur, Odisha 764059, India",
    "VenueCode": "DSCZ",
    "VenueName": "DS3 Cinemas: Nabarangpur"
  },
  "DTVP": {
    "AvailableFormats": "2D",
    "City": "Vijayapura",
    "Latitude": "16.8269",
    "Longitude": "75.7164",
    "RegionCode": "VJPR",
    "State": "Karnataka",
    "SubRegionCode": "VJPR",
    "VenueAddress": "Tippu Sultan Circle, D.C Office Road, Near KSRTC Bus Stand, Vijayapura, Karnataka 586101, India",
    "VenueCode": "DTVP",
    "VenueName": "Dreamland A/C Dolby Theatre: Vijayapura (Bijapur)"
  },
  "DVPM": {
    "AvailableFormats": "2D",
    "City": "Pandharpur",
    "Latitude": "17.6802",
    "Longitude": "75.3231",
    "RegionCode": "PNDH",
    "State": "Maharashtra",
    "SubRegionCode": "PNDH",
    "VenueAddress": "Pune - Pandharpur Road, Market Yard, Gokul Nagar, Isbavi, Near New S.T. Stand, Pandharpur, Maharashtra 413304, India",
    "VenueCode": "DVPM",
    "VenueName": "DVP Square: Pandharpur"
  },
  "ECMR": {
    "AvailableFormats": "2D",
    "City": "Muzaffarpur",
    "Latitude": "26.1201",
    "Longitude": "85.3888",
    "RegionCode": "MUZA",
    "State": "Bihar",
    "SubRegionCode": "MUZA",
    "VenueAddress": "DRB Palace Mall, 4th Floor, BB Collegiate Lane, Motijheel, Muzaffarpur, Bihar 842001, India",
    "VenueCode": "ECMR",
    "VenueName": "Eylex Cinema: Muzaffarpur"
  },
  "ELKC": {
    "AvailableFormats": "2D",
    "City": "Koderma",
    "Latitude": "24.4367",
    "Longitude": "85.5349",
    "RegionCode": "KODZ",
    "State": "Jharkhand",
    "SubRegionCode": "KODZ",
    "VenueAddress": "Eylex Cinemas, Jhumri Telaiya, Ujala complex, Ranchi Patna Road, Koderma, Jharkhand 825409, India",
    "VenueCode": "ELKC",
    "VenueName": "Eylex Cinemas: Jhumri Telaiya, Koderma"
  },
  "ERSD": {
    "AvailableFormats": "2D|3D",
    "City": "Jabalpur",
    "Latitude": "23.1689",
    "Longitude": "79.9336",
    "RegionCode": "JABL",
    "State": "Madhya Pradesh",
    "SubRegionCode": "JABL",
    "VenueAddress": "Samdareeya Mall, Civic Centre, Near Mata Gujri College, Jabalpur, Madhya Pradesh 482001, India",
    "VenueCode": "ERSD",
    "VenueName": "Samdareeya Era Cinema: Jabalpur"
  },
  "ESVP": {
    "AvailableFormats": "2D",
    "City": "Pune",
    "Latitude": "18.511",
    "Longitude": "73.8801",
    "RegionCode": "PUNE",
    "State": "Maharashtra",
    "SubRegionCode": "PUNE",
    "VenueAddress": "2429, Gen Thimayya Road, Camp, opposite Kayani Bakery, Pune, Maharashtra 411001, India",
    "VenueCode": "ESVP",
    "VenueName": "Victory Theatre: Camp, Pune"
  },
  "EXCA": {
    "AvailableFormats": "2D",
    "City": "Ahilyanagar (Ahmednagar)",
    "Latitude": "19.3845",
    "Longitude": "74.7821",
    "RegionCode": "AHMED",
    "State": "Maharashtra",
    "SubRegionCode": "AHMED",
    "VenueAddress": "Kalyanam Lawns, A/P: Wanjarwadi Sonai, Tal: Nevasa, Ahilyanagar (Ahmednagar), Maharashtra 414105, India",
    "VenueCode": "EXCA",
    "VenueName": "Eylex Cinema: Sonai"
  },
  "FCPA": {
    "AvailableFormats": "2D",
    "City": "Anand",
    "Latitude": "22.5527",
    "Longitude": "72.9444",
    "RegionCode": "AND",
    "State": "Gujarat",
    "SubRegionCode": "AND",
    "VenueAddress": "Theatre Road, Opp. Chinar Gulnar, Anand-Vidyanag Road, Near Hero Honda Showroom (S.S. Motors), Anand, Gujarat 388001, India",
    "VenueCode": "FCPA",
    "VenueName": "INOX Anand: City Pulse Mall"
  },
  "FMDR": {
    "AvailableFormats": "3D|2D",
    "City": "Mumbai",
    "Latitude": "19.0199",
    "Longitude": "72.8413",
    "RegionCode": "MUMBAI",
    "State": "Maharashtra",
    "SubRegionCode": "MCENT",
    "VenueAddress": "2nd Floor, Nakshatra Cine Shoppe, Ranade Road, Dadar West, Near Railway Station, Mumbai, Maharashtra 400028, India",
    "VenueCode": "FMDR",
    "VenueName": "INOX: Nakshatra Mall, Dadar (W)"
  },
  "FMRL": {
    "AvailableFormats": "2D|3D",
    "City": "Mumbai",
    "Latitude": "19.2132",
    "Longitude": "72.8492",
    "RegionCode": "MUMBAI",
    "State": "Maharashtra",
    "SubRegionCode": "MWEST",
    "VenueAddress": "Off S.V. Road, Kandivali West, Behind Poisar Bus Depot, Mumbai, Maharashtra 400067, India",
    "VenueCode": "FMRL",
    "VenueName": "INOX: Raghuleela Mall, Kandivali (W)"
  },
  "FNCO": {
    "AvailableFormats": "2D",
    "City": "Coimbatore",
    "Latitude": "11.0247",
    "Longitude": "77.0104",
    "RegionCode": "COIM",
    "State": "Tamil Nadu",
    "SubRegionCode": "COIM",
    "VenueAddress": "Peelamedu, Avinashi Road, Peelamedu, Near PSGR Krishnammal College, Coimbatore, Tamil Nadu 641004, India",
    "VenueCode": "FNCO",
    "VenueName": "Cinepolis: Fun Republic Mall, Coimbatore"
  },
  "FNSD": {
    "AvailableFormats": "2D|3D",
    "City": "Delhi",
    "Latitude": "28.6574",
    "Longitude": "77.3023",
    "RegionCode": "NCR",
    "State": "NCR",
    "SubRegionCode": "DELHI",
    "VenueAddress": "Cross River Mall, Central Business,Shahdara, Near Karkardooma Court, Delhi, NCR 110032, India",
    "VenueCode": "FNSD",
    "VenueName": "Cinepolis: Cross River Mall, Shahdara"
  },
  "FSCK": {
    "AvailableFormats": "2D|IMAX 2D|3D",
    "City": "Kolkata",
    "Latitude": "22.5014",
    "Longitude": "88.3616",
    "RegionCode": "KOLK",
    "State": "West Bengal",
    "SubRegionCode": "KOLK",
    "VenueAddress": "375, South City Mall, Prince Anwar Shah Road, Opposite Central Bank of India, Kolkata, West Bengal 700068, India",
    "VenueCode": "FSCK",
    "VenueName": "INOX: South City, Kolkata"
  },
  "G3SR": {
    "AvailableFormats": "2D|3D",
    "City": "Delhi",
    "Latitude": "28.7351",
    "Longitude": "77.1135",
    "RegionCode": "NCR",
    "State": "NCR",
    "SubRegionCode": "DELHI",
    "VenueAddress": "Level 2, Sector-11, Rohini, Inside Garg Trade, Delhi, NCR 110085, India",
    "VenueCode": "G3SR",
    "VenueName": "G3S Cinema: Rohini (Newly Renovated)"
  },
  "GATH": {
    "AvailableFormats": "2D",
    "City": "Athagarh",
    "Latitude": "20.5146",
    "Longitude": "85.622",
    "RegionCode": "ATHG",
    "State": "Odisha",
    "SubRegionCode": "ATHG",
    "VenueAddress": "Near Lord Shiva Temple, Dorada Road, Athagarh, Odisha 754029, India",
    "VenueCode": "GATH",
    "VenueName": "Ganesh Talkies: Athagarh"
  },
  "GCAK": {
    "AvailableFormats": "2D",
    "City": "Kothamangalam",
    "Latitude": "10.0634",
    "Longitude": "76.6279",
    "RegionCode": "KTMM",
    "State": "Kerala",
    "SubRegionCode": "KTMM",
    "VenueAddress": "Hotel Kavery Road, Kothamangalam, Near State Bank Of India Kothamangalam Branch, Kothamangalam, Kerala 686666, India",
    "VenueCode": "GCAK",
    "VenueName": "G Cinemas: Kothamangalam 4K 3D Dolby Atmos"
  },
  "GCDS": {
    "AvailableFormats": "2D",
    "City": "Sarangarh",
    "Latitude": "21.6384",
    "Longitude": "83.1056",
    "RegionCode": "SARH",
    "State": "Chhattisgarh",
    "SubRegionCode": "SARH",
    "VenueAddress": "33, Hardi Road, Sarangarh, Chhattisgarh 496450, India",
    "VenueCode": "GCDS",
    "VenueName": "Grand Cineplex: Sarangarh"
  },
  "GCKI": {
    "AvailableFormats": "2D",
    "City": "Kozhinjampara",
    "Latitude": "10.7343",
    "Longitude": "76.8349",
    "RegionCode": "KOZA",
    "State": "Kerala",
    "SubRegionCode": "KOZA",
    "VenueAddress": "Palakkad - Pollachi Road, Near Private Bus Stand, Kozhinjampara, Kerala 678555, India",
    "VenueCode": "GCKI",
    "VenueName": "Geetha Cinemax 2K 3D: Kozhinjampara"
  },
  "GCNG": {
    "AvailableFormats": "2D",
    "City": "Narnaul",
    "Latitude": "28.0542",
    "Longitude": "76.1023",
    "RegionCode": "NARN",
    "State": "Haryana",
    "SubRegionCode": "NARN",
    "VenueAddress": "Aggarwal Tower, Nizampur Road, Near Navjeevan Hospital, Narnaul, Haryana 123001, India",
    "VenueCode": "GCNG",
    "VenueName": "Gold Cinema: Narnaul"
  },
  "GCTG": {
    "AvailableFormats": "2D",
    "City": "Madurai",
    "Latitude": "9.9361",
    "Longitude": "78.0979",
    "RegionCode": "MADU",
    "State": "Tamil Nadu",
    "SubRegionCode": "MADU",
    "VenueAddress": "66/98, Velar Street, Manjalmattu Colony, Gnanavolivupuram, Arapalayam, City Bus Stop, Madurai, Tamil Nadu 625016, India",
    "VenueCode": "GCTG",
    "VenueName": "Guru Cinemas A/C RGB Laser 4K 3D: Madurai"
  },
  "GDCD": {
    "AvailableFormats": "2D",
    "City": "Mumbai",
    "Latitude": "19.0096",
    "Longitude": "72.8423",
    "RegionCode": "MUMBAI",
    "State": "Maharashtra",
    "SubRegionCode": "MCENT",
    "VenueAddress": "9/26, Kumar Fun and Shop, 2nd Floor, Dr. Babasaheb Ambedkar Road., Naigaon, Dadar (East), Mumbai, Maharashtra 400014, India",
    "VenueCode": "GDCD",
    "VenueName": "Gold Cinema: Dadar (E)"
  },
  "GDPG": {
    "AvailableFormats": "2D",
    "City": "Palghar",
    "Latitude": "19.6934",
    "Longitude": "72.7739",
    "RegionCode": "PALG",
    "State": "Maharashtra",
    "SubRegionCode": "PALG",
    "VenueAddress": "Mahim Road Palghar, Old Ice factory, Near Sales Tax Office, Palghar, Maharashtra 401404, India",
    "VenueCode": "GDPG",
    "VenueName": "Gold Cinema: Palghar"
  },
  "GGCB": {
    "AvailableFormats": "2D|3D",
    "City": "Burhanpur",
    "Latitude": "21.3138",
    "Longitude": "76.2223",
    "RegionCode": "BRHP",
    "State": "Madhya Pradesh",
    "SubRegionCode": "BRHP",
    "VenueAddress": "Gursikh Mall, New Market, Sanwara, Road, Sindhi Basti, Burhanpur, Madhya Pradesh 450331, India",
    "VenueCode": "GGCB",
    "VenueName": "Gursikh Goldmark Cinemas (Dolby Atmos): Burhanpur"
  },
  "GIER": {
    "AvailableFormats": "2D",
    "City": "Berhampur",
    "Latitude": "19.3102",
    "Longitude": "84.7914",
    "RegionCode": "BERP",
    "State": "Odisha",
    "SubRegionCode": "BERP",
    "VenueAddress": "Janata City Centre, Telephone Bhawan Road, Gandhi Nagar, Berhampur, Odisha 760001, India",
    "VenueCode": "GIER",
    "VenueName": "Gayatri Cinemas: Berhampur"
  },
  "GLDC": {
    "AvailableFormats": "2D",
    "City": "Chaygaon",
    "Latitude": "26.0476",
    "Longitude": "91.3844",
    "RegionCode": "CHOG",
    "State": "Assam",
    "SubRegionCode": "CHOG",
    "VenueAddress": "Goalpara - Guwahati Road, Near Bank Of Baroda, Chaygaon, Assam 781124, India",
    "VenueCode": "GLDC",
    "VenueName": "Gold Cinema: Chaygaon"
  },
  "GNDS": {
    "AvailableFormats": "2D",
    "City": "Shikrapur",
    "Latitude": "18.703",
    "Longitude": "74.1389",
    "RegionCode": "SKHR",
    "State": "Maharashtra",
    "SubRegionCode": "SKHR",
    "VenueAddress": "Besides Nandini Villa, Hiware Road, Shikrapur, Maharashtra 412208, India",
    "VenueCode": "GNDS",
    "VenueName": "Gunjan Dijeplex: Shikrapur"
  },
  "GPGM": {
    "AvailableFormats": "2D",
    "City": "Bengaluru",
    "Latitude": "12.9935",
    "Longitude": "77.664",
    "RegionCode": "HOKT",
    "State": "Karnataka",
    "SubRegionCode": "HOKT",
    "VenueAddress": "Nagavar Palaya, Old Madras Road, Above More Supermarket, Bengaluru, Karnataka 560016, India",
    "VenueCode": "GPGM",
    "VenueName": "Gopalan Grand Mall: Old Madras Road"
  },
  "GRCR": {
    "AvailableFormats": "2D",
    "City": "Rajkot",
    "Latitude": "22.356",
    "Longitude": "70.715",
    "RegionCode": "RAJK",
    "State": "Gujarat",
    "SubRegionCode": "RAJK",
    "VenueAddress": "Rajkot Highway, Jamnagar, Near Saurashtra Cricket Stadium, Rajkot, Gujarat 360006, India",
    "VenueCode": "GRCR",
    "VenueName": "Garden Cinema: Rajkot"
  },
  "GTCK": {
    "AvailableFormats": "2D",
    "City": "Trivandrum",
    "Latitude": "8.60425",
    "Longitude": "76.8156",
    "RegionCode": "VKAL",
    "State": "Kerala",
    "SubRegionCode": "VKAL",
    "VenueAddress": "Puthukurichy (P.O), Kaniyapuram, Near V Tracks Cinemas, Trivandrum, Kerala 695303, India",
    "VenueCode": "GTCK",
    "VenueName": "GTracks Screen 2 Sony 4K: Kadinamkulam"
  },
  "GTTA": {
    "AvailableFormats": "2D",
    "City": "Falakata",
    "Latitude": "26.5179",
    "Longitude": "89.2024",
    "RegionCode": "FALA",
    "State": "West Bengal",
    "SubRegionCode": "FALA",
    "VenueAddress": "Babupara, Near Netaji Road, Opposite Falakata Park, Falakata, West Bengal 735211, India",
    "VenueCode": "GTTA",
    "VenueName": "Gouri Talkies: Falakata"
  },
  "GWEK": {
    "AvailableFormats": "2D",
    "City": "Kallara",
    "Latitude": "9.70018",
    "Longitude": "76.4759",
    "RegionCode": "ETTU",
    "State": "Kerala",
    "SubRegionCode": "ETTU",
    "VenueAddress": "Kallara - Neendoor - Pravattom Road, Neendoor, Kallara, Kerala 686611, India",
    "VenueCode": "GWEK",
    "VenueName": "Goodwill Cinemas 4K RGB LASER Atmos 3D: Kallara"
  },
  "HASV": {
    "AvailableFormats": "2D",
    "City": "Bengaluru",
    "Latitude": "12.6827",
    "Longitude": "77.4757",
    "RegionCode": "BANG",
    "State": "Karnataka",
    "SubRegionCode": "BANG",
    "VenueAddress": "Marasandra Main Road, Ranganath Badavane, Harohalli, Ramanagara, Bengaluru, Karnataka 562112, India",
    "VenueCode": "HASV",
    "VenueName": "Sri Vinayaka Theatre: Harohalli"
  },
  "HHCG": {
    "AvailableFormats": "2D",
    "City": "Guntur",
    "Latitude": "16.3097",
    "Longitude": "80.4342",
    "RegionCode": "GUNT",
    "State": "Andhra Pradesh",
    "SubRegionCode": "GUNT",
    "VenueAddress": "Opp LVR Club, Road Lakshmipuram, Koritepadu Road, Guntur, Andhra Pradesh 522007, India",
    "VenueCode": "HHCG",
    "VenueName": "Harihar Cinemas: Guntur"
  },
  "HTBY": {
    "AvailableFormats": "2D",
    "City": "Bareilly",
    "Latitude": "28.3538",
    "Longitude": "79.4186",
    "RegionCode": "BARE",
    "State": "Uttar Pradesh",
    "SubRegionCode": "BARE",
    "VenueAddress": "Church Road, Civil Lines, Bareilly, Uttar Pradesh 243001, India",
    "VenueCode": "HTBY",
    "VenueName": "New Hind Talkies: Bareilly"
  },
  "IDEN": {
    "AvailableFormats": "2D",
    "City": "Delhi",
    "Latitude": "28.5513",
    "Longitude": "77.2515",
    "RegionCode": "NCR",
    "State": "NCR",
    "SubRegionCode": "DELHI",
    "VenueAddress": "Lower Ground Floor, Epicuria, TDI South Bridge, Nehru Place Metro Station, PD Area, Delhi, NCR 110019, India",
    "VenueCode": "IDEN",
    "VenueName": "INOX: Insignia At Epicuria, Nehru Place"
  },
  "ILCM": {
    "AvailableFormats": "3D|2D",
    "City": "Lucknow",
    "Latitude": "26.8886",
    "Longitude": "81.0554",
    "RegionCode": "LUCK",
    "State": "Uttar Pradesh",
    "SubRegionCode": "LUCK",
    "VenueAddress": "INOX  Leisure LTD, 3rd Floor, Crown Mall, Faizabad Road, Atif Vihar, Opposite BBD University, Lucknow, Uttar Pradesh 226028, India",
    "VenueCode": "ILCM",
    "VenueName": "INOX: Crown Mall, Lucknow"
  },
  "IMKN": {
    "AvailableFormats": "2D|3D",
    "City": "Kolkata",
    "Latitude": "22.7032",
    "Longitude": "88.4718",
    "RegionCode": "KOLK",
    "State": "West Bengal",
    "SubRegionCode": "KOLK",
    "VenueAddress": "3rd Floor, Star Mall, 74/Mall/1 Jessore Road (North), Sisir Kunja,Madhyamgram, Kolkata, West Bengal 700129, India",
    "VenueCode": "IMKN",
    "VenueName": "INOX: Star Mall, Madhyamgram"
  },
  "INAG": {
    "AvailableFormats": "3D|2D",
    "City": "Guwahati",
    "Latitude": "26.1495",
    "Longitude": "91.7858",
    "RegionCode": "GUW",
    "State": "Assam",
    "SubRegionCode": "GUW",
    "VenueAddress": "Aurus Mall, 5th Floor, G.S. Road, Dispur, Guwahati, Assam 781006, India",
    "VenueCode": "INAG",
    "VenueName": "INOX: Aurus, Guwahati"
  },
  "INBM": {
    "AvailableFormats": "2D|3D",
    "City": "Bengaluru",
    "Latitude": "12.966",
    "Longitude": "77.7179",
    "RegionCode": "HOKT",
    "State": "Karnataka",
    "SubRegionCode": "HOKT",
    "VenueAddress": "INOX Leisure Ltd, 4th Floor, Brookefield Mall, Kundalahalli Main Road, Bengaluru, Karnataka 560037, India",
    "VenueCode": "INBM",
    "VenueName": "INOX: Brookefield Mall"
  },
  "INEL": {
    "AvailableFormats": "2D|3D",
    "City": "Lucknow",
    "Latitude": "26.788",
    "Longitude": "80.9105",
    "RegionCode": "LUCK",
    "State": "Uttar Pradesh",
    "SubRegionCode": "LUCK",
    "VenueAddress": "3rd Floor, Emerald Mall, CP 138, Sector D1, LDA Colony, Ashiyana, Lucknow, Uttar Pradesh 226012, India",
    "VenueCode": "INEL",
    "VenueName": "INOX: Megaplex Emerald, Lucknow"
  },
  "INHD": {
    "AvailableFormats": "2D",
    "City": "Kolkata",
    "Latitude": "22.5649",
    "Longitude": "88.3592",
    "RegionCode": "KOLK",
    "State": "West Bengal",
    "SubRegionCode": "KOLK",
    "VenueAddress": "76, Ganesh Chandra Avenue, Bow Bazaar, Dharmatala, Near Chandni Chowk Metro Station, Kolkata, West Bengal 700013, India",
    "VenueCode": "INHD",
    "VenueName": "Hind INOX: Kolkata"
  },
  "INMG": {
    "AvailableFormats": "2D|3D",
    "City": "Goa",
    "Latitude": "15.2848",
    "Longitude": "73.9576",
    "RegionCode": "GOA",
    "State": "Goa",
    "SubRegionCode": "GOA",
    "VenueAddress": "G Wing, Osia Commercial Arcade, SGPDA Market Complex, Goa, Goa 403601, India",
    "VenueCode": "INMG",
    "VenueName": "INOX: Osia G Wing Margao, Goa"
  },
  "INOM": {
    "AvailableFormats": "2D",
    "City": "Salem",
    "Latitude": "11.6745",
    "Longitude": "78.1326",
    "RegionCode": "SALM",
    "State": "Tamil Nadu",
    "SubRegionCode": "SALM",
    "VenueAddress": "1st Floor, Reliance Mall, Five Roads Junction, Meyyanur, Salem, Tamil Nadu 636004, India",
    "VenueCode": "INOM",
    "VenueName": "INOX: Reliance Mall, Salem"
  },
  "INQM": {
    "AvailableFormats": "2D|3D",
    "City": "Kolkata",
    "Latitude": "22.5393",
    "Longitude": "88.3657",
    "RegionCode": "BARR",
    "State": "West Bengal",
    "SubRegionCode": "BARR",
    "VenueAddress": "4th Floor,Quest Mall, Syed Amir Ali Avenue, Opposite Our Lady Queen Of The Missions School, Kolkata, West Bengal 700017, India",
    "VenueCode": "INQM",
    "VenueName": "INOX: Quest Mall"
  },
  "INSC": {
    "AvailableFormats": "2D|3D",
    "City": "Thrissur",
    "Latitude": "10.5504",
    "Longitude": "76.1838",
    "RegionCode": "MANR",
    "State": "Kerala",
    "SubRegionCode": "MANR",
    "VenueAddress": "INOX Leisure Ltd, 2nd Floor, Sobha City Mall, Puzhakkal, Thrissur, Kerala 680553, India",
    "VenueCode": "INSC",
    "VenueName": "INOX: Sobha City Mall"
  },
  "INTN": {
    "AvailableFormats": "3D|2D",
    "City": "Patna",
    "Latitude": "25.6057",
    "Longitude": "85.1337",
    "RegionCode": "PATN",
    "State": "Bihar",
    "SubRegionCode": "PATN",
    "VenueAddress": "PVR INOX Limited, KP Mall, 4th Floor, Budha Marg, Patna, Bihar 800001, India",
    "VenueCode": "INTN",
    "VenueName": "INOX: Ashok, Patna"
  },
  "INVP": {
    "AvailableFormats": "2D",
    "City": "Vijayawada",
    "Latitude": "16.5026",
    "Longitude": "80.6599",
    "RegionCode": "KADU",
    "State": "Andhra Pradesh",
    "SubRegionCode": "KADU",
    "VenueAddress": "3rd Floor, LEPL Icon, RTC Colony, Benz Circle, Patamata, Near Maris Stella College, Vijayawada, Andhra Pradesh 520010, India",
    "VenueCode": "INVP",
    "VenueName": "INOX: LEPL Icon, Patamata"
  },
  "IOMG": {
    "AvailableFormats": "2D|3D",
    "City": "Greater Noida",
    "Latitude": "28.4888",
    "Longitude": "77.5145",
    "RegionCode": "NCR",
    "State": "NCR",
    "SubRegionCode": "GRET",
    "VenueAddress": "INOX Leisure Ltd, 2nd Floor, Omaxe Connaught Place Mall, H Block, Sector Beta- 2, Greater Noida, NCR 201308, India",
    "VenueCode": "IOMG",
    "VenueName": "INOX: Omaxe Connaught Place Mall, Greater Noida"
  },
  "IPMJ": {
    "AvailableFormats": "2D|3D",
    "City": "Delhi",
    "Latitude": "28.5371",
    "Longitude": "77.2831",
    "RegionCode": "NCR",
    "State": "NCR",
    "SubRegionCode": "DELHI",
    "VenueAddress": "3rd Floor, Pacific Mall, Mathura Road, Delhi, NCR 110076, India",
    "VenueCode": "IPMJ",
    "VenueName": "INOX: Pacific Mall, Jasola"
  },
  "ISMG": {
    "AvailableFormats": "3D|2D",
    "City": "Ghaziabad",
    "Latitude": "28.6342",
    "Longitude": "77.3695",
    "RegionCode": "MRDG",
    "State": "NCR",
    "SubRegionCode": "MRDG",
    "VenueAddress": "Shipra Mall, 3rd Floor, Plot No.9, Vaibhav Khand, Indira Puram, Ghaziabad, NCR 201014, India",
    "VenueCode": "ISMG",
    "VenueName": "INOX: Shipra Mall, Ghaziabad"
  },
  "IWPM": {
    "AvailableFormats": "2D",
    "City": "Gangtok",
    "Latitude": "27.3295",
    "Longitude": "88.612",
    "RegionCode": "GANG",
    "State": "Sikkim",
    "SubRegionCode": "GANG",
    "VenueAddress": "4th Floor, West Point Mall, DPH Road, Arithang, Gangtok, Sikkim 737101, India",
    "VenueCode": "IWPM",
    "VenueName": "INOX: West Point Mall, Gangtok-MN"
  },
  "JBCA": {
    "AvailableFormats": "2D",
    "City": "Trivandrum",
    "Latitude": "8.71232",
    "Longitude": "76.813",
    "RegionCode": "VKAL",
    "State": "Kerala",
    "SubRegionCode": "VKAL",
    "VenueAddress": "Alamcode, Near - Vazhiyorakkada Restaurant, Trivandrum, Kerala 695102, India",
    "VenueCode": "JBCA",
    "VenueName": "Thapasya Cine House: Attingal"
  },
  "JCMA": {
    "AvailableFormats": "2D|3D",
    "City": "Ambikapur",
    "Latitude": "23.1266",
    "Longitude": "83.1916",
    "RegionCode": "AMBI",
    "State": "Chhattisgarh",
    "SubRegionCode": "AMBI",
    "VenueAddress": "Devigang Road, Near Mahamaya Chowk, Ambikapur, Chhattisgarh 497001, India",
    "VenueCode": "JCMA",
    "VenueName": "JCM Multiplex: Ambikapur"
  },
  "JEMC": {
    "AvailableFormats": "2D",
    "City": "Chotila",
    "Latitude": "22.4669",
    "Longitude": "71.2678",
    "RegionCode": "CHOT",
    "State": "Gujarat",
    "SubRegionCode": "CHOT",
    "VenueAddress": "NH. 8, A Magharikhada, Near Bitter Beans Cafe and Food Zone, Chotila, Gujarat 363520, India",
    "VenueCode": "JEMC",
    "VenueName": "Jolly Enjoy Multiplex: Chotila"
  },
  "JJPP": {
    "AvailableFormats": "2D",
    "City": "Hyderabad",
    "Latitude": "17.4951",
    "Longitude": "78.3341",
    "RegionCode": "HYD",
    "State": "Telangana",
    "SubRegionCode": "HYD",
    "VenueAddress": "Shop No. W-4, Tapadia Maruti Infinity Mall, Door No. 2-132, Chanda Nagar, Hyderabad, Telangana 500050, India",
    "VenueCode": "JJPP",
    "VenueName": "JP Cinemas: Chandanagar"
  },
  "JMJR": {
    "AvailableFormats": "2D|3D",
    "City": "Kolkata",
    "Latitude": "22.7127",
    "Longitude": "88.4753",
    "RegionCode": "BSRT",
    "State": "West Bengal",
    "SubRegionCode": "BSRT",
    "VenueAddress": "1/3 Jessore Road, Barasat, Near Duck Banglow More, Kolkata, West Bengal 700124, India",
    "VenueCode": "JMJR",
    "VenueName": "Jaya Cinemas: City Mall, Barasat"
  },
  "JRCR": {
    "AvailableFormats": "2D",
    "City": "Raghopur",
    "Latitude": "26.3047",
    "Longitude": "86.8414",
    "RegionCode": "RAHO",
    "State": "Bihar",
    "SubRegionCode": "RAHO",
    "VenueAddress": "Raghopur Police Station, Piprahi, National Highway 106, Near Ganesh Electronics, Raghopur, Bihar 852111, India",
    "VenueCode": "JRCR",
    "VenueName": "Jai Rajan Cinema: Raghopur"
  },
  "JTCP": {
    "AvailableFormats": "2D",
    "City": "Petlad",
    "Latitude": "22.4768",
    "Longitude": "72.8087",
    "RegionCode": "PETL",
    "State": "Gujarat",
    "SubRegionCode": "PETL",
    "VenueAddress": "Morarji Shopping Centre, College Chokdi, Sarvodaya Society, Petlad, Gujarat 388450, India",
    "VenueCode": "JTCP",
    "VenueName": "City Light Theatre: Petlad"
  },
  "JTMV": {
    "AvailableFormats": "2D",
    "City": "Chennai",
    "Latitude": "13.3357",
    "Longitude": "80.1947",
    "RegionCode": "CHEN",
    "State": "Tamil Nadu",
    "SubRegionCode": "CHEN",
    "VenueAddress": "57,Newcar Street, Thiruvallur Dist,NGO Nagar Extension,Chennai, Tamil Nadu 601204, India",
    "VenueCode": "JTMV",
    "VenueName": "VVM Cinemas 3D 2K AC Dts, Ponneri: Chennai"
  },
  "JTSB": {
    "AvailableFormats": "2D",
    "City": "Sathupally",
    "Latitude": "17.2113",
    "Longitude": "80.8334",
    "RegionCode": "SATH",
    "State": "Telangana",
    "SubRegionCode": "SATH",
    "VenueAddress": "Sathupally Main Road, Near State Bank of India, Sathupally, Telangana 507303, India",
    "VenueCode": "JTSB",
    "VenueName": "Sri Balaji Theater A/C Dts: Sathupally"
  },
  "JTVM": {
    "AvailableFormats": "2D",
    "City": "Anakapalle",
    "Latitude": "17.6903",
    "Longitude": "83.0088",
    "RegionCode": "ANKP",
    "State": "Andhra Pradesh",
    "SubRegionCode": "ANKP",
    "VenueAddress": "Number 11-4-22, Chinna Veedhi, Woodpeta, Anakapalle, Andhra Pradesh 531001, India",
    "VenueCode": "JTVM",
    "VenueName": "Venkateswara Movie Mart: Anakapalle"
  },
  "JYCR": {
    "AvailableFormats": "2D",
    "City": "Ramanathapuram",
    "Latitude": "9.36626",
    "Longitude": "78.8362",
    "RegionCode": "RAPU",
    "State": "Tamil Nadu",
    "SubRegionCode": "RAPU",
    "VenueAddress": "41/1 Devipattinam Road, Vaigai Nagar, Ramanathapuram, Tamil Nadu 623504, India",
    "VenueCode": "JYCR",
    "VenueName": "Jagan Theatre A/C Sony 4K 3D: Ramanathapuram"
  },
  "KAMP": {
    "AvailableFormats": "2D|3D",
    "City": "Jabalpur",
    "Latitude": "23.1652",
    "Longitude": "79.935",
    "RegionCode": "JABL",
    "State": "Madhya Pradesh",
    "SubRegionCode": "JABL",
    "VenueAddress": "4th floor, KA Mall, Jyoti talkies, Naudra Bridge, Jabalpur, Madhya Pradesh 482002, India",
    "VenueCode": "KAMP",
    "VenueName": "PVR: KA Mall, Jabalpur"
  },
  "KBPM": {
    "AvailableFormats": "2D",
    "City": "Pamuru",
    "Latitude": "15.0961",
    "Longitude": "79.4099",
    "RegionCode": "PMMR",
    "State": "Andhra Pradesh",
    "SubRegionCode": "PMMR",
    "VenueAddress": "Chitralaya Street, Near SBI, Pamuru, Andhra Pradesh 523108, India",
    "VenueCode": "KBPM",
    "VenueName": "KB Srinivasa A/C 2K Dolby 7.1: Pamuru"
  },
  "KCKN": {
    "AvailableFormats": "2D",
    "City": "Kondagaon",
    "Latitude": "19.5952",
    "Longitude": "81.6674",
    "RegionCode": "KNGN",
    "State": "Chhattisgarh",
    "SubRegionCode": "KNGN",
    "VenueAddress": "Bazar para, Near Sahu Communication, Kondagaon, Chhattisgarh 494226, India",
    "VenueCode": "KCKN",
    "VenueName": "Kishore Cineplex: Kondagaon"
  },
  "KDCG": {
    "AvailableFormats": "",
    "City": "Guwahati",
    "Latitude": "26.1789",
    "Longitude": "91.7423",
    "RegionCode": "GUW",
    "State": "Assam",
    "SubRegionCode": "GUW",
    "VenueAddress": "Shradhanjali Complex, A T Road, Fancy Bazaar, Near Railway Gate No. 3, Guwahati, Assam 781001, India",
    "VenueCode": "KDCG",
    "VenueName": "Kelvin Gold Cinema: Guwahati (Newly Opened)"
  },
  "KICT": {
    "AvailableFormats": "2D",
    "City": "Tirupur",
    "Latitude": "11.142",
    "Longitude": "77.3239",
    "RegionCode": "TIRP",
    "State": "Tamil Nadu",
    "SubRegionCode": "TIRP",
    "VenueAddress": "Kumaran Road No 71, AVP Rd, Periyar Colony, Anupparpalayam Pudur, Near Juki Machinery India Private Limited, Tirupur, Tamil Nadu 641601, India",
    "VenueCode": "KICT",
    "VenueName": "Kalaivani Cinemas A/C DOLBY 9.2 Surround: Tirupur"
  },
  "KKSC": {
    "AvailableFormats": "2D",
    "City": "Memari",
    "Latitude": "23.1691",
    "Longitude": "88.0982",
    "RegionCode": "MMRR",
    "State": "West Bengal",
    "SubRegionCode": "MMRR",
    "VenueAddress": "Memari-Tarkeswar Road, Near Anita Super Market, Memari Auto Stores, Memari, West Bengal 713146, India",
    "VenueCode": "KKSC",
    "VenueName": "Kristi Cinema: Memari"
  },
  "KMAJ": {
    "AvailableFormats": "2D",
    "City": "Lonand",
    "Latitude": "18.038",
    "Longitude": "74.1832",
    "RegionCode": "LONZ",
    "State": "Maharashtra",
    "SubRegionCode": "LONZ",
    "VenueAddress": "Near Kumar Gas Egancy, Gyanaba Mauli Road, Lonand, Maharashtra 415521, India",
    "VenueCode": "KMAJ",
    "VenueName": "K Mahindra Cinema: Lonand"
  },
  "KOMS": {
    "AvailableFormats": "2D",
    "City": "Sahjanwa",
    "Latitude": "26.7594",
    "Longitude": "83.2154",
    "RegionCode": "GRKP",
    "State": "Uttar Pradesh",
    "SubRegionCode": "GRKP",
    "VenueAddress": "Sanichar Bazaar, Mandi Road, Sahjanwa, Uttar Pradesh 273209, India",
    "VenueCode": "KOMS",
    "VenueName": "Hari Om Multiplex: Sahjanwa"
  },
  "KRIH": {
    "AvailableFormats": "2D",
    "City": "Rajnandgaon",
    "Latitude": "21.0942",
    "Longitude": "81.034",
    "RegionCode": "RAJA",
    "State": "Chhattisgarh",
    "SubRegionCode": "RAJA",
    "VenueAddress": "Cinema Lane, Near Manav Mandir Chowk, Rajnandgaon, Chhattisgarh 491441, India",
    "VenueCode": "KRIH",
    "VenueName": "Krishna Talkies: Rajnandgaon"
  },
  "KRVN": {
    "AvailableFormats": "",
    "City": "Vrindavan",
    "Latitude": "18.0799",
    "Longitude": "80.8238",
    "RegionCode": "MATH",
    "State": "Uttar Pradesh",
    "SubRegionCode": "MATH",
    "VenueAddress": "Near Srinivas Mobiles, SH 12, Vrindavan, Uttar Pradesh 507133, India",
    "VenueCode": "KRVN",
    "VenueName": "Krishna Funland Cinema: Vrindavan"
  },
  "KSTC": {
    "AvailableFormats": "2D",
    "City": "Alappuzha",
    "Latitude": "9.68907",
    "Longitude": "76.3428",
    "RegionCode": "CRTL",
    "State": "Kerala",
    "SubRegionCode": "CRTL",
    "VenueAddress": "Cherthala Road, Kodathikavala, Cherthala, Near State Bank of India, Cherthala Branch, Alappuzha, Kerala 688524, India",
    "VenueCode": "KSTC",
    "VenueName": "Cherthala: Kairali Sree Theatre"
  },
  "KTKO": {
    "AvailableFormats": "2D",
    "City": "B.Kothakota",
    "Latitude": "13.6586",
    "Longitude": "78.2672",
    "RegionCode": "BKOT",
    "State": "Andhra Pradesh",
    "SubRegionCode": "BKOT",
    "VenueAddress": "Bypass Road, Handadi, B.Kothakota, Andhra Pradesh 517370, India",
    "VenueCode": "KTKO",
    "VenueName": "Sri Venkateswara Theater Dolby Digital"
  },
  "LAIM": {
    "AvailableFormats": "2D",
    "City": "Vijayawada",
    "Latitude": "16.5066",
    "Longitude": "80.6285",
    "RegionCode": "VIJA",
    "State": "Andhra Pradesh",
    "SubRegionCode": "VIJA",
    "VenueAddress": "4th Floor, Laila Mall, M.G. Road, Vijayawada, Andhra Pradesh 520002, India",
    "VenueCode": "LAIM",
    "VenueName": "INOX: Laila Mall, M.G. Road"
  },
  "LCMV": {
    "AvailableFormats": "2D",
    "City": "Kankavli",
    "Latitude": "16.2655",
    "Longitude": "73.7061",
    "RegionCode": "KNKS",
    "State": "Maharashtra",
    "SubRegionCode": "KNKS",
    "VenueAddress": "Achara Road, Near - Police Station, Kalmath, Kankavli, Maharashtra 416602, India",
    "VenueCode": "LCMV",
    "VenueName": "Laxmi Chitramandir: Kankavli"
  },
  "LCZP": {
    "AvailableFormats": "2D",
    "City": "Zirakpur",
    "Latitude": "30.6599",
    "Longitude": "76.8218",
    "RegionCode": "CHD",
    "State": "Punjab",
    "SubRegionCode": "ZRIK",
    "VenueAddress": "Paras Down Town Square Mall, The Golden Plaza Hotel, Ambala Chandigarh Express Way, Zirakpur, Zirakpur, Punjab 140603, India",
    "VenueCode": "LCZP",
    "VenueName": "Legend Cinemas: Paras Downtown Square, Zirakpur"
  },
  "LKCT": {
    "AvailableFormats": "2D",
    "City": "Tanuku",
    "Latitude": "16.7493",
    "Longitude": "81.6831",
    "RegionCode": "TADP",
    "State": "Andhra Pradesh",
    "SubRegionCode": "TADP",
    "VenueAddress": "Lakshmi Complex, Velpur Road,Venkiatrayapuram, Near Kadharawara Sweet Shop, Tanuku, Andhra Pradesh 534211, India",
    "VenueCode": "LKCT",
    "VenueName": "Lakshmi Complex: Tanuku"
  },
  "LLCH": {
    "AvailableFormats": "2D",
    "City": "Haldwani",
    "Latitude": "29.2121",
    "Longitude": "79.5275",
    "RegionCode": "HALD",
    "State": "Uttarakhand",
    "SubRegionCode": "HALD",
    "VenueAddress": "Sindhi Chaurah, Rampur Road, Nainital, Haldwani, Uttarakhand 263139, India",
    "VenueCode": "LLCH",
    "VenueName": "Laxmi Cineplex: Haldwani"
  },
  "LPCH": {
    "AvailableFormats": "2D|3D",
    "City": "Hubballi (Hubli)",
    "Latitude": "15.3485",
    "Longitude": "75.1443",
    "RegionCode": "HUBL",
    "State": "Karnataka",
    "SubRegionCode": "HUBL",
    "VenueAddress": "3rd Floor, Laxmi Mall, Coen Road, Shree Shakti Road, J C Nagar, New Hubli, Hubballi (Hubli), Karnataka 580020, India",
    "VenueCode": "LPCH",
    "VenueName": "Laxmi Citypride Multiplex: Laxmi Mall, Hubli"
  },
  "LTTR": {
    "AvailableFormats": "2D",
    "City": "Tiptur",
    "Latitude": "13.254",
    "Longitude": "76.4778",
    "RegionCode": "TIPT",
    "State": "Karnataka",
    "SubRegionCode": "TIPT",
    "VenueAddress": "Keragodi Road, Chamundeshwari, Tiptur, Karnataka 572201, India",
    "VenueCode": "LTTR",
    "VenueName": "Lakshmi Talkies: Tiptur"
  },
  "M2PP": {
    "AvailableFormats": "2D",
    "City": "Delhi",
    "Latitude": "28.6895",
    "Longitude": "77.1334",
    "RegionCode": "NCR",
    "State": "NCR",
    "SubRegionCode": "DELHI",
    "VenueAddress": "4 Community Centre, Road No. 44, Opposite Punjab National Bank, Delhi, NCR 110088, India",
    "VenueCode": "M2PP",
    "VenueName": "M2K: Pitampura"
  },
  "MACT": {
    "AvailableFormats": "2D",
    "City": "Machilipatnam",
    "Latitude": "16.1836",
    "Longitude": "81.1324",
    "RegionCode": "MAPM",
    "State": "Andhra Pradesh",
    "SubRegionCode": "MAPM",
    "VenueAddress": "NH 214A, Srinivas Nagar Colony, Krishna District, Machilipatnam, Andhra Pradesh 521001, India",
    "VenueCode": "MACT",
    "VenueName": "Siri Complex: Machilipatnam"
  },
  "MAHM": {
    "AvailableFormats": "2D",
    "City": "Hyderabad",
    "Latitude": "17.4999",
    "Longitude": "78.3866",
    "RegionCode": "HYD",
    "State": "Telangana",
    "SubRegionCode": "HYD",
    "VenueAddress": "1-2-29/93, Jai Bharat Nagar, Hyder Nagar, Vasantha Nagar, Nizampet, Hyderabad, Telangana 500090, India",
    "VenueCode": "MAHM",
    "VenueName": "Mallikarjuna 70mm A/C DTS: Kukatpally"
  },
  "MASA": {
    "AvailableFormats": "2D",
    "City": "Ahmedabad",
    "Latitude": "23.0317",
    "Longitude": "72.5705",
    "RegionCode": "AHD",
    "State": "Gujarat",
    "SubRegionCode": "AHD",
    "VenueAddress": "Opposite City Gold Cinema, Ashram Road, Near Kotak Mahindra Bank, Ahmedabad, Gujarat 380009, India",
    "VenueCode": "MASA",
    "VenueName": "Mukta A2 Shiv Cinema: Ahmedabad"
  },
  "MBBR": {
    "AvailableFormats": "2D",
    "City": "Rajakumari",
    "Latitude": "9.9686",
    "Longitude": "77.1495",
    "RegionCode": "RAAJ",
    "State": "Kerala",
    "SubRegionCode": "RAAJ",
    "VenueAddress": "X49X+CQX, Murikkumthotti - Senapathy, Vattapara Udumbanchola Road, Rajakumari, Kerala 685619, India",
    "VenueCode": "MBBR",
    "VenueName": "MAR Basil EVM Theatre: Rajakumari"
  },
  "MCAN": {
    "AvailableFormats": "3D|2D",
    "City": "Ulhasnagar",
    "Latitude": "19.2083",
    "Longitude": "73.1966",
    "RegionCode": "MUMBAI",
    "State": "Maharashtra",
    "SubRegionCode": "ULHA",
    "VenueAddress": "854, Kalyan - Badlapur Road, Wimco Naka Matoshree Nagar, Ambernath, Ulhasnagar, Maharashtra 421505, India",
    "VenueCode": "MCAN",
    "VenueName": "Miraj Cinemas, Star: Ambernath"
  },
  "MCFD": {
    "AvailableFormats": "2D",
    "City": "Thalassery",
    "Latitude": "11.7452",
    "Longitude": "75.4955",
    "RegionCode": "THAY",
    "State": "Kerala",
    "SubRegionCode": "THAY",
    "VenueAddress": "Jubilee Road, Pilakool, Thalassery, Kerala 670101, India",
    "VenueCode": "MCFD",
    "VenueName": "Magic Frames Downtown Mall: Thalassery"
  },
  "MCKK": {
    "AvailableFormats": "2D|3D",
    "City": "Kolkata",
    "Latitude": "22.5816",
    "Longitude": "88.4627",
    "RegionCode": "KOLK",
    "State": "West Bengal",
    "SubRegionCode": "KOLK",
    "VenueAddress": "The Terminus Bulding, Plot No. BG/12, AA-1B, New Town, Rajarhat, Kolkata, West Bengal 700156, India",
    "VenueCode": "MCKK",
    "VenueName": "Miraj Cinemas: Newtown, Kolkata"
  },
  "MCPR": {
    "AvailableFormats": "2D",
    "City": "Poovar",
    "Latitude": "8.3212",
    "Longitude": "77.0635",
    "RegionCode": "TRIV",
    "State": "Kerala",
    "SubRegionCode": "TRIV",
    "VenueAddress": "Poovar Vizhinjam Road, Near Sruthi Royal Auditorium, Poovar, Kerala 695525, India",
    "VenueCode": "MCPR",
    "VenueName": "Mridhanga Cineplex 4K Dolby Atmos: Poovar"
  },
  "MCTC": {
    "AvailableFormats": "2D",
    "City": "Coimbatore",
    "Latitude": "11.0776",
    "Longitude": "76.9419",
    "RegionCode": "COIM",
    "State": "Tamil Nadu",
    "SubRegionCode": "COIM",
    "VenueAddress": "Mettupalayam Road, Cheran Colony, Thudiyalur, Near Raj Driving School, Coimbatore, Tamil Nadu 641034, India",
    "VenueCode": "MCTC",
    "VenueName": "Murugan Cinemas A/C 4K Atmos: Thudiyalur"
  },
  "MDGJ": {
    "AvailableFormats": "2D",
    "City": "Daltonganj",
    "Latitude": "24.0411",
    "Longitude": "84.0651",
    "RegionCode": "DATG",
    "State": "Jharkhand",
    "SubRegionCode": "DATG",
    "VenueAddress": "Near Jalihata Bus Stand, Daltonganj Road, Pahari Muhalla, Medininagar, Daltonganj, Jharkhand 822101, India",
    "VenueCode": "MDGJ",
    "VenueName": "Mohan Cinema: Daltonganj"
  },
  "MEMB": {
    "AvailableFormats": "2D",
    "City": "Baddi",
    "Latitude": "30.9255",
    "Longitude": "76.7993",
    "RegionCode": "BADD",
    "State": "Himachal Pradesh",
    "SubRegionCode": "BADD",
    "VenueAddress": "Motia Plaza, Barotiwala Road, Baddi, Himachal Pradesh 173205, India",
    "VenueCode": "MEMB",
    "VenueName": "Maurice Multiplex: Baddi"
  },
  "MFCP": {
    "AvailableFormats": "2D",
    "City": "Pattambi",
    "Latitude": "10.8044",
    "Longitude": "76.1948",
    "RegionCode": "PTMB",
    "State": "Kerala",
    "SubRegionCode": "PTMB",
    "VenueAddress": "Magic Frames, Vadakumuri, Pattambi, Kerala 679303, India",
    "VenueCode": "MFCP",
    "VenueName": "Magic Frames Cinemas 4K Laser 3D Atmos: Pattambi"
  },
  "MHNU": {
    "AvailableFormats": "3D|2D",
    "City": "Ghaziabad",
    "Latitude": "28.6453",
    "Longitude": "77.336",
    "RegionCode": "NCR",
    "State": "NCR",
    "SubRegionCode": "GHAZ",
    "VenueAddress": "Mahagun Metro Mall, Sector-3, Vaishali, Vaishali Sector 3, Ghaziabad, NCR 201012, India",
    "VenueCode": "MHNU",
    "VenueName": "PVR: Mahagun, Ghaziabad"
  },
  "MISC": {
    "AvailableFormats": "2D",
    "City": "Hooghly",
    "Latitude": "22.7766",
    "Longitude": "88.3252",
    "RegionCode": "CHDD",
    "State": "West Bengal",
    "SubRegionCode": "CHDD",
    "VenueAddress": "Grand Trunk Road, Sheoraphuli, Near St. John`s Academy, Hooghly, West Bengal 712223, India",
    "VenueCode": "MISC",
    "VenueName": "Mini Sushama Cinema: Sheoraphuli"
  },
  "MKCK": {
    "AvailableFormats": "2D",
    "City": "Aravakurichi",
    "Latitude": "10.7803",
    "Longitude": "77.9122",
    "RegionCode": "ARAV",
    "State": "Tamil Nadu",
    "SubRegionCode": "ARAV",
    "VenueAddress": "Aravakurichi Main Road, Aravakurichi, Tamil Nadu, Aravakurichi, Tamil Nadu 639201, India",
    "VenueCode": "MKCK",
    "VenueName": "Makkal Cinemas A/C: Aravakurichi"
  },
  "MLCK": {
    "AvailableFormats": "2D",
    "City": "Shoranur",
    "Latitude": "10.7603",
    "Longitude": "76.2736",
    "RegionCode": "SHNR",
    "State": "Kerala",
    "SubRegionCode": "SHNR",
    "VenueAddress": "Shoranur Ring Road, Railway Station Junction, Shoranur, Kerala 679121, India",
    "VenueCode": "MLCK",
    "VenueName": "M Lal, Aashirvad Cineplexx: Shoranur"
  },
  "MMCJ": {
    "AvailableFormats": "2D",
    "City": "Jasdan",
    "Latitude": "22.0243",
    "Longitude": "71.1793",
    "RegionCode": "JASD",
    "State": "Gujarat",
    "SubRegionCode": "JASD",
    "VenueAddress": "Ring Road, Atkot Road, Aanand Nagar, Jasdan, Gujarat 360050, India",
    "VenueCode": "MMCJ",
    "VenueName": "Miraj Cinemas: Citypride Multiplex, Jasdan"
  },
  "MMKC": {
    "AvailableFormats": "2D",
    "City": "Chennai",
    "Latitude": "12.9198",
    "Longitude": "80.1957",
    "RegionCode": "CHEN",
    "State": "Tamil Nadu",
    "SubRegionCode": "CHEN",
    "VenueAddress": "No. 4/347 Velachery Main Road, Medavakkam, Chennai, Tamil Nadu 600100, India",
    "VenueCode": "MMKC",
    "VenueName": "Medavakkam Kumaran Cinemas RGB LASER Dolby Atmos"
  },
  "MMTA": {
    "AvailableFormats": "2D",
    "City": "Kochi",
    "Latitude": "10.1072",
    "Longitude": "76.3603",
    "RegionCode": "PALY",
    "State": "Kerala",
    "SubRegionCode": "PALY",
    "VenueAddress": "Periyar Nagar, T2/10, Perumbavoor Aluva Road, Near ICICI Bank, Kochi, Kerala 683101, India",
    "VenueCode": "MMTA",
    "VenueName": "Matha Madhurya RGB Laser 3D Dolby Atmos: Aluva"
  },
  "MMZP": {
    "AvailableFormats": "2D",
    "City": "Ponda",
    "Latitude": "15.4001",
    "Longitude": "74.0185",
    "RegionCode": "GOA",
    "State": "Goa",
    "SubRegionCode": "PONA",
    "VenueAddress": "Upper Bazar Road, Prabhu Nagar, Ponda, Goa 403401, India",
    "VenueCode": "MMZP",
    "VenueName": "Magic Moviez: Ponda"
  },
  "MOON": {
    "AvailableFormats": "2D",
    "City": "Kathua",
    "Latitude": "32.3675",
    "Longitude": "75.5236",
    "RegionCode": "KATH",
    "State": "Jammu and Kashmir",
    "SubRegionCode": "KATH",
    "VenueAddress": "Main Bazaar, Urliwand, ITI Road, Kathua HO, Near Adidas showroom, Kathua, Jammu and Kashmir 184101, India",
    "VenueCode": "MOON",
    "VenueName": "Moonlight Cinema: Kathua"
  },
  "MRGB": {
    "AvailableFormats": "2D",
    "City": "Bengaluru",
    "Latitude": "12.8906",
    "Longitude": "77.5622",
    "RegionCode": "BANG",
    "State": "Karnataka",
    "SubRegionCode": "BANG",
    "VenueAddress": "No 21/5A, Konanakunte Cross Marg, Konanakunte, Bengaluru, Karnataka 560062, India",
    "VenueCode": "MRGB",
    "VenueName": "Manasa RGB Laser ATMOS: Konanakunte"
  },
  "MRTE": {
    "AvailableFormats": "2D",
    "City": "Mandya",
    "Latitude": "12.5275",
    "Longitude": "76.8955",
    "RegionCode": "MND",
    "State": "Karnataka",
    "SubRegionCode": "MND",
    "VenueAddress": "Bangalore Mysore Highway, M.C. Road, Ashok Nagar, Mandya, Karnataka 571401, India",
    "VenueCode": "MRTE",
    "VenueName": "Mahaveer Theatre: Mandya"
  },
  "MSMD": {
    "AvailableFormats": "2D",
    "City": "Bengaluru",
    "Latitude": "12.9899",
    "Longitude": "77.5005",
    "RegionCode": "BANG",
    "State": "Karnataka",
    "SubRegionCode": "BANG",
    "VenueAddress": "3, 6 / 1A, 1st Cross, Magadi Main Road, Sunkadakatte, Bengaluru, Karnataka 560091, India",
    "VenueCode": "MSMD",
    "VenueName": "Miraj Cinemas: TGN Lotus Elite, Magadi Road"
  },
  "MTDK": {
    "AvailableFormats": "2D|3D",
    "City": "Davanagere",
    "Latitude": "14.4551",
    "Longitude": "75.9056",
    "RegionCode": "DAVA",
    "State": "Karnataka",
    "SubRegionCode": "DAVA",
    "VenueAddress": "3rd Floor, SS Gardenia Mall, SS Layout, A Block, Shamanur Road, Near Lakshmi Flour Mill, Davanagere, Karnataka 577004, India",
    "VenueCode": "MTDK",
    "VenueName": "Movietime Cinemas: Davanagere"
  },
  "MTMA": {
    "AvailableFormats": "3D|2D",
    "City": "Mumbai",
    "Latitude": "19.1892",
    "Longitude": "72.8349",
    "RegionCode": "MUMBAI",
    "State": "Maharashtra",
    "SubRegionCode": "MWEST",
    "VenueAddress": "Jagdamba Commercial Complex, Besides Sai Palace Grand, Link Road, Evershine Nagar, Malad West, Mumbai, Maharashtra 400064, India",
    "VenueCode": "MTMA",
    "VenueName": "MOVIETIME: MALAD (WEST)"
  },
  "MTSC": {
    "AvailableFormats": "3D|2D",
    "City": "Mumbai",
    "Latitude": "19.0283",
    "Longitude": "72.8442",
    "RegionCode": "MUMBAI",
    "State": "Maharashtra",
    "SubRegionCode": "MCENT",
    "VenueAddress": "Bijlee Barkha Complex, Junction of Manmala Tank Road, Taikalwadi Road, Matunga(W), Near Maharashtra Municipal School, Mumbai, Maharashtra 400016, India",
    "VenueCode": "MTSC",
    "VenueName": "Movietime Star City: Matunga (W)"
  },
  "MUTA": {
    "AvailableFormats": "2D",
    "City": "Azamgarh",
    "Latitude": "26.0749",
    "Longitude": "83.1866",
    "RegionCode": "AZMG",
    "State": "Uttar Pradesh",
    "SubRegionCode": "AZMG",
    "VenueAddress": "City Life Mall, Paharpur, Azamgarh Dohrighat Gorakhpur Road, Near Bhairo Baba Mandir Maharajgang, Azamgarh, Uttar Pradesh 276001, India",
    "VenueCode": "MUTA",
    "VenueName": "Murli DD Cinemas: Azmagarh"
  },
  "MXBY": {
    "AvailableFormats": "2D",
    "City": "Mumbai",
    "Latitude": "19.2967",
    "Longitude": "72.8479",
    "RegionCode": "MUMBAI",
    "State": "Maharashtra",
    "SubRegionCode": "MWEST",
    "VenueAddress": "Maxus Mall, 3rd Floor, 150 Feet Road, Near Railway Flyover, Opposite Salasar Bridge Bhoomi, Mumbai, Maharashtra 401101, India",
    "VenueCode": "MXBY",
    "VenueName": "Maxus Cinemas: Bhayander"
  },
  "MYCP": {
    "AvailableFormats": "2D",
    "City": "Gorakhpur",
    "Latitude": "26.747",
    "Longitude": "83.3562",
    "RegionCode": "GRKP",
    "State": "Uttar Pradesh",
    "SubRegionCode": "GRKP",
    "VenueAddress": "Bade Kajipur, Geeta Press Road, Near Kothe Wali Masjid, Gorakhpur, Uttar Pradesh 273005, India",
    "VenueCode": "MYCP",
    "VenueName": "Maya Cineplex: Gorakhpur"
  },
  "MZHA": {
    "AvailableFormats": "2D",
    "City": "Haldwani",
    "Latitude": "29.1085",
    "Longitude": "79.5245",
    "RegionCode": "HALD",
    "State": "Uttarakhand",
    "SubRegionCode": "HALD",
    "VenueAddress": "Keshav Plaza Gola Road, Naya Bazar, Haldwani, Uttarakhand 263139, India",
    "VenueCode": "MZHA",
    "VenueName": "Movie Zone Cinema: Haldwani Halduchour Lalkuan"
  },
  "NCCI": {
    "AvailableFormats": "",
    "City": "Chhatrapati Sambhajinagar (Aurangabad)",
    "Latitude": "19.8752",
    "Longitude": "75.354",
    "RegionCode": "AURA",
    "State": "Maharashtra",
    "SubRegionCode": "AURA",
    "VenueAddress": "Jalna Road Nupur Cinetorium, Seven Hills Flyover Road, Near Fire Brigade Office, Chhatrapati Sambhajinagar (Aurangabad), Maharashtra 431009, India",
    "VenueCode": "NCCI",
    "VenueName": "Nupur Cinema: Chh.Sambhajinagar (Newly Renovated)"
  },
  "NCLM": {
    "AvailableFormats": "2D",
    "City": "Mokama",
    "Latitude": "25.3956",
    "Longitude": "85.9237",
    "RegionCode": "MOKA",
    "State": "Bihar",
    "SubRegionCode": "MOKA",
    "VenueAddress": "National Highway 31, Sakarwar Tola, Mokameh, Mokama, Bihar 803302, India",
    "VenueCode": "NCLM",
    "VenueName": "New Cinema (Lucky House): Mokama"
  },
  "NECB": {
    "AvailableFormats": "2D",
    "City": "Billawar",
    "Latitude": "32.6136",
    "Longitude": "75.6041",
    "RegionCode": "BILL",
    "State": "Jammu and Kashmir",
    "SubRegionCode": "BILL",
    "VenueAddress": "Tilla Billawar, Near Bharat Stone Crusher, Billawar, Jammu and Kashmir 184203, India",
    "VenueCode": "NECB",
    "VenueName": "Neelam Cinema: Billawar"
  },
  "NJCJ": {
    "AvailableFormats": "2D|3D",
    "City": "Jhansi",
    "Latitude": "25.4482",
    "Longitude": "78.567",
    "RegionCode": "JNSI",
    "State": "Uttar Pradesh",
    "SubRegionCode": "JNSI",
    "VenueAddress": "Civil Lines, Shivpuri - Jhansi Road, Jhansi, Uttar Pradesh 284001, India",
    "VenueCode": "NJCJ",
    "VenueName": "Nataraj Cinema: Jhansi"
  },
  "NMNH": {
    "AvailableFormats": "2D",
    "City": "Neemuch",
    "Latitude": "24.457",
    "Longitude": "74.8711",
    "RegionCode": "NMCH",
    "State": "Madhya Pradesh",
    "SubRegionCode": "NMCH",
    "VenueAddress": "Patel Plaza, Tagore Marg, Neemuch, Madhya Pradesh 458441, India",
    "VenueCode": "NMNH",
    "VenueName": "Neemuch Multiplex: Patel Plaza"
  },
  "NRAA": {
    "AvailableFormats": "2D",
    "City": "Akola",
    "Latitude": "20.7087",
    "Longitude": "76.9946",
    "RegionCode": "AKOL",
    "State": "Maharashtra",
    "SubRegionCode": "AKOL",
    "VenueAddress": "Tilak Road, Near Ram Mandir, Malipura, Akola, Maharashtra 444001, India",
    "VenueCode": "NRAA",
    "VenueName": "New Regal Cinema: Akola"
  },
  "NTBT": {
    "AvailableFormats": "",
    "City": "Bantumilli",
    "Latitude": "16.3719",
    "Longitude": "81.2702",
    "RegionCode": "BANT",
    "State": "Andhra Pradesh",
    "SubRegionCode": "BANT",
    "VenueAddress": "Local Road Nataraj Theatre, Loclaroad, Bantumilli, Andhra Pradesh 521324, India",
    "VenueCode": "NTBT",
    "VenueName": "Nataraj Theater: Bantumilli"
  },
  "NTPU": {
    "AvailableFormats": "2D",
    "City": "Pudunagaram",
    "Latitude": "10.6814",
    "Longitude": "76.6736",
    "RegionCode": "PLKK",
    "State": "Kerala",
    "SubRegionCode": "PLKK",
    "VenueAddress": "Koduvayur, Palakkad, Pudunagaram, Kerala 678503, India",
    "VenueCode": "NTPU",
    "VenueName": "New Theatre 2K 3D Dolby Atmos: Pudunagaram"
  },
  "NVRN": {
    "AvailableFormats": "2D",
    "City": "Vijayawada",
    "Latitude": "16.5095",
    "Longitude": "80.6272",
    "RegionCode": "KADU",
    "State": "Andhra Pradesh",
    "SubRegionCode": "KADU",
    "VenueAddress": "Buckinghampeta, Palaparthi Vari Street, Near Help Hospitals, Vijayawada, Andhra Pradesh 520002, India",
    "VenueCode": "NVRN",
    "VenueName": "Navarang Theatre: Vijayawada"
  },
  "NYBW": {
    "AvailableFormats": "2D",
    "City": "Banswara",
    "Latitude": "23.5279",
    "Longitude": "74.4269",
    "RegionCode": "BANS",
    "State": "Rajasthan",
    "SubRegionCode": "BANS",
    "VenueAddress": "The Grand KB Mall, 3rd Floor, Plot 31B, Road No 5, RIICO Industrial Area, Thikariya, Banswara, Rajasthan 327001, India",
    "VenueCode": "NYBW",
    "VenueName": "NY Cinema Grand KB Mall: Banswara"
  },
  "OCBN": {
    "AvailableFormats": "2D",
    "City": "Ahmedabad",
    "Latitude": "23.0424",
    "Longitude": "72.6309",
    "RegionCode": "AHD",
    "State": "Gujarat",
    "SubRegionCode": "AHD",
    "VenueAddress": "3rd Floor, Pushkar Business Park, Bapunagar, Near D-Mart, Ahmedabad, Gujarat 380024, India",
    "VenueCode": "OCBN",
    "VenueName": "Orange Cinemas: Bapunagar"
  },
  "ONEB": {
    "AvailableFormats": "",
    "City": "Mumbai",
    "Latitude": "18.9956",
    "Longitude": "72.8363",
    "RegionCode": "MUMBAI",
    "State": "Maharashtra",
    "SubRegionCode": "MCENT",
    "VenueAddress": "Dr. Babasaheb Ambedhkar Marg, Curry Road, E, Mahadev Palav Marg, Lal Baug, Mumbai, Maharashtra 400012, India",
    "VenueCode": "ONEB",
    "VenueName": "1 Cinema Powered by Mukta A2: Bharatmata"
  },
  "PACN": {
    "AvailableFormats": "2D",
    "City": "Nagpur",
    "Latitude": "21.1392",
    "Longitude": "79.0792",
    "RegionCode": "NAGP",
    "State": "Maharashtra",
    "SubRegionCode": "NAGP",
    "VenueAddress": "Panchsheel Square 1, New Ramdaspeth, Panchshil Chowk, Nagpur, Maharashtra 440012, India",
    "VenueCode": "PACN",
    "VenueName": "Panchsheel Cinema: Nagpur"
  },
  "PAYD": {
    "AvailableFormats": "2D",
    "City": "Yellamanchili",
    "Latitude": "17.5497",
    "Longitude": "82.8519",
    "RegionCode": "YLMN",
    "State": "Andhra Pradesh",
    "SubRegionCode": "YLMN",
    "VenueAddress": "Shivalayam Road, Near Niharika Steel Shop, Yellamanchili, Andhra Pradesh 531055, India",
    "VenueCode": "PAYD",
    "VenueName": "Parameswari A/C DTS: Yellamanchili"
  },
  "PCAN": {
    "AvailableFormats": "2D|3D",
    "City": "Chennai",
    "Latitude": "13.0826",
    "Longitude": "80.1948",
    "RegionCode": "CHEN",
    "State": "Tamil Nadu",
    "SubRegionCode": "CHEN",
    "VenueAddress": "3rd Floor, VR Mall, Metro Zone, No 44, Pillaiyar Koil Street, Jawaharlal Nehru Road, Anna Nagar, Chennai, Tamil Nadu 600040, India",
    "VenueCode": "PCAN",
    "VenueName": "PVR: VR Chennai, Anna Nagar"
  },
  "PCCK": {
    "AvailableFormats": "3D|2D",
    "City": "Kota",
    "Latitude": "25.142",
    "Longitude": "75.8544",
    "RegionCode": "KOTA",
    "State": "Rajasthan",
    "SubRegionCode": "KOTA",
    "VenueAddress": "4th Floor, Cine Mall, Indraprastha Industrial Area, Jhalawar Road, Kota, Rajasthan 324005, India",
    "VenueCode": "PCCK",
    "VenueName": "PVR: Cinemall, Kota"
  },
  "PCLZ": {
    "AvailableFormats": "2D|3D",
    "City": "Yamunanagar",
    "Latitude": "30.1336",
    "Longitude": "77.2763",
    "RegionCode": "YAMU",
    "State": "Haryana",
    "SubRegionCode": "YAMU",
    "VenueAddress": "2nd Floor E-19, Industrial Area, Opposite Bus Stand, Yamunanagar, Haryana 135001, India",
    "VenueCode": "PCLZ",
    "VenueName": "PVR: City Mall, Yamunanagar"
  },
  "PCPL": {
    "AvailableFormats": "3D|2D",
    "City": "Delhi",
    "Latitude": "28.6351",
    "Longitude": "77.2195",
    "RegionCode": "NCR",
    "State": "NCR",
    "SubRegionCode": "DELHI",
    "VenueAddress": "Plaza Building, Block H, Outer Circle, Connaught Place, Near Standard Chartered Bank, Delhi, NCR 110001, India",
    "VenueCode": "PCPL",
    "VenueName": "PVR: Plaza-CP, Delhi"
  },
  "PCVV": {
    "AvailableFormats": "2D|3D",
    "City": "Chandigarh",
    "Latitude": "30.7068",
    "Longitude": "76.7966",
    "RegionCode": "CHD",
    "State": "Punjab",
    "SubRegionCode": "CHD",
    "VenueAddress": "177/D, Centra Mall, Industrial Phase-1, Near Tribune Chowk, Chandigarh, Punjab 160002, India",
    "VenueCode": "PCVV",
    "VenueName": "PVR: Centra, Chandigarh"
  },
  "PDDV": {
    "AvailableFormats": "2D|3D",
    "City": "Mumbai",
    "Latitude": "19.1149",
    "Longitude": "72.8273",
    "RegionCode": "MUMBAI",
    "State": "Maharashtra",
    "SubRegionCode": "MWEST",
    "VenueAddress": "5th Floor, Dynamix Mall, Near Chandan Cinema, J M Marg, Juhu, Mumbai, Maharashtra 400049, India",
    "VenueCode": "PDDV",
    "VenueName": "PVR: Dynamix, Juhu"
  },
  "PDYA": {
    "AvailableFormats": "2D",
    "City": "Bengaluru",
    "Latitude": "13.022",
    "Longitude": "77.6033",
    "RegionCode": "BANG",
    "State": "Karnataka",
    "SubRegionCode": "BANG",
    "VenueAddress": "2-Dinnur Main Road, Sultanpalya, RT Nagar Post, Near Government Medical Center, Bengaluru, Karnataka 560032, India",
    "VenueCode": "PDYA",
    "VenueName": "Pushpanjali Sultanpalya: A/C Digital 2K 3D Dolby"
  },
  "PFCM": {
    "AvailableFormats": "2D",
    "City": "Sultan Bathery",
    "Latitude": "11.6643",
    "Longitude": "76.2617",
    "RegionCode": "SULY",
    "State": "Kerala",
    "SubRegionCode": "SULY",
    "VenueAddress": "4th Floor, Mint Mall, Chungam, Near Trends, Sultan Bathery, Kerala 673592, India",
    "VenueCode": "PFCM",
    "VenueName": "Mint Cinemas A/C 2K 3D: Sulthan Bathery"
  },
  "PGND": {
    "AvailableFormats": "2D|3D",
    "City": "Greater Noida",
    "Latitude": "28.6061",
    "Longitude": "77.4294",
    "RegionCode": "NCR",
    "State": "NCR",
    "SubRegionCode": "GRET",
    "VenueAddress": "4th Floor, Gaur City Mall, Plot No. C-01B-GH-01, Sector 4, Greater Noida, NCR 201301, India",
    "VenueCode": "PGND",
    "VenueName": "PVR: Gaur City, Greater Noida"
  },
  "PICP": {
    "AvailableFormats": "2D",
    "City": "Perinthalmanna",
    "Latitude": "10.976190",
    "Longitude": "76.217047",
    "RegionCode": "PNTM",
    "State": "Kerala",
    "SubRegionCode": "PNTM",
    "VenueAddress": "Marketcity Mall, Kozhikode Road, Perinthalmanna, Kerala 679322, India",
    "VenueCode": "PICP",
    "VenueName": "Palaxi Cinemas: Perinthalmanna"
  },
  "PJDW": {
    "AvailableFormats": "2D",
    "City": "Mumbai",
    "Latitude": "19.0541",
    "Longitude": "72.8494",
    "RegionCode": "MUMBAI",
    "State": "Maharashtra",
    "SubRegionCode": "MWEST",
    "VenueAddress": "PVR LTD, Jio World Drive, BKC, Mumbai, Maharashtra 400051, India",
    "VenueCode": "PJDW",
    "VenueName": "Maison PVR: Jio World Drive-IN, Mumbai"
  },
  "PKHC": {
    "AvailableFormats": "2D",
    "City": "Salem",
    "Latitude": "11.6493",
    "Longitude": "78.1623",
    "RegionCode": "SALM",
    "State": "Tamil Nadu",
    "SubRegionCode": "SALM",
    "VenueAddress": "43, Gugai Erumapalayam Road, Kitchipalayam, Salem, Tamil Nadu 636015, India",
    "VenueCode": "PKHC",
    "VenueName": "Prakash Cinema A/C 4K DOLBY 7.1: Salem"
  },
  "PLMR": {
    "AvailableFormats": "2D",
    "City": "Palamaner",
    "Latitude": "13.2052",
    "Longitude": "78.7424",
    "RegionCode": "PLMN",
    "State": "Andhra Pradesh",
    "SubRegionCode": "PLMN",
    "VenueAddress": "Building No.13, 132, Lingayath Street, Palamaner, Andhra Pradesh 517408, India",
    "VenueCode": "PLMR",
    "VenueName": "Ranga Mahal Theater: Palamaner"
  },
  "PMAM": {
    "AvailableFormats": "2D",
    "City": "Ambala",
    "Latitude": "30.3419",
    "Longitude": "76.8377",
    "RegionCode": "AMB",
    "State": "Haryana",
    "SubRegionCode": "AMB",
    "VenueAddress": "Minerva Complex, Ambala Cantt, Rai Market Road, Near Big Bazaar, Opposite Indira Park, Ambala, Haryana 133001, India",
    "VenueCode": "PMAM",
    "VenueName": "Prime Cinema: Ambala"
  },
  "PMMC": {
    "AvailableFormats": "2D",
    "City": "Bengaluru",
    "Latitude": "12.9093",
    "Longitude": "77.5131",
    "RegionCode": "BANG",
    "State": "Karnataka",
    "SubRegionCode": "BANG",
    "VenueAddress": "No 244/1, Kenchena Halli Road, Rajarajeshwari Nagar, Bengaluru, Karnataka 560098, India",
    "VenueCode": "PMMC",
    "VenueName": "Movietime Cinemas: YGR Signature Mall, RR Nagar"
  },
  "PMPW": {
    "AvailableFormats": "2D|3D|IMAX 2D",
    "City": "Pune",
    "Latitude": "18.6005",
    "Longitude": "73.7565",
    "RegionCode": "PUNE",
    "State": "Maharashtra",
    "SubRegionCode": "PUNE",
    "VenueAddress": "3rd Floor, PUNE PMC,Phoenix mall of the Millennium, Banglore Highway, Wakad, Behind Sayaji Hotel Pune, Pune, Maharashtra 411057, India",
    "VenueCode": "PMPW",
    "VenueName": "INOX Megaplex: Phoenix Mall of the Millennium"
  },
  "PNMR": {
    "AvailableFormats": "3D|2D",
    "City": "Ranchi",
    "Latitude": "23.377",
    "Longitude": "85.3316",
    "RegionCode": "RANC",
    "State": "Jharkhand",
    "SubRegionCode": "RANC",
    "VenueAddress": "4th Floor, Nuclues Mall, Lalpur Circular Road, Next to CJM Residance, Near Women College, Ranchi, Jharkhand 834001, India",
    "VenueCode": "PNMR",
    "VenueName": "PVR: Nucleus Mall, Ranchi"
  },
  "POVI": {
    "AvailableFormats": "2D|3D",
    "City": "Mumbai",
    "Latitude": "19.1738",
    "Longitude": "72.8606",
    "RegionCode": "MUMBAI",
    "State": "Maharashtra",
    "SubRegionCode": "MWEST",
    "VenueAddress": "3rd Floor, Oberoi Mall, Off Western Express Highway, Goregaon(E), Near Indian Oil Petrol Pump, Mumbai, Maharashtra 400063, India",
    "VenueCode": "POVI",
    "VenueName": "PVR ICON: Oberoi Mall, Goregaon (E)"
  },
  "PPLL": {
    "AvailableFormats": "2D",
    "City": "Ludhiana",
    "Latitude": "30.8903",
    "Longitude": "75.849",
    "RegionCode": "LUDH",
    "State": "Punjab",
    "SubRegionCode": "LUDH",
    "VenueAddress": "Link Road Opposite Chevron Hotel, Jammu Colony, Near G.A.Motors, Ludhiana, Punjab 141003, India",
    "VenueCode": "PPLL",
    "VenueName": "Preet Palace: Ludhiana"
  },
  "PPPZ": {
    "AvailableFormats": "2D",
    "City": "Sagar",
    "Latitude": "23.8632",
    "Longitude": "78.8001",
    "RegionCode": "SAMP",
    "State": "Madhya Pradesh",
    "SubRegionCode": "SAMP",
    "VenueAddress": "Jabalpur Road, Shri Nagar Colony, Makroniya, Sagar, Madhya Pradesh 470001, India",
    "VenueCode": "PPPZ",
    "VenueName": "Paradise Platinum Plaza: Sagar"
  },
  "PRCX": {
    "AvailableFormats": "2D|3D",
    "City": "Hyderabad",
    "Latitude": "17.4232",
    "Longitude": "78.4277",
    "RegionCode": "HYD",
    "State": "Telangana",
    "SubRegionCode": "HYD",
    "VenueAddress": "Plot No.1, RK Complex, Road No.2, Oppsite L V Prasad Eye Hospital, Venkat Nagar, Banjara Hills, BNR Colony, Hyderabad, Telangana 500034, India",
    "VenueCode": "PRCX",
    "VenueName": "PVR: RK Cineplex, Hyderabad"
  },
  "PRKT": {
    "AvailableFormats": "2D",
    "City": "Katrenikona",
    "Latitude": "16.5829",
    "Longitude": "82.1534",
    "RegionCode": "KTRN",
    "State": "Andhra Pradesh",
    "SubRegionCode": "KTRN",
    "VenueAddress": "Mahipala Cheruvu - Pallamkurru Road, Near Janapriya Home Needs, Katrenikona, Andhra Pradesh 533212, India",
    "VenueCode": "PRKT",
    "VenueName": "Sri Parameswari Theater: Katrenikona"
  },
  "PRUR": {
    "AvailableFormats": "2D|3D",
    "City": "Rourkela",
    "Latitude": "22.243",
    "Longitude": "84.8268",
    "RegionCode": "RKOR",
    "State": "Odisha",
    "SubRegionCode": "RKOR",
    "VenueAddress": "Gopabandhu Nagar, Chhend Colony, Rourkela, Odisha 769015, India",
    "VenueCode": "PRUR",
    "VenueName": "PVR: Plutone, Rourkela"
  },
  "PSLX": {
    "AvailableFormats": "2D|3D|4DX",
    "City": "Lucknow",
    "Latitude": "26.785",
    "Longitude": "80.9922",
    "RegionCode": "LUCK",
    "State": "Uttar Pradesh",
    "SubRegionCode": "LUCK",
    "VenueAddress": "2nd Floor, Lulu Mall, Sushant Golf City, IBB-2T-5, Shaheed Path, Lucknow Tahsil, Lucknow, Uttar Pradesh 226030, India",
    "VenueCode": "PSLX",
    "VenueName": "PVR: SUPERPLEX Lulu, Lucknow"
  },
  "PSTM": {
    "AvailableFormats": "2D|3D",
    "City": "Ahmedabad",
    "Latitude": "23.0244",
    "Longitude": "72.6732",
    "RegionCode": "AHD",
    "State": "Gujarat",
    "SubRegionCode": "AHD",
    "VenueAddress": "4Th Floor Satyamev Emporio Mall, Sn 42 To 45, Siddhivinayak Arcade, Sardar Patel Road, Odhav Ind Estate, Odhav, Ahmedabad, Gujarat 382430, India",
    "VenueCode": "PSTM",
    "VenueName": "PVR: Satyamev Emporio Odhav, Ahmedabad"
  },
  "PTBZ": {
    "AvailableFormats": "3D|2D",
    "City": "Nanded",
    "Latitude": "19.1289",
    "Longitude": "77.3097",
    "RegionCode": "NAND",
    "State": "Maharashtra",
    "SubRegionCode": "NAND",
    "VenueAddress": "2nd Floor, Treasure Bazaar Mall,Latur Nanded Road, Vasarani,Treasure Bazaar, Nanded, Maharashtra 431606, India",
    "VenueCode": "PTBZ",
    "VenueName": "PVR: Treasure Bazaar Mall, Nanded"
  },
  "PTIN": {
    "AvailableFormats": "3D|2D|4DX",
    "City": "Indore",
    "Latitude": "22.7211",
    "Longitude": "75.8786",
    "RegionCode": "IND",
    "State": "Madhya Pradesh",
    "SubRegionCode": "IND",
    "VenueAddress": "4th Floor, Treasure Island Mall, 11, M.G.Road, South Tukoganj, Indore, Madhya Pradesh 452001, India",
    "VenueCode": "PTIN",
    "VenueName": "PVR: Treasure Island Mall, Indore"
  },
  "PTYK": {
    "AvailableFormats": "2D",
    "City": "Bengaluru",
    "Latitude": "13.0969",
    "Longitude": "77.5962",
    "RegionCode": "BANG",
    "State": "Karnataka",
    "SubRegionCode": "BANG",
    "VenueAddress": "Old Post Office Road, Nehru Nagar, Yelahanka, Near Sathanur Maruti Suzuki Service Centre, Bengaluru, Karnataka 560064, India",
    "VenueCode": "PTYK",
    "VenueName": "Prakash Theatre: Yelahanka"
  },
  "PVBK": {
    "AvailableFormats": "2D|3D",
    "City": "Bokaro",
    "Latitude": "23.6642",
    "Longitude": "86.1475",
    "RegionCode": "BOKA",
    "State": "Jharkhand",
    "SubRegionCode": "BOKA",
    "VenueAddress": "Bokaro Mall, 2nd Floor, Bokaro Steel City, Sector 3, Bokaro, Jharkhand 827003, India",
    "VenueCode": "PVBK",
    "VenueName": "PVR: Bokaro"
  },
  "PVHB": {
    "AvailableFormats": "2D",
    "City": "Hubballi (Hubli)",
    "Latitude": "15.350505",
    "Longitude": "75.108225",
    "RegionCode": "HUBL",
    "State": "Karnataka",
    "SubRegionCode": "HUBL",
    "VenueAddress": "PVR INOX Limited, Inorbit Mall, 3rd Floor, Gokul Road, Akshay Park Circle, Hubballi (Hubli), Karnataka 580030, India",
    "VenueCode": "PVHB",
    "VenueName": "PVR: Inorbit Mall, Hubli"
  },
  "PVLE": {
    "AvailableFormats": "2D|3D|4DX|IMAX 2D",
    "City": "Noida",
    "Latitude": "28.5743",
    "Longitude": "77.3534",
    "RegionCode": "NCR",
    "State": "NCR",
    "SubRegionCode": "NOIDA",
    "VenueAddress": "Logix City Centre BW-58, Sector 32, Near Wave City Center, Noida, NCR 201301, India",
    "VenueCode": "PVLE",
    "VenueName": "PVR: Superplex Logix, Noida"
  },
  "PVPC": {
    "AvailableFormats": "3D|2D",
    "City": "Dehradun",
    "Latitude": "30.3661",
    "Longitude": "78.0706",
    "RegionCode": "DEH",
    "State": "Uttarakhand",
    "SubRegionCode": "DEH",
    "VenueAddress": "Pacific Mall, Rajpur Road, Malsi, Opposite Scholars Home School, Dehradun, Uttarakhand 248006, India",
    "VenueCode": "PVPC",
    "VenueName": "PVR: Pacific, Dehradun"
  },
  "PVUM": {
    "AvailableFormats": "2D|3D",
    "City": "Hyderabad",
    "Latitude": "17.3716",
    "Longitude": "78.5093",
    "RegionCode": "HYD",
    "State": "Telangana",
    "SubRegionCode": "HYD",
    "VenueAddress": "Ts No 2,5 and 6, Ward No. 170, Level 5, 11, NH65, Andhra Colony, New Malakpet, Hyderabad, Telangana 500036, India",
    "VenueCode": "PVUM",
    "VenueName": "PVR: Musarambagh, Hyderabad"
  },
  "PWLM": {
    "AvailableFormats": "2D",
    "City": "Warangal",
    "Latitude": "17.9765",
    "Longitude": "79.6009",
    "RegionCode": "WAR",
    "State": "Telangana",
    "SubRegionCode": "WAR",
    "VenueAddress": "Near Post Office, Girmajipet, Warangal, Telangana 506001, India",
    "VenueCode": "PWLM",
    "VenueName": "PVR: Warangal, Maddox Mall"
  },
  "RACD": {
    "AvailableFormats": "2D",
    "City": "Ahmedabad",
    "Latitude": "22.9964",
    "Longitude": "72.381",
    "RegionCode": "AHD",
    "State": "Gujarat",
    "SubRegionCode": "AHD",
    "VenueAddress": "4th floor, Arth Complex, Station Road, Sanad, Near Dwarkesh Mobile, Opposite Karnavati Dairy, Ahmedabad, Gujarat 382110, India",
    "VenueCode": "RACD",
    "VenueName": "Rupam Arth Cineplex: Sanand"
  },
  "RAMB": {
    "AvailableFormats": "2D",
    "City": "Trichy",
    "Latitude": "10.8344",
    "Longitude": "78.6935",
    "RegionCode": "TRIC",
    "State": "Tamil Nadu",
    "SubRegionCode": "TRIC",
    "VenueAddress": "Karur Bypass road, Near Chathram Bus stand, Trichy, Tamil Nadu 620002, India",
    "VenueCode": "RAMB",
    "VenueName": "Ramba A/C RGB Laser Dolby Atmos: Trichy"
  },
  "RATK": {
    "AvailableFormats": "2D|3D",
    "City": "Bengaluru",
    "Latitude": "12.916",
    "Longitude": "77.4791",
    "RegionCode": "HOKT",
    "State": "Karnataka",
    "SubRegionCode": "HOKT",
    "VenueAddress": "Kengeri Satellite Town Stage 1, 6th Main Road, Near Surana College, Bengaluru, Karnataka 560060, India",
    "VenueCode": "RATK",
    "VenueName": "Robin Theater 4K Dolby Atmos: Kengeri Upanagara"
  },
  "RCAD": {
    "AvailableFormats": "2D",
    "City": "Ahmedabad",
    "Latitude": "23.0276",
    "Longitude": "72.5882",
    "RegionCode": "AHD",
    "State": "Gujarat",
    "SubRegionCode": "AHD",
    "VenueAddress": "14, Kalyan Bhavan, B/s Havmor Restaurant, Relief Road, Old City, Gheekanta, Bhadra, Near Shree Pustak Mandir, Ahmedabad, Gujarat 380001, India",
    "VenueCode": "RCAD",
    "VenueName": "Rupam Multiplex: Ahmedabad"
  },