{
  "AACT": {
    "AvailableFormats": "",
    "City": "Tirur",
    "FirstTracked": "2026-07-14",
    "Latitude": "10.909439",
    "Longitude": "75.922585",
    "RegionCode": "ANDM",
    "State": "Kerala",
    "SubRegionCode": "ANDM",
    "VenueAddress": "Trikkandiyoor Road, Tirur, Near MDC BANK, Tirur, Kerala 676101, India",
    "VenueCode": "AACT",
    "VenueName": "Magic Frames Anoograha Cinemas: Tirur"
  },
  "AASH": {
    "AvailableFormats": "2D",
    "City": "Bhandara",
    "Latitude": "21.17",
    "Longitude": "79.6562",
    "RegionCode": "BHAA",
    "State": "Maharashtra",
    "SubRegionCode": "BHAA",
    "VenueAddress": "Gandhi Square, Gandhi Chowk, Santaji Nagar, Bhandara, Maharashtra 441904, India",
    "VenueCode": "AASH",
    "VenueName": "Adarsh Chitra Mandir: Bhandara"
  },
  "ABCS": {
    "AvailableFormats": "3D|2D",
    "City": "Hyderabad",
    "Latitude": "17.4005",
    "Longitude": "78.5548",
    "RegionCode": "HYD",
    "State": "Telangana",
    "SubRegionCode": "HYD",
    "VenueAddress": "DSL Virtue Mall, 3rd Floor, Plot No. B-1, B-2B and 2, Uppal Khlasa VRR, Near Indian Oil Petrol Pump, Hyderabad, Telangana 500039, India",
    "VenueCode": "ABCS",
    "VenueName": "Cinepolis: DSL Virtue Mall Uppal, Hyderabad"
  },
  "ACAI": {
    "AvailableFormats": "2D",
    "City": "Erode",
    "Latitude": "11.3606",
    "Longitude": "77.7149",
    "RegionCode": "EROD",
    "State": "Tamil Nadu",
    "SubRegionCode": "EROD",
    "VenueAddress": "Vairapalayam Road, Thasildhar thottam, Near Aavin milk agency 83, Erode, Tamil Nadu 638001, India",
    "VenueCode": "ACAI",
    "VenueName": "A Square Cinemas Annapoorani Dolby A/c 7.1 Sony 4K"
  },
  "ACDE": {
    "AvailableFormats": "2D",
    "City": "Dewas",
    "Latitude": "22.97",
    "Longitude": "76.0517",
    "RegionCode": "DEWAS",
    "State": "Madhya Pradesh",
    "SubRegionCode": "DEWAS",
    "VenueAddress": "Ujjain Road, Aashirwad Garden, Near Shivaji Nagar, Itawa, Dewas, Madhya Pradesh 455001, India",
    "VenueCode": "ACDE",
    "VenueName": "Abhinav And Sanghvi Cineplex: Dewas"
  },
  "ACJA": {
    "AvailableFormats": "2D",
    "City": "Surat",
    "Latitude": "21.2463",
    "Longitude": "72.7925",
    "RegionCode": "SURT",
    "State": "Gujarat",
    "SubRegionCode": "SURT",
    "VenueAddress": "6th Floor, Exxoniic Mall, Jahangirpura Variyaav Road, Near Iskon Temple, Jahangirpura, Surat, Gujarat 395005, India",
    "VenueCode": "ACJA",
    "VenueName": "Apple Cinema: Jahangirpura, Surat"
  },
  "ACMC": {
    "AvailableFormats": "2D",
    "City": "Mahabubabad",
    "Latitude": "17.5954",
    "Longitude": "80.0052",
    "RegionCode": "MAHA",
    "State": "Telangana",
    "SubRegionCode": "MAHA",
    "VenueAddress": "Gundal - Yellandu Road, Shikarkana Gadda, Near CSI Church, Mahabubabad, Telangana 506101, India",
    "VenueCode": "ACMC",
    "VenueName": "Asian Mukund: Mahabubabad"
  },
  "ACPK": {
    "AvailableFormats": "2D",
    "City": "Kochi",
    "Latitude": "10.1135",
    "Longitude": "76.4791",
    "RegionCode": "PALY",
    "State": "Kerala",
    "SubRegionCode": "PALY",
    "VenueAddress": "K.S.R.T.C Bus Stand Road, Perumbavoor, Eranakulam District, Near Marvel Aquarium, Kochi, Kerala 683549, India",
    "VenueCode": "ACPK",
    "VenueName": "Aashirvad Cineplexx: Perumbavoor"
  },
  "ACTN": {
    "AvailableFormats": "2D",
    "City": "Chennai",
    "Latitude": "13.0474",
    "Longitude": "80.2449",
    "RegionCode": "CHEN",
    "State": "Tamil Nadu",
    "SubRegionCode": "CHEN",
    "VenueAddress": "No: 24/1, GN Chetty Road, T. Nagar, Opposite Dr. M.G.R. Educational and Research Institute, Chennai, Tamil Nadu 600017, India",
    "VenueCode": "ACTN",
    "VenueName": "AGS Cinemas: T. Nagar"
  },
  "ACXL": {
    "AvailableFormats": "",
    "City": "Coimbatore",
    "FirstTracked": "2026-07-14",
    "Latitude": "11.01482",
    "Longitude": "76.96491",
    "RegionCode": "COIM",
    "State": "Tamil Nadu",
    "SubRegionCode": "COIM",
    "VenueAddress": "109, Senthil kumaran Theatre, Gokhale St, Peranaidu Layout, Ram Nagar, Coimbatore, Tamil Nadu 641009, India",
    "VenueCode": "ACXL",
    "VenueName": "Ambal Complex (Senthil Kumaran): Coimbatore"
  },
  "ADMB": {
    "AvailableFormats": "",
    "City": "Dhule",
    "FirstTracked": "2026-07-14",
    "Latitude": "20.89633",
    "Longitude": "74.775505",
    "RegionCode": "DHLE",
    "State": "Maharashtra",
    "SubRegionCode": "DHLE",
    "VenueAddress": "Opp. Shriram Petrol Pump, Agra Road, Dhule, Maharashtra 424001, India",
    "VenueCode": "ADMB",
    "VenueName": "BIG Cinemas: Manohar, Dhule"
  },
  "AGSM": {
    "AvailableFormats": "2D",
    "City": "Chennai",
    "Latitude": "13.0601",
    "Longitude": "80.1648",
    "RegionCode": "CHEN",
    "State": "Tamil Nadu",
    "SubRegionCode": "CHEN",
    "VenueAddress": "No 3/47, Alapakkam Main Road, Subramaniapuram, Pallavan Nagar, Chennai, Tamil Nadu 600095, India",
    "VenueCode": "AGSM",
    "VenueName": "AGS Cinemas: Maduravoyal"
  },
  "AKCH": {
    "AvailableFormats": "2D",
    "City": "Kollam",
    "Latitude": "8.81261",
    "Longitude": "76.6716",
    "RegionCode": "KOLM",
    "State": "Kerala",
    "SubRegionCode": "KOLM",
    "VenueAddress": "Paravur, North Paravur Road, Near ValluVally Juma Masjid, Kollam, Kerala 691301, India",
    "VenueCode": "AKCH",
    "VenueName": "Ashok Cine House: Paravur"
  },
  "AKTG": {
    "AvailableFormats": "2D",
    "City": "Gadarwara",
    "Latitude": "22.9202",
    "Longitude": "78.7821",
    "RegionCode": "GDWR",
    "State": "Madhya Pradesh",
    "SubRegionCode": "GDWR",
    "VenueAddress": "Alka Talkies Road, Vijay Colony, Bhabha Ward, Gadarwara, Madhya Pradesh 487551, India",
    "VenueCode": "AKTG",
    "VenueName": "Alka Talkies: Gadarwara"
  },
  "ALPC": {
    "AvailableFormats": "2D",
    "City": "Bhopal",
    "Latitude": "23.2648",
    "Longitude": "77.4101",
    "RegionCode": "BHOP",
    "State": "Madhya Pradesh",
    "SubRegionCode": "BHOP",
    "VenueAddress": "Hamidia Road, Railway Colony, Near Railway Station, Bhopal, Madhya Pradesh 460160, India",
    "VenueCode": "ALPC",
    "VenueName": "Alpana Air-Cooled Cineplex: Bhopal"
  },
  "AMCA": {
    "AvailableFormats": "2D",
    "City": "Hyderabad",
    "Latitude": "17.3717",
    "Longitude": "78.4302",
    "RegionCode": "HYD",
    "State": "Telangana",
    "SubRegionCode": "HYD",
    "VenueAddress": "1st Floor, MCube Mall, Attapur Ring Road, Somi Reddy Nagar, Rajendra Nagar,Attapur, Hyderabad, Telangana 500048, India",
    "VenueCode": "AMCA",
    "VenueName": "Asian M Cube Mall: Attapur"
  },
  "AMHR": {
    "AvailableFormats": "2D",
    "City": "Virudhunagar",
    "Latitude": "9.59045",
    "Longitude": "77.9527",
    "RegionCode": "VIRU",
    "State": "Tamil Nadu",
    "SubRegionCode": "VIRU",
    "VenueAddress": "RR Nagar, Sivagami Puram, Virudhunagar, Tamil Nadu 626001, India",
    "VenueCode": "AMHR",
    "VenueName": "Amirtharaj Theatre A/C 2K Dolby 7.1: Virudhunagar"
  },
  "AMRL": {
    "AvailableFormats": "2D",
    "City": "Amreli",
    "Latitude": "21.6013",
    "Longitude": "71.2198",
    "RegionCode": "AMRE",
    "State": "Gujarat",
    "SubRegionCode": "AMRE",
    "VenueAddress": "2nd Floor, Opera House, Station Road, Opposite - Krishna Petrol Pump, Amreli, Gujarat 365601, India",
    "VenueCode": "AMRL",
    "VenueName": "Redcorner Cinema: Amreli"
  },
  "ANAN": {
    "AvailableFormats": "2D",
    "City": "Khed",
    "Latitude": "17.7125",
    "Longitude": "73.4093",
    "RegionCode": "KHED",
    "State": "Maharashtra",
    "SubRegionCode": "KHED",
    "VenueAddress": "Near Nagarpalika, Khed Dapoli Road, Khed, Maharashtra 415709, India",
    "VenueCode": "ANAN",
    "VenueName": "City Pride: Annand"
  },
  "ANJR": {
    "AvailableFormats": "",
    "City": "Choutuppal",
    "FirstTracked": "2026-07-14",
    "Latitude": "17.253859",
    "Longitude": "78.893906",
    "RegionCode": "CHOU",
    "State": "Telangana",
    "SubRegionCode": "CHOU",
    "VenueAddress": "GM Complex, NH65, Choutuppal, Telangana 508252, India",
    "VenueCode": "ANJR",
    "VenueName": "Anji Reddy 70MM: Choutuppal"
  },
  "ANST": {
    "AvailableFormats": "2D",
    "City": "Sangareddy",
    "Latitude": "17.3712",
    "Longitude": "78.0502",
    "RegionCode": "SARE",
    "State": "Telangana",
    "SubRegionCode": "SARE",
    "VenueAddress": "Sitara Theatre Road, Veerabhadra Nagar, Near Bismilla Masjid, Sangareddy, Telangana 502001, India",
    "VenueCode": "ANST",
    "VenueName": "Asian Nithin Sitara: Sangareddy"
  },
  "APAP": {
    "AvailableFormats": "2D",
    "City": "Pattukkottai",
    "Latitude": "10.418",
    "Longitude": "79.3198",
    "RegionCode": "PATU",
    "State": "Tamil Nadu",
    "SubRegionCode": "PATU",
    "VenueAddress": "Nadimuthu Nagar, Pattukottai,Tamil Nadu, Near Komala vilas raju thirumana mahal, Pattukkottai, Tamil Nadu 614602, India",
    "VenueCode": "APAP",
    "VenueName": "Annapoorna Cinemas 4K Dolby 7.1: Pattukottai"
  },
  "APNS": {
    "AvailableFormats": "",
    "City": "Hyderabad",
    "FirstTracked": "2026-07-14",
    "Latitude": "17.2859",
    "Longitude": "78.4141",
    "RegionCode": "HYD",
    "State": "Telangana",
    "SubRegionCode": "HYD",
    "VenueAddress": "1/97/11, Sathamrai Village, Langerguda, Hyderabad, Telangana 500052, India",
    "VenueCode": "APNS",
    "VenueName": "Aparna Cinemas: Shamshabad"
  },
  "APSU": {
    "AvailableFormats": "2D",
    "City": "Hubli",
    "Latitude": "15.3481",
    "Longitude": "75.144",
    "RegionCode": "HUBL",
    "State": "Karnataka",
    "SubRegionCode": "HUBL",
    "VenueAddress": "Coen Road, New Hubli, Opposite Corporation Bank, Hubli, Karnataka 580020, India",
    "VenueCode": "APSU",
    "VenueName": "Apsara & Sudha Cinemas: Hubli"
  },
  "ARCC": {
    "AvailableFormats": "2D",
    "City": "Nandyal",
    "Latitude": "15.4742",
    "Longitude": "78.4866",
    "RegionCode": "NADY",
    "State": "Andhra Pradesh",
    "SubRegionCode": "NADY",
    "VenueAddress": "SBI Colony, Nandyal-Thimmanayunipeta Road, Nandyal, Andhra Pradesh 518501, India",
    "VenueCode": "ARCC",
    "VenueName": "Sri Rama Complex: Nandyal"
  },
  "ARRP": {
    "AvailableFormats": "",
    "City": "Narsapur",
    "FirstTracked": "2026-07-14",
    "Latitude": "16.44076",
    "Longitude": "81.70493",
    "RegionCode": "NARP",
    "State": "Andhra Pradesh",
    "SubRegionCode": "NARP",
    "VenueAddress": "Narsapur Road, West Godavari, Narsapur, Andhra Pradesh 534275, India",
    "VenueCode": "ARRP",
    "VenueName": "Sri Raja Rajeshwari Picture Palace: Narsapur"
  },
  "ASCC": {
    "AvailableFormats": "2D",
    "City": "Coimbatore",
    "Latitude": "10.9599",
    "Longitude": "76.9808",
    "RegionCode": "COIM",
    "State": "Tamil Nadu",
    "SubRegionCode": "COIM",
    "VenueAddress": "231, Sundarapuram,Podanur, Sarada Mill Road, Near Podanur Panchayat Office, Coimbatore, Tamil Nadu 641023, India",
    "VenueCode": "ASCC",
    "VenueName": "Arasan Cinemas A/C 4K Dolby: Coimbatore"
  },
  "ASHN": {
    "AvailableFormats": "2D",
    "City": "Hyderabad",
    "Latitude": "17.5107",
    "Longitude": "78.2952",
    "RegionCode": "HYD",
    "State": "Telangana",
    "SubRegionCode": "HYD",
    "VenueAddress": "Sy. No. 101AA, 101 E, 105 E, Ramchandra Puram, Hyderabad, Telangana 500133, India",
    "VenueCode": "ASHN",
    "VenueName": "Asian Cinemart: RC Puram"
  },
  "ASMS": {
    "AvailableFormats": "2D",
    "City": "Salem",
    "Latitude": "11.6481",
    "Longitude": "78.1618",
    "RegionCode": "SALM",
    "State": "Tamil Nadu",
    "SubRegionCode": "SALM",
    "VenueAddress": "194/55, Kallarampatty Main Road, Erumapalayam, Near Municipal Office, Salem, Tamil Nadu 636015, India",
    "VenueCode": "ASMS",
    "VenueName": "Aascars Multiplex: Salem"
  },
  "ASSK": {
    "AvailableFormats": "2D",
    "City": "Khammam",
    "Latitude": "17.25",
    "Longitude": "80.1403",
    "RegionCode": "KHAM",
    "State": "Telangana",
    "SubRegionCode": "KHAM",
    "VenueAddress": "9-2-15/A, Station Road, Braman Bazar, Khammam, Telangana 507001, India",
    "VenueCode": "ASSK",
    "VenueName": "Asian Srinivasa: Khammam"
  },
  "ASVS": {
    "AvailableFormats": "2D",
    "City": "Siddipet",
    "Latitude": "18.1047",
    "Longitude": "78.8598",
    "RegionCode": "SDDP",
    "State": "Telangana",
    "SubRegionCode": "SDDP",
    "VenueAddress": "Karimnagar Road, Srinivas Nagar, Near Honda Showroom, Siddipet, Telangana 502103, India",
    "VenueCode": "ASVS",
    "VenueName": "Asian Venkateshwara: Siddipet"
  },
  "ATCL": {
    "AvailableFormats": "2D",
    "City": "Mandapeta",
    "Latitude": "16.8707",
    "Longitude": "81.9254",
    "RegionCode": "MAND",
    "State": "Andhra Pradesh",
    "SubRegionCode": "MAND",
    "VenueAddress": "Cinema Road, Gandhi Nagar, Near Municipality Compost Yard, Mandapeta, Andhra Pradesh 533308, India",
    "VenueCode": "ATCL",
    "VenueName": "Ambica Theaters 2K A/c DTS: Mandapeta"
  },
  "ATMG": {
    "AvailableFormats": "2D",
    "City": "Chennai",
    "Latitude": "12.5051",
    "Longitude": "79.8799",
    "RegionCode": "CHEN",
    "State": "Tamil Nadu",
    "SubRegionCode": "CHEN",
    "VenueAddress": "National Highway Service Road, Maduranthakam, Tamil Nadu, Near Lake View Hotal, Chennai, Tamil Nadu 603306, India",
    "VenueCode": "ATMG",
    "VenueName": "Anand Theatre Madhuranthagam RGB LASER 4k"
  },
  "ATUN": {
    "AvailableFormats": "2D",
    "City": "Khachrod",
    "Latitude": "23.4255",
    "Longitude": "75.2856",
    "RegionCode": "KHCU",
    "State": "Madhya Pradesh",
    "SubRegionCode": "KHCU",
    "VenueAddress": "36, Ujjain Gate, Near Gopal Mandir, Khachrod, Madhya Pradesh 456224, India",
    "VenueCode": "ATUN",
    "VenueName": "Ashok Cineplex: Khachrod"
  },
  "AVCK": {
    "AvailableFormats": "2D",
    "City": "Kozhikode",
    "Latitude": "11.2596",
    "Longitude": "75.7883",
    "RegionCode": "KOZH",
    "State": "Kerala",
    "SubRegionCode": "KOZH",
    "VenueAddress": "R.P.Mall, Mavoor Road, Opposite - Moffusil Bus Stand, Arayidathupalam, Kozhikode, Kerala 673001, India",
    "VenueCode": "AVCK",
    "VenueName": "Aashirvad Cineplexx: Kozhikode"
  },
  "AWND": {
    "AvailableFormats": "",
    "City": "Piduguralla",
    "FirstTracked": "2026-07-14",
    "Latitude": "16.48054",
    "Longitude": "79.89087",
    "RegionCode": "PIDU",
    "State": "Andhra Pradesh",
    "SubRegionCode": "PIDU",
    "VenueAddress": "FVJR+69R, Tangeda Road, Piduguralla, Andhra Pradesh 522413, India",
    "VenueCode": "AWND",
    "VenueName": "Aswani Deluxe A/C: Piduguralla"
  },
  "AYYA": {
    "AvailableFormats": "2D",
    "City": "Pattukkottai",
    "Latitude": "10.4238",
    "Longitude": "79.3149",
    "RegionCode": "PATU",
    "State": "Tamil Nadu",
    "SubRegionCode": "PATU",
    "VenueAddress": "54 South Kali, Amman Mobil st, Nadimuthu Nagar, Pattukkottai, Tamil Nadu 614601, India",
    "VenueCode": "AYYA",
    "VenueName": "Ayya A/C theatre 2K Dolby 7.1: Pattukkottai"
  },
  "BASK": {
    "AvailableFormats": "2D",
    "City": "Sivasagar",
    "Latitude": "26.953",
    "Longitude": "94.5718",
    "RegionCode": "SVSG",
    "State": "Assam",
    "SubRegionCode": "SVSG",
    "VenueAddress": "AT Road, Bhatiapar, Near Bhatiapar Petrol Pump, Sivasagar, Assam 785697, India",
    "VenueCode": "BASK",
    "VenueName": "Bhaskarjyoti Cinema: Sivasagar"
  },
  "BBTS": {
    "AvailableFormats": "",
    "City": "Siruguppa",
    "FirstTracked": "2026-07-14",
    "Latitude": "15.632644",
    "Longitude": "76.89329",
    "RegionCode": "SPPA",
    "State": "Karnataka",
    "SubRegionCode": "SPPA",
    "VenueAddress": "Sadashiv Nagar, Near Syndicate Bank, Siruguppa, Karnataka 583121, India",
    "VenueCode": "BBTS",
    "VenueName": "Balaji Theatre: Siruguppa"
  },
  "BDCG": {
    "AvailableFormats": "2D",
    "City": "Bengaluru",
    "Latitude": "12.974",
    "Longitude": "77.5798",
    "RegionCode": "HOKT",
    "State": "Karnataka",
    "SubRegionCode": "HOKT",
    "VenueAddress": "23, Kempegowda Road, Mysore Bank Colony, Gandhi Nagar, Bengaluru, Karnataka 560009, India",
    "VenueCode": "BDCG",
    "VenueName": "Bhumika Digital 2K Cinema: Gandhinagar"
  },
  "BHCS": {
    "AvailableFormats": "2D|3D",
    "City": "Manipal",
    "Latitude": "13.353",
    "Longitude": "74.7903",
    "RegionCode": "MANI",
    "State": "Karnataka",
    "SubRegionCode": "MANI",
    "VenueAddress": "Canara Mall, Hebri Road, Near Hotel Green Park, Manipal, Karnataka 576104, India",
    "VenueCode": "BHCS",
    "VenueName": "Bharath Cinemas: Canara Mall, Manipal"
  },
  "BIJO": {
    "AvailableFormats": "2D",
    "City": "Shillong",
    "Latitude": "25.5764",
    "Longitude": "91.8816",
    "RegionCode": "SHLG",
    "State": "Meghalaya",
    "SubRegionCode": "SHLG",
    "VenueAddress": "Police Bazar, Near Bank of India Shillong, Shillong, Meghalaya 793001, India",
    "VenueCode": "BIJO",
    "VenueName": "Bijou Cinema: Shillong"
  },
  "BKCG": {
    "AvailableFormats": "",
    "City": "Gandhinagar",
    "FirstTracked": "2026-07-14",
    "Latitude": "23.267239",
    "Longitude": "72.66759",
    "RegionCode": "GNAGAR",
    "State": "Gujarat",
    "SubRegionCode": "GNAGAR",
    "VenueAddress": "2nd Floor, Bosky the City Mall, Pethpur Cross Road, Pethapur, Gandhinagar, Gujarat 382610, India",
    "VenueCode": "BKCG",
    "VenueName": "Bosky Cineplex: Gandhinagar"
  },
  "BLLD": {
    "AvailableFormats": "2D",
    "City": "Nalbari",
    "Latitude": "26.4544",
    "Longitude": "91.4091",
    "RegionCode": "NALB",
    "State": "Assam",
    "SubRegionCode": "NALB",
    "VenueAddress": "Bella Luna Cinemas, Q Green Hotel 5th Floor, Haripur Highway, Nalbari, Assam 781340, India",
    "VenueCode": "BLLD",
    "VenueName": "Bella Luna Cinemas: Nalbari"
  },
  "BMXA": {
    "AvailableFormats": "2D",
    "City": "Ulhasnagar",
    "Latitude": "19.2201",
    "Longitude": "73.1723",
    "RegionCode": "MUMBAI",
    "State": "Maharashtra",
    "SubRegionCode": "ULHA",
    "VenueAddress": "GNP Galaxy, Vadol Gaon, Waldhuni, Ambernath, Ulhasnagar, Ulhasnagar, Maharashtra 421501, India",
    "VenueCode": "BMXA",
    "VenueName": "BMX Cinemas: Ambernath (New)"
  },
  "BRKH": {
    "AvailableFormats": "2D",
    "City": "Hyderabad",
    "Latitude": "17.5002",
    "Longitude": "78.3866",
    "RegionCode": "HYD",
    "State": "Telangana",
    "SubRegionCode": "HYD",
    "VenueAddress": "Jai Bharat Nagar, Hyder Nagar, Vasantha Nagar, Kukatpally, Near Karachi Bakery, Hyderabad, Telangana 500072, India",
    "VenueCode": "BRKH",
    "VenueName": "Bhramaramba 70MM A/C 4K Dolby: Kukatpally"
  },
  "BSPC": {
    "AvailableFormats": "2D",
    "City": "Dhampur",
    "Latitude": "29.3028",
    "Longitude": "78.5065",
    "RegionCode": "DHPR",
    "State": "Uttar Pradesh",
    "SubRegionCode": "DHPR",
    "VenueAddress": "Near Champa Devi Temple, Udaipur, Dhampur, Uttar Pradesh 246761, India",
    "VenueCode": "BSPC",
    "VenueName": "Bansal Cineplex: Dhampur"
  },
  "BTDP": {
    "AvailableFormats": "2D",
    "City": "Dammapeta",
    "Latitude": "17.2667",
    "Longitude": "81.0117",
    "RegionCode": "DMPT",
    "State": "Telangana",
    "SubRegionCode": "DMPT",
    "VenueAddress": "Balaji Center, Dammapeta Main Road, Dammapeta, Telangana 507306, India",
    "VenueCode": "BTDP",
    "VenueName": "Balaji Talkies: Dammapeta"
  },
  "BWST": {
    "AvailableFormats": "2D",
    "City": "Surat",
    "Latitude": "21.1792",
    "Longitude": "72.9627",
    "RegionCode": "SURT",
    "State": "Gujarat",
    "SubRegionCode": "SURT",
    "VenueAddress": "574/2/1/ Chhatrala City Centre, MC Donalds Kadodara At - Umbhel, Near NH 8, Surat, Gujarat 394325, India",
    "VenueCode": "BWST",
    "VenueName": "Bollywood Cinema, Kadodara: Surat"
  },
  "CAML": {
    "AvailableFormats": "3D|2D",
    "City": "Kolkata",
    "Latitude": "22.5147",
    "Longitude": "88.3932",
    "RegionCode": "KOLK",
    "State": "West Bengal",
    "SubRegionCode": "KOLK",
    "VenueAddress": "3rd Floor, Acropolis Mall, 1858 Rajdanga Main Road, Beside Geetanjali stadium, Kolkata, West Bengal 700107, India",
    "VenueCode": "CAML",
    "VenueName": "Cinepolis: Acropolis Mall, Kolkata"
  },
  "CCAT": {
    "AvailableFormats": "2D",
    "City": "Coimbatore",
    "Latitude": "11.1121",
    "Longitude": "76.9355",
    "RegionCode": "COIM",
    "State": "Tamil Nadu",
    "SubRegionCode": "COIM",
    "VenueAddress": "2A/12, Padmalaya Nagar, Narasimhanaickenpalayam, Coimbatore, Tamil Nadu 641031, India",
    "VenueCode": "CCAT",
    "VenueName": "Cosmo Cinemas: NARASIMANAIKEN PALAYAM, AC 4k ATMOS"
  },
  "CCEJ": {
    "AvailableFormats": "2D",
    "City": "Jharsuguda",
    "Latitude": "21.8501",
    "Longitude": "84.0135",
    "RegionCode": "JRSG",
    "State": "Odisha",
    "SubRegionCode": "JRSG",
    "VenueAddress": "MS Khata No 635, Sarbahal Road, Jharsuguda, Odisha 768201, India",
    "VenueCode": "CCEJ",
    "VenueName": "Chhotu Maharaj CineCafe: Jharsuguda"
  },
  "CCKS": {
    "AvailableFormats": "2D|3D",
    "City": "Surat",
    "Latitude": "21.2319",
    "Longitude": "72.8362",
    "RegionCode": "SURT",
    "State": "Gujarat",
    "SubRegionCode": "SURT",
    "VenueAddress": "6th floor, Laxmi Enclave 2, Near Gajera School, Surat, Gujarat 395004, India",
    "VenueCode": "CCKS",
    "VenueName": "Cineverse Cinema: Katargam, Surat"
  },
  "CCMU": {
    "AvailableFormats": "2D|3D",
    "City": "Mysuru (Mysore)",
    "Latitude": "12.3585",
    "Longitude": "76.6361",
    "RegionCode": "MYS",
    "State": "Karnataka",
    "SubRegionCode": "MYS",
    "VenueAddress": "No 119 Metagalli Industrial Area, Metagalli, Behind GRS Fantasy Park, Opposite J K Golden Embassy, Mysuru (Mysore), Karnataka 570016, India",
    "VenueCode": "CCMU",
    "VenueName": "Mysuru VISION Cinemas, Behind GRS Fantasy Park"
  },
  "CCPP": {
    "AvailableFormats": "2D",
    "City": "Phaltan",
    "Latitude": "17.9881",
    "Longitude": "74.4302",
    "RegionCode": "PHAL",
    "State": "Maharashtra",
    "SubRegionCode": "PHAL",
    "VenueAddress": "Namvaibhav Chitra mandir, Gajanan Chowk, Satara, Phaltan, Maharashtra 415523, India",
    "VenueCode": "CCPP",
    "VenueName": "Cinea City Pride: Phaltan"
  },
  "CCTA": {
    "AvailableFormats": "",
    "City": "Taliparamba",
    "FirstTracked": "2026-07-14",
    "Latitude": "12.034475",
    "Longitude": "75.362724",
    "RegionCode": "TALI",
    "State": "Kerala",
    "SubRegionCode": "TALI",
    "VenueAddress": "Trichambaram Temple Road, Trichambaram, Near State Bank of India, Taliparamba, Kerala 670141, India",
    "VenueCode": "CCTA",
    "VenueName": "Classic Cinema 4K Dolby Atmos: Taliparamba"
  },
  "CDRT": {
    "AvailableFormats": "",
    "City": "Dharmajigudem",
    "FirstTracked": "2026-07-14",
    "Latitude": "16.8857",
    "Longitude": "80.9918",
    "RegionCode": "ELRU",
    "State": "Andhra Pradesh",
    "SubRegionCode": "ELRU",
    "VenueAddress": "Chintalapudi - Eluru Road, Near to Primary Health Centre, Dharmajigudem, Andhra Pradesh 534462, India",
    "VenueCode": "CDRT",
    "VenueName": "SRI LAKSHMI AC 2K LASER DOLBY ATMOS: DHARMAJIGUDEM"
  },
  "CEST": {
    "AvailableFormats": "2D|3D",
    "City": "Delhi",
    "Latitude": "28.6372",
    "Longitude": "77.2869",
    "RegionCode": "NCR",
    "State": "NCR",
    "SubRegionCode": "DELHI",
    "VenueAddress": "Laxmi Nagar Commercial Complex, Swasthya Vihar, Delhi, NCR 110092, India",
    "VenueCode": "CEST",
    "VenueName": "Cinepolis: V3S East Centre (New)"
  },
  "CGCO": {
    "AvailableFormats": "",
    "City": "Olpad",
    "FirstTracked": "2026-07-14",
    "Latitude": "21.328",
    "Longitude": "72.7558",
    "RegionCode": "SURT",
    "State": "Gujarat",
    "SubRegionCode": "SURT",
    "VenueAddress": "Krishnam Arcade, Olpad-Sayan Road, Opposite Mali Fadiya, Olpad, Gujarat 394045, India",
    "VenueCode": "CGCO",
    "VenueName": "Cinemagic Cinema: Olpad"
  },
  "CGPM": {
    "AvailableFormats": "2D|3D",
    "City": "Patna",
    "Latitude": "25.6028",
    "Longitude": "85.1535",
    "RegionCode": "PATN",
    "State": "Bihar",
    "SubRegionCode": "PATN",
    "VenueAddress": "No. 294, The Gravity Mall, Old Bypass Road, Bechar Main Road, Kankarbagh, Patna, Bihar 800020, India",
    "VenueCode": "CGPM",
    "VenueName": "Cinepolis: Gravity Mall, Patna"
  },
  "CHOE": {
    "AvailableFormats": "2D",
    "City": "Vellakoil",
    "Latitude": "10.9596",
    "Longitude": "77.7168",
    "RegionCode": "VELI",
    "State": "Tamil Nadu",
    "SubRegionCode": "VELI",
    "VenueAddress": "1197/A1A2B, Kamala Mill, Bus Stop, Vellakoil, Tamil Nadu 638111, India",
    "VenueCode": "CHOE",
    "VenueName": "Chhotu Maharaj Cine Cafe: Vellakoil"
  },
  "CIBU": {
    "AvailableFormats": "",
    "City": "Baramulla",
    "FirstTracked": "2026-07-14",
    "Latitude": "34.20528",
    "Longitude": "74.34683",
    "RegionCode": "BRML",
    "State": "Jammu and Kashmir",
    "SubRegionCode": "BRML",
    "VenueAddress": "Sherwani Hall, National Highway 1A, Baramulla, Jammu and Kashmir 193101, India",
    "VenueCode": "CIBU",
    "VenueName": "Citara Cinemas: Baramulla"
  },
  "CINL": {
    "AvailableFormats": "",
    "City": "Saharanpur",
    "FirstTracked": "2026-07-14",
    "Latitude": "29.968603",
    "Longitude": "77.5315",
    "RegionCode": "SAHA",
    "State": "Uttar Pradesh",
    "SubRegionCode": "SAHA",
    "VenueAddress": "1-249, National Highway 73, Patel Nagar, Saharanpur, Uttar Pradesh 247001, India",
    "VenueCode": "CINL",
    "VenueName": "Cineluv Multiplex Cinema: Saharanpur"
  },
  "CKPP": {
    "AvailableFormats": "",
    "City": "Pune",
    "FirstTracked": "2026-07-14",
    "Latitude": "18.6373",
    "Longitude": "73.847",
    "RegionCode": "PUNE",
    "State": "Maharashtra",
    "SubRegionCode": "PUNE",
    "VenueAddress": "Plot No-87/1/5, Sector-1, 24 Proxima, Lakshmi Road Indrayani Nagar, Pune, Maharashtra 411039, India",
    "VenueCode": "CKPP",
    "VenueName": "Cinemark 24 Proxima: Indryani Nagar, Bhosari-Pune"
  },
  "CLGM": {
    "AvailableFormats": "2D",
    "City": "Bengaluru",
    "Latitude": "12.9817",
    "Longitude": "77.5638",
    "RegionCode": "BANG",
    "State": "Karnataka",
    "SubRegionCode": "BANG",
    "VenueAddress": "3rd Floor, Lulu Mall, Rajajinagar, Bengaluru, Karnataka 560023, India",
    "VenueCode": "CLGM",
    "VenueName": "Cinepolis: Lulu Mall, Bengaluru"
  },
  "CLTP": {
    "AvailableFormats": "",
    "City": "Pune",
    "FirstTracked": "2026-07-14",
    "Latitude": "18.4768",
    "Longitude": "73.9083",
    "RegionCode": "PUNE",
    "State": "Maharashtra",
    "SubRegionCode": "PUNE",
    "VenueAddress": "1st Floor, Tribeca Highstreet, NIBM Post Office Road, Pune, Maharashtra 411048, India",
    "VenueCode": "CLTP",
    "VenueName": "Connplex Cinemas (Luxuriance): Tribeca Highstreet"
  },
  "CMDA": {
    "AvailableFormats": "",
    "City": "Dahod",
    "FirstTracked": "2026-07-14",
    "Latitude": "22.841972",
    "Longitude": "74.250916",
    "RegionCode": "DAHO",
    "State": "Gujarat",
    "SubRegionCode": "DAHO",
    "VenueAddress": "GLK Tower, Godi Road, Mohammadi Society, Alefiya Colony, Near Hotel Laxmiinn, Dahod, Gujarat 389151, India",
    "VenueCode": "CMDA",
    "VenueName": "Cinemera Multiplex: Dahod"
  },
  "CMMK": {
    "AvailableFormats": "2D",
    "City": "Medak",
    "Latitude": "18.0507",
    "Longitude": "78.2634",
    "RegionCode": "NRPR",
    "State": "Telangana",
    "SubRegionCode": "NRPR",
    "VenueAddress": "Chaman Road, Fathe Nagar, Thimmaipalli, Medak, Telangana 502110, India",
    "VenueCode": "CMMK",
    "VenueName": "Cinemax Theatre: Medak"
  },
  "CMSG": {
    "AvailableFormats": "2D",
    "City": "Suriya",
    "Latitude": "24.1623",
    "Longitude": "85.8825",
    "RegionCode": "GIRI",
    "State": "Jharkhand",
    "SubRegionCode": "GIRI",
    "VenueAddress": "Rajdhanwar Road, Bank of India, Barki Suriya, Suriya, Jharkhand 825320, India",
    "VenueCode": "CMSG",
    "VenueName": "Chhotu Maharaj Cine Cafe: Suriya, Giridi"
  },
  "CMVP": {
    "AvailableFormats": "2D",
    "City": "Pune",
    "Latitude": "18.7887",
    "Longitude": "73.7717",
    "RegionCode": "PUNE",
    "State": "Maharashtra",
    "SubRegionCode": "PUNE",
    "VenueAddress": "Ground, Plot No.PAP-V-74, Vasuli, Chakan MIDC, Phase 2, Khed, Pune, Maharashtra 410501, India",
    "VenueCode": "CMVP",
    "VenueName": "Chhotu Maharaj Cine Cafe, Vasuli Phata: Pune"
  },
  "CNCL": {
    "AvailableFormats": "2D",
    "City": "Lonavala",
    "Latitude": "18.747",
    "Longitude": "73.409",
    "RegionCode": "LNVL",
    "State": "Maharashtra",
    "SubRegionCode": "LNVL",
    "VenueAddress": "Neelkamal, Siddharth Nagar, Near DTDC - Pune-Lonavala, Lonavala, Maharashtra 410401, India",
    "VenueCode": "CNCL",
    "VenueName": "Cinebliss Neelkamal Cinema: Lonavala"
  },
  "CNGE": {
    "AvailableFormats": "2D",
    "City": "Trivandrum",
    "Latitude": "8.57061",
    "Longitude": "76.8841",
    "RegionCode": "VKAL",
    "State": "Kerala",
    "SubRegionCode": "VKAL",
    "VenueAddress": "Green Field Stadium, Karyavattom.P.O, Near The Sports Hub, Trivandrum, Kerala 695581, India",
    "VenueCode": "CNGE",
    "VenueName": "Greenfield Moviemax Cinemas: Trivandrum"
  },
  "CNPT": {
    "AvailableFormats": "2D",
    "City": "Tirupur",
    "Latitude": "11.0989",
    "Longitude": "77.3775",
    "RegionCode": "TIRP",
    "State": "Tamil Nadu",
    "SubRegionCode": "TIRP",
    "VenueAddress": "Rakkiapalayam Road, Cheran Nagar, Valliammai Nagar, Near Hp Petrol Pump, Tirupur, Tamil Nadu 641606, India",
    "VenueCode": "CNPT",
    "VenueName": "Cine Park Theatre: Tirupur"
  },
  "CNVS": {
    "AvailableFormats": "2D",
    "City": "Surat",
    "Latitude": "21.1484",
    "Longitude": "72.7747",
    "RegionCode": "SURT",
    "State": "Gujarat",
    "SubRegionCode": "SURT",
    "VenueAddress": "4th Floor, Atlanta Shoppers, Vesu, Near Reliance Market, Surat, Gujarat 395007, India",
    "VenueCode": "CNVS",
    "VenueName": "Cineverse Cinema: Vesu"
  },
  "COOC": {
    "AvailableFormats": "2D|3D",
    "City": "Chandannagar",
    "Latitude": "22.8606",
    "Longitude": "88.3693",
    "RegionCode": "CHDD",
    "State": "West Bengal",
    "SubRegionCode": "CHDD",
    "VenueAddress": "Barabazar, Burabazar Main Road, Chandannagar, West Bengal 712136, India",
    "VenueCode": "COOC",
    "VenueName": "Cinema Hut: Chandannagar"
  },
  "CPCL": {
    "AvailableFormats": "2D|3D",
    "City": "Hyderabad",
    "Latitude": "17.4572",
    "Longitude": "78.5369",
    "RegionCode": "HYD",
    "State": "Telangana",
    "SubRegionCode": "HYD",
    "VenueAddress": "CCPL Mall, Malkajgiri Road, Vimala Devi Nagar Colony, Malkajgiri, Hyderabad, Telangana 500047, India",
    "VenueCode": "CPCL",
    "VenueName": "Cinepolis: CCPL Mall Malkajgiri, Hyderabad"
  },
  "CPHY": {
    "AvailableFormats": "2D",
    "City": "Hyderabad",
    "Latitude": "17.5296",
    "Longitude": "78.4858",
    "RegionCode": "HYD",
    "State": "Telangana",
    "SubRegionCode": "HYD",
    "VenueAddress": "Satyam Enclave, Medchal Road, Kompally, Hyderabad, Telangana 500014, India",
    "VenueCode": "CPHY",
    "VenueName": "Asian Cineplanet Multiplex: Kompally"
  },
  "CPLC": {
    "AvailableFormats": "2D",
    "City": "Ahmedabad",
    "Latitude": "23.092",
    "Longitude": "72.6865",
    "RegionCode": "AHD",
    "State": "Gujarat",
    "SubRegionCode": "AHD",
    "VenueAddress": "601, Sixth Floor, Vishala Empire, Naroda Dehgam Circle, SP Ring Road, Near Muthia Toll Tax, Ahmedabad, Gujarat 382330, India",
    "VenueCode": "CPLC",
    "VenueName": "Cineprime Cinema: Luxuriance, Hanspura"
  },
  "CPNL": {
    "AvailableFormats": "2D|3D",
    "City": "Ludhiana",
    "Latitude": "30.8826",
    "Longitude": "75.782",
    "RegionCode": "LUDH",
    "State": "Punjab",
    "SubRegionCode": "LUDH",
    "VenueAddress": "2nd Floor, MBD Neopolis Mall, Ferozepur Road, Ludhiana, Punjab 141004, India",
    "VenueCode": "CPNL",
    "VenueName": "Cinepolis: Nexus MBD, Ludhiana"
  },
  "CPRT": {
    "AvailableFormats": "2D|3D",
    "City": "Ratnagiri",
    "Latitude": "16.9915",
    "Longitude": "73.3238",
    "RegionCode": "RATN",
    "State": "Maharashtra",
    "SubRegionCode": "RATN",
    "VenueAddress": "Siddhivinayak City Center, Shivajinagar, Ratnagiri, Maharashtra 415612, India",
    "VenueCode": "CPRT",
    "VenueName": "City Pride Multiplex: Shivaji Nagar, Ratnagiri"
  },
  "CPVJ": {
    "AvailableFormats": "3D|2D",
    "City": "Vijayawada",
    "Latitude": "16.5024",
    "Longitude": "80.6424",
    "RegionCode": "KADU",
    "State": "Andhra Pradesh",
    "SubRegionCode": "KADU",
    "VenueAddress": "4th Floor, PVP Square Mall, Mahatma Gandhi Road, Labbipet, Mogalrajapuram, Vijayawada, Andhra Pradesh 520010, India",
    "VenueCode": "CPVJ",
    "VenueName": "Cinepolis: PVP Square Mall, Vijayawada"
  },
  "CRPR": {
    "AvailableFormats": "2D",
    "City": "Puthoor",
    "Latitude": "9.040496",
    "Longitude": "76.715786",
    "RegionCode": "PUTR",
    "State": "Kerala",
    "SubRegionCode": "PUTR",
    "VenueAddress": "Cheerankavu, Maranadu, Puthoor, Kerala 691507, India",
    "VenueCode": "CRPR",
    "VenueName": "Chellam Theatre 4K Laser Dolby Atmos: Puthoor"
  },
  "CSEP": {
    "AvailableFormats": "2D",
    "City": "Ahmedabad",
    "Latitude": "23.0189",
    "Longitude": "72.5564",
    "RegionCode": "AHD",
    "State": "Gujarat",
    "SubRegionCode": "AHD",
    "VenueAddress": "Parimal Garden, Chimanlal Girdharlal R, Besides Ambuja House Oppo, Ahmedabad, Gujarat 380006, India",
    "VenueCode": "CSEP",
    "VenueName": "Connplex Cinemas: Parimal"
  },
  "CSSL": {
    "AvailableFormats": "2D",
    "City": "Asansol",
    "Latitude": "23.7034",
    "Longitude": "86.9483",
    "RegionCode": "ASANSOL",
    "State": "West Bengal",
    "SubRegionCode": "ASANSOL",
    "VenueAddress": "Sentrum Mall, Lions Club Road, Shristinagar, Asansol, West Bengal 713305, India",
    "VenueCode": "CSSL",
    "VenueName": "CineCosmo: Sentrum Mall, Asansol"
  },
  "CSUB": {
    "AvailableFormats": "2D",
    "City": "Cumbum",
    "Latitude": "9.75236",
    "Longitude": "77.2795",
    "RegionCode": "CMBM",
    "State": "Tamil Nadu",
    "SubRegionCode": "CMBM",
    "VenueAddress": "1587/3A, RJMS Danube Building, Uthamapuram, Theni, Cumbum, Tamil Nadu 625516, India",
    "VenueCode": "CSUB",
    "VenueName": "Cine Square Cinemas 2K DOLBY A/C: Cumbum"
  },
  "CTMG": {
    "AvailableFormats": "2D",
    "City": "Mundargi",
    "Latitude": "15.199",
    "Longitude": "75.8778",
    "RegionCode": "MNDR",
    "State": "Karnataka",
    "SubRegionCode": "MNDR",
    "VenueAddress": "O Block No.27, No.22, Shrihatti Road, District Gadag, Mundargi, Karnataka 582118, India",
    "VenueCode": "CTMG",
    "VenueName": "Chhotu Maharaj CineCafe: Mundargi,Karnataka"
  },
  "CTPR": {
    "AvailableFormats": "",
    "City": "Puthoor",
    "FirstTracked": "2026-07-14",
    "Latitude": "9.040554",
    "Longitude": "76.7158",
    "RegionCode": "PUTR",
    "State": "Kerala",
    "SubRegionCode": "PUTR",
    "VenueAddress": "Cheerankavu - Maranadu - Puthoor Road, Near St. Kuriakose Orthodox Syrian Church, Puthoor, Kerala 691507, India",
    "VenueCode": "CTPR",
    "VenueName": "Chellam Theatre: Puthoor"
  },
  "CUNT": {
    "AvailableFormats": "",
    "City": "Delhi",
    "FirstTracked": "2026-07-14",
    "Latitude": "28.5928",
    "Longitude": "77.0407",
    "RegionCode": "NCR",
    "State": "NCR",
    "SubRegionCode": "DELHI",
    "VenueAddress": "Cinepolis India Pvt Ltd, Plot No.5, 12, Metro Station Road, Pocket 8, Block B, Sector 12 Dwarka, Delhi, NCR 110078, India",
    "VenueCode": "CUNT",
    "VenueName": "Cinepolis: City Centre Dwarka,Delhi (Newly Opened)"
  },
  "CVTT": {
    "AvailableFormats": "2D",
    "City": "Tirupati",
    "Latitude": "13.6301",
    "Longitude": "79.424",
    "RegionCode": "TIRU",
    "State": "Andhra Pradesh",
    "SubRegionCode": "TIRU",
    "VenueAddress": "Jayasam Road, Tata Nagar, Tirupati, Andhra Pradesh 517501, India",
    "VenueCode": "CVTT",
    "VenueName": "CVS Movie Land A/c DTS: Tirupati"
  },
  "CXKT": {
    "AvailableFormats": "2D",
    "City": "Katihar",
    "Latitude": "25.6067",
    "Longitude": "87.5533",
    "RegionCode": "KATI",
    "State": "Bihar",
    "SubRegionCode": "KATI",
    "VenueAddress": "IPG Mall, Near Dalan Chowk, Katihar Purina Highway, Katihar, Bihar 854105, India",
    "VenueCode": "CXKT",
    "VenueName": "Connplex Cinemas: Katihar"
  },
  "CZZA": {
    "AvailableFormats": "",
    "City": "Anand",
    "FirstTracked": "2026-07-14",
    "Latitude": "22.567154",
    "Longitude": "72.94332",
    "RegionCode": "AND",
    "State": "Gujarat",
    "SubRegionCode": "AND",
    "VenueAddress": "Lambhvel Road, Opposite New Sanket, Purushottam Nagar, Anand, Gujarat 388001, India",
    "VenueCode": "CZZA",
    "VenueName": "Infinity Cinemas: Anand"
  },
  "DCBH": {
    "AvailableFormats": "2D",
    "City": "Bargarh",
    "Latitude": "21.3315",
    "Longitude": "83.6185",
    "RegionCode": "BARG",
    "State": "Odisha",
    "SubRegionCode": "BARG",
    "VenueAddress": "Haat Padaa Road, Near Sai Temple, Next To State Bank Of India, Bargarh, Odisha 768028, India",
    "VenueCode": "DCBH",
    "VenueName": "Deepali Cinemax: Bargarh"
  },
  "DCJN": {
    "AvailableFormats": "2D",
    "City": "Jhunjhunu",
    "Latitude": "28.128",
    "Longitude": "75.4101",
    "RegionCode": "JHUN",
    "State": "Rajasthan",
    "SubRegionCode": "JHUN",
    "VenueAddress": "2nd Floor, 109, MG Mall, Tall Road, Near Khemi Sati Bus Stand, Jhunjhunu, Rajasthan 333001, India",
    "VenueCode": "DCJN",
    "VenueName": "Dhishoom Cinemas: Jhunjhunu"
  },
  "DCSP": {
    "AvailableFormats": "2D",
    "City": "Perumpuzha",
    "Latitude": "8.942322",
    "Longitude": "76.679475",
    "RegionCode": "PERU",
    "State": "Kerala",
    "SubRegionCode": "PERU",
    "VenueAddress": "Kundara Road, Perumpuzha, Perumpuzha, Kerala 691504, India",
    "VenueCode": "DCSP",
    "VenueName": "Devi Cinemas 4K Dolby Atmos: Perumpuzha Kundara"
  },
  "DECX": {
    "AvailableFormats": "",
    "City": "Jhajha",
    "FirstTracked": "2026-07-14",
    "Latitude": "24.77292",
    "Longitude": "86.38615",
    "RegionCode": "JHAA",
    "State": "Bihar",
    "SubRegionCode": "JHAA",
    "VenueAddress": "Purani Bazar, Jamui, Near Gandhi Chowk, Jhajha, Bihar 811308, India",
    "VenueCode": "DECX",
    "VenueName": "90 Degree Cineplex: Jhajha"
  },
  "DFRM": {
    "AvailableFormats": "",
    "City": "Ramnagar",
    "FirstTracked": "2026-07-14",
    "Latitude": "29.40073",
    "Longitude": "79.12714",
    "RegionCode": "RAMN",
    "State": "Uttarakhand",
    "SubRegionCode": "RAMN",
    "VenueAddress": "Radheysham Arcade, Lakhanpur, Tera Road, Ramnagar, Uttarakhand 244715, India",
    "VenueCode": "DFRM",
    "VenueName": "DFine Cinemas: Ramnagar"
  },
  "DIMY": {
    "AvailableFormats": "2D",
    "City": "Yamunanagar",
    "Latitude": "30.1525",
    "Longitude": "77.3092",
    "RegionCode": "YAMU",
    "State": "Haryana",
    "SubRegionCode": "YAMU",
    "VenueAddress": "NH73A, Basant Nagar, Yamunanagar, Haryana 135004, India",
    "VenueCode": "DIMY",
    "VenueName": "Dimple Cineplex: Yamuna Nagar"
  },
  "DLPB": {
    "AvailableFormats": "2D",
    "City": "Barpeta Road",
    "Latitude": "26.4894",
    "Longitude": "90.9684",
    "RegionCode": "BRPD",
    "State": "Assam",
    "SubRegionCode": "BRPD",
    "VenueAddress": "Ward No. 9, Barpeta Road Post Office, Barpeta Road, Barpeta Road, Assam 781315, India",
    "VenueCode": "DLPB",
    "VenueName": "Dilip Cinema: Barpeta Road"
  },
  "DNKM": {
    "AvailableFormats": "2D",
    "City": "Kollam",
    "Latitude": "8.89143",
    "Longitude": "76.6034",
    "RegionCode": "KOLM",
    "State": "Kerala",
    "SubRegionCode": "KOLM",
    "VenueAddress": "Kadapakkada, Kappalandimukku - Kadappakkada Road, Near The Hindu News Paper, Kollam, Kerala 691008, India",
    "VenueCode": "DNKM",
    "VenueName": "Dhanya Remya: Kollam"
  },
  "DRCR": {
    "AvailableFormats": "",
    "City": "Mansa",
    "FirstTracked": "2026-07-14",
    "Latitude": "30.020473",
    "Longitude": "75.39797",
    "RegionCode": "MNSA",
    "State": "Punjab",
    "SubRegionCode": "MNSA",
    "VenueAddress": "Grand Mall, Barnala - Mansa Sisra Road, Near Nehru Collage, Mansa, Punjab 151505, India",
    "VenueCode": "DRCR",
    "VenueName": "Dream Reality Cinema: Mansa"
  },
  "DTCK": {
    "AvailableFormats": "2D",
    "City": "Kalimpong",
    "Latitude": "27.0648",
    "Longitude": "88.4667",
    "RegionCode": "KALI",
    "State": "West Bengal",
    "SubRegionCode": "KALI",
    "VenueAddress": "9th Mile, Trimoti Shopping complex, Mongbol Busty, Alipurduar Road, Rishi Road, Near Hotel Jiwan Jyoti, Kalimpong, West Bengal 734301, India",
    "VenueCode": "DTCK",
    "VenueName": "Dream Theatre Cineplex: Kalimpong"
  },
  "DURG": {
    "AvailableFormats": "2D",
    "City": "Banki",
    "Latitude": "20.3791",
    "Longitude": "85.531",
    "RegionCode": "BANK",
    "State": "Odisha",
    "SubRegionCode": "BANK",
    "VenueAddress": "Near SBI Bank, Cuttack - Banki Road, Banki, Odisha 754008, India",
    "VenueCode": "DURG",
    "VenueName": "Durga Talkies: Banki"
  },
  "DXEC": {
    "AvailableFormats": "",
    "City": "Ottapalam",
    "FirstTracked": "2026-07-14",
    "Latitude": "10.7413",
    "Longitude": "76.3901",
    "RegionCode": "THSR",
    "State": "Kerala",
    "SubRegionCode": "THSR",
    "VenueAddress": "Chelakkara, Kondazhi Mayannur Road, Ottapalam, Kerala 679105, India",
    "VenueCode": "DXEC",
    "VenueName": "Dreamax E Cinemas: Mayannur"
  },
  "ECPP": {
    "AvailableFormats": "2D|3D",
    "City": "Pune",
    "Latitude": "18.6285",
    "Longitude": "73.7841",
    "RegionCode": "PUNE",
    "State": "Maharashtra",
    "SubRegionCode": "PUNE",
    "VenueAddress": "2nd Floor, Elpro City Square Mall, Pimpri Chinchwad Link Road, Pune, Maharashtra 411033, India",
    "VenueCode": "ECPP",
    "VenueName": "INOX: Elpro City Square, Chinchwad"
  },
  "EKCM": {
    "AvailableFormats": "2D",
    "City": "Kusumgram",
    "Latitude": "23.3893",
    "Longitude": "88.1318",
    "RegionCode": "KKKL",
    "State": "West Bengal",
    "SubRegionCode": "KKKL",
    "VenueAddress": "SH 8, Kusumgram, Belgram Bolgona Kalna Road, Opposite Bandhan Bank, Kusumgram, West Bengal 713422, India",
    "VenueCode": "EKCM",
    "VenueName": "Ekta Manch: Kusumgram"
  },
  "EMPN": {
    "AvailableFormats": "",
    "City": "Pulgaon",
    "FirstTracked": "2026-07-14",
    "Latitude": "20.725908",
    "Longitude": "78.31447",
    "RegionCode": "PUON",
    "State": "Maharashtra",
    "SubRegionCode": "PUON",
    "VenueAddress": "Empress Mall, Gandhi Nagar, Pulgaon Road, Near Pulgaon Railway Station, Pulgaon, Maharashtra 442303, India",
    "VenueCode": "EMPN",
    "VenueName": "Empress Cinema: Pulgaon"
  },
  "ESBD": {
    "AvailableFormats": "2D",
    "City": "Beed",
    "Latitude": "18.9946",
    "Longitude": "75.7533",
    "RegionCode": "BEED",
    "State": "Maharashtra",
    "SubRegionCode": "BEED",
    "VenueAddress": "Shahu Nagar, Pangri Road, Near Bus Stand, Beed, Maharashtra 431122, India",
    "VenueCode": "ESBD",
    "VenueName": "Santoshimata: Beed"
  },
  "ESVP": {
    "AvailableFormats": "2D",
    "City": "Pune",
    "Latitude": "18.511",
    "Longitude": "73.8801",
    "RegionCode": "PUNE",
    "State": "Maharashtra",
    "SubRegionCode": "PUNE",
    "VenueAddress": "2429, Gen Thimayya Road, Camp, opposite Kayani Bakery, Pune, Maharashtra 411001, India",
    "VenueCode": "ESVP",
    "VenueName": "Victory Theatre: Camp, Pune"
  },
  "EVMP": {
    "AvailableFormats": "2D",
    "City": "Kochi",
    "Latitude": "10.1113",
    "Longitude": "76.4742",
    "RegionCode": "KOCH",
    "State": "Kerala",
    "SubRegionCode": "KOCH",
    "VenueAddress": "old kaala vayal, Perumbavoor, Kochi, Kerala 683542, India",
    "VenueCode": "EVMP",
    "VenueName": "EVM Cinema A/C 4K RGB Laser 3D: Perumbavoor"
  },
  "FCHP": {
    "AvailableFormats": "",
    "City": "Kolkata",
    "FirstTracked": "2026-07-14",
    "Latitude": "22.483189",
    "Longitude": "88.39094",
    "RegionCode": "KOLK",
    "State": "West Bengal",
    "SubRegionCode": "KOLK",
    "VenueAddress": "Metropolis Mall Hiland Park, Eastern Metropolitan Bypass Chakgaria, Opp Peerless Hospital, Kolkata, West Bengal 700020, India",
    "VenueCode": "FCHP",
    "VenueName": "INOX: Hiland Park"
  },
  "FCTB": {
    "AvailableFormats": "",
    "City": "Talwandi Bhai",
    "FirstTracked": "2026-07-14",
    "Latitude": "30.859259",
    "Longitude": "74.92114",
    "RegionCode": "TALW",
    "State": "Punjab",
    "SubRegionCode": "TALW",
    "VenueAddress": "Karmitti Road, Dist. Ferozepur, Talwandi Bhai, Punjab 142050, India",
    "VenueCode": "FCTB",
    "VenueName": "Fun Cineplex: Talwandi Bhai"
  },
  "FMFB": {
    "AvailableFormats": "2D",
    "City": "Bengaluru",
    "Latitude": "12.9608",
    "Longitude": "77.7481",
    "RegionCode": "BANG",
    "State": "Karnataka",
    "SubRegionCode": "BANG",
    "VenueAddress": "No.62, 2nd Floor, Nexus, Whitefield Main Road, Whitefield, Near Citi Bank ATM, Bengaluru, Karnataka 560066, India",
    "VenueCode": "FMFB",
    "VenueName": "INOX: Nexus, Whitefield"
  },
  "FMVS": {
    "AvailableFormats": "",
    "City": "Navi Mumbai",
    "FirstTracked": "2026-07-14",
    "Latitude": "19.06411",
    "Longitude": "72.99694",
    "RegionCode": "MUMBAI",
    "State": "Maharashtra",
    "SubRegionCode": "THAN",
    "VenueAddress": "3rd Floor, Raghuleela Mall, Sector 30, Vashi, Opposite Vashi Railway Station, Navi Mumbai, Maharashtra 400703, India",
    "VenueCode": "FMVS",
    "VenueName": "INOX: Raghuleela Mall, Vashi"
  },
  "FNCO": {
    "AvailableFormats": "2D",
    "City": "Coimbatore",
    "Latitude": "11.0247",
    "Longitude": "77.0104",
    "RegionCode": "COIM",
    "State": "Tamil Nadu",
    "SubRegionCode": "COIM",
    "VenueAddress": "Peelamedu, Avinashi Road, Peelamedu, Near PSGR Krishnammal College, Coimbatore, Tamil Nadu 641004, India",
    "VenueCode": "FNCO",
    "VenueName": "Cinepolis: Fun Republic Mall, Coimbatore"
  },
  "FNSD": {
    "AvailableFormats": "2D|3D",
    "City": "Delhi",
    "Latitude": "28.6574",
    "Longitude": "77.3023",
    "RegionCode": "NCR",
    "State": "NCR",
    "SubRegionCode": "DELHI",
    "VenueAddress": "Cross River Mall, Central Business,Shahdara, Near Karkardooma Court, Delhi, NCR 110032, India",
    "VenueCode": "FNSD",
    "VenueName": "Cinepolis: Cross River Mall, Shahdara"
  },
  "FSCK": {
    "AvailableFormats": "2D|IMAX 2D|3D",
    "City": "Kolkata",
    "Latitude": "22.5014",
    "Longitude": "88.3616",
    "RegionCode": "KOLK",
    "State": "West Bengal",
    "SubRegionCode": "KOLK",
    "VenueAddress": "375, South City Mall, Prince Anwar Shah Road, Opposite Central Bank of India, Kolkata, West Bengal 700068, India",
    "VenueCode": "FSCK",
    "VenueName": "INOX: South City, Kolkata"
  },
  "G3SR": {
    "AvailableFormats": "2D|3D",
    "City": "Delhi",
    "Latitude": "28.7351",
    "Longitude": "77.1135",
    "RegionCode": "NCR",
    "State": "NCR",
    "SubRegionCode": "DELHI",
    "VenueAddress": "Level 2, Sector-11, Rohini, Inside Garg Trade, Delhi, NCR 110085, India",
    "VenueCode": "G3SR",
    "VenueName": "G3S Cinema: Rohini (Newly Renovated)"
  },
  "GAPR": {
    "AvailableFormats": "",
    "City": "Ongole",
    "FirstTracked": "2026-07-14",
    "Latitude": "15.51993",
    "Longitude": "80.04735",
    "RegionCode": "ADKI",
    "State": "Andhra Pradesh",
    "SubRegionCode": "ADKI",
    "VenueAddress": "Guntur Road, Gopal Nagar, Ongole, Andhra Pradesh 523001, India",
    "VenueCode": "GAPR",
    "VenueName": "G2V Theaters, Ravi Priya Mall: Ongole"
  },
  "GBTG": {
    "AvailableFormats": "2D",
    "City": "Gudivada",
    "Latitude": "16.4305",
    "Longitude": "80.9914",
    "RegionCode": "GUDI",
    "State": "Andhra Pradesh",
    "SubRegionCode": "GUDI",
    "VenueAddress": "Satyanarayana Puram, Pillalamari Street, Gudivada, Andhra Pradesh 521301, India",
    "VenueCode": "GBTG",
    "VenueName": "G3 Bhaskar Talkies: Gudivada"
  },
  "GCDC": {
    "AvailableFormats": "",
    "City": "Dabra",
    "FirstTracked": "2026-07-14",
    "Latitude": "25.886345",
    "Longitude": "78.33501",
    "RegionCode": "DABR",
    "State": "Madhya Pradesh",
    "SubRegionCode": "DABR",
    "VenueAddress": "Geeta Talkies Road, Near Shree Krishna Dairy, Subhash Ganj, Darshan Colony, Dabra, Madhya Pradesh 475110, India",
    "VenueCode": "GCDC",
    "VenueName": "Geeta Cineplex: Dabra"
  },
  "GCGD": {
    "AvailableFormats": "",
    "City": "Gwalior",
    "FirstTracked": "2026-07-14",
    "Latitude": "26.205128",
    "Longitude": "78.18938",
    "RegionCode": "GWAL",
    "State": "Madhya Pradesh",
    "SubRegionCode": "GWAL",
    "VenueAddress": "Plot no. 1, City Centre, Madhavrao Scindia Marg, Near HDFC Bank and Cafe Coffee Day City Center, Tulsi Vihar Colony, Gwalior, Madhya Pradesh 474011, India",
    "VenueCode": "GCGD",
    "VenueName": "Gold Cinema: Gwalior"
  },
  "GCMG": {
    "AvailableFormats": "2D",
    "City": "Mumbai",
    "Latitude": "19.1917",
    "Longitude": "72.8204",
    "RegionCode": "MUMBAI",
    "State": "Maharashtra",
    "SubRegionCode": "MWEST",
    "VenueAddress": "Savera Heights, Gate No.5, Bank of India Building, Abdul Hamid Marg, Malvani Road, Opposite Malvani Police Station, Mumbai, Maharashtra 400095, India",
    "VenueCode": "GCMG",
    "VenueName": "Gold Cinema: Malad Malvani"
  },
  "GCSD": {
    "AvailableFormats": "2D",
    "City": "Sardulgarh",
    "Latitude": "29.721",
    "Longitude": "75.2455",
    "RegionCode": "SARD",
    "State": "Punjab",
    "SubRegionCode": "SARD",
    "VenueAddress": "Rori Road, Near Bus Stand, Sardulewala, Sardulgarh, Punjab 125201, India",
    "VenueCode": "GCSD",
    "VenueName": "Golden Cinemas: Sardulgarh"
  },
  "GDAN": {
    "AvailableFormats": "2D|3D",
    "City": "Anand",
    "Latitude": "22.5523",
    "Longitude": "72.9399",
    "RegionCode": "PETL",
    "State": "Gujarat",
    "SubRegionCode": "PETL",
    "VenueAddress": "Block A, 3rd Floor, Opp. Dena Parivar, Anand Vidya Nagar Road, Near Giny and Jony, Anand, Gujarat 388001, India",
    "VenueCode": "GDAN",
    "VenueName": "Gold Cinema: Anand"
  },
  "GDCU": {
    "AvailableFormats": "",
    "City": "Una",
    "FirstTracked": "2026-07-14",
    "Latitude": "31.433987",
    "Longitude": "76.32296",
    "RegionCode": "BEEL",
    "State": "Himachal Pradesh",
    "SubRegionCode": "BEEL",
    "VenueAddress": "8 Miles Stone, Behdala, Una, Himachal Pradesh 174306, India",
    "VenueCode": "GDCU",
    "VenueName": "Grand Cinemaz: Una @ The Gulmohar"
  },
  "GDTH": {
    "AvailableFormats": "3D|2D",
    "City": "Thane",
    "Latitude": "19.1905",
    "Longitude": "72.9766",
    "RegionCode": "MUMBAI",
    "State": "Maharashtra",
    "SubRegionCode": "THNE",
    "VenueAddress": "Prabhat Plaza, 3rd Floor, Station Road, Shivaji Road, Near Talao Pali, Thane, Maharashtra 400601, India",
    "VenueCode": "GDTH",
    "VenueName": "Gold  Cinema: Shivaji Road, Thane (W)"
  },
  "GGCS": {
    "AvailableFormats": "2D",
    "City": "Seethathodu",
    "Latitude": "9.325442",
    "Longitude": "76.969631",
    "RegionCode": "SXCF",
    "State": "Kerala",
    "SubRegionCode": "SXCF",
    "VenueAddress": "Gavi Shopping Complex, Chittar, Angamoozhy Road, Seethathodu, Kerala 689667, India",
    "VenueCode": "GGCS",
    "VenueName": "Gavi Galaxi Cinemas: Seethathodu"
  },
  "GHZB": {
    "AvailableFormats": "",
    "City": "Ghaziabad",
    "FirstTracked": "2026-07-14",
    "Latitude": "28.708088",
    "Longitude": "77.291626",
    "RegionCode": "NCR",
    "State": "NCR",
    "SubRegionCode": "GHAZ",
    "VenueAddress": "Loni Road, Harijan Basti, Raj Nagar, Gokalpur, Ghaziabad, NCR 110094, India",
    "VenueCode": "GHZB",
    "VenueName": "Meenakshi Cherish Cinema: Ghaziabad"
  },
  "GKKC": {
    "AvailableFormats": "",
    "City": "Chennai",
    "FirstTracked": "2026-07-14",
    "Latitude": "13.049656",
    "Longitude": "80.19342",
    "RegionCode": "CHEN",
    "State": "Tamil Nadu",
    "SubRegionCode": "CHEN",
    "VenueAddress": "No.71/2, Yadaval Street,Virugambakkam, Chennai, Tamil Nadu 600092, India",
    "VenueCode": "GKKC",
    "VenueName": "Sri Devi Karumari Cinemas RGB LASER DOLBY ATMOS"
  },
  "GMGX": {
    "AvailableFormats": "2D",
    "City": "Ghaziabad",
    "Latitude": "28.6549",
    "Longitude": "77.3452",
    "RegionCode": "MRDG",
    "State": "NCR",
    "SubRegionCode": "MRDG",
    "VenueAddress": "Galaxie Mall, Local Road for JILIT Ltd, Sahibabad, Madan Mohan Malviya Marg, Sahibabad Industrial Area Site 4, Opposite Gulmohar Grand, Ghaziabad, NCR 201010, India",
    "VenueCode": "GMGX",
    "VenueName": "Galaxie Multiplex: Ghaziabad"
  },
  "GOKU": {
    "AvailableFormats": "2D",
    "City": "Hyderabad",
    "Latitude": "17.4536",
    "Longitude": "78.4344",
    "RegionCode": "HYD",
    "State": "Telangana",
    "SubRegionCode": "HYD",
    "VenueAddress": "Main Road, Vikaspuri, Erragadda, Beside Nexa Maruthi Showroom, Hyderabad, Telangana 500018, India",
    "VenueCode": "GOKU",
    "VenueName": "Gokul 70MM 4K DTS: Erragadda"
  },
  "GPKA": {
    "AvailableFormats": "2D",
    "City": "Seoni",
    "Latitude": "22.0777",
    "Longitude": "79.5459",
    "RegionCode": "SEON",
    "State": "Madhya Pradesh",
    "SubRegionCode": "SEON",
    "VenueAddress": "Gopika Cinema and Shopping Mall, Nagpur Road, Seoni, Madhya Pradesh 480661, India",
    "VenueCode": "GPKA",
    "VenueName": "Gopika Cinema: Seoni"
  },
  "GRDC": {
    "AvailableFormats": "",
    "City": "Jalandhar",
    "FirstTracked": "2026-07-14",
    "Latitude": "31.287695",
    "Longitude": "75.66471",
    "RegionCode": "JALA",
    "State": "Punjab",
    "SubRegionCode": "JALA",
    "VenueAddress": "3rd Floor Viva Collage Mall, GT Road, Jalandhar, Punjab 144001, India",
    "VenueCode": "GRDC",
    "VenueName": "GRD Cinemas: Jalandhar, Punjab"
  },
  "GSVA": {
    "AvailableFormats": "2D",
    "City": "Akividu",
    "Latitude": "16.5838",
    "Longitude": "81.3862",
    "RegionCode": "AKVD",
    "State": "Andhra Pradesh",
    "SubRegionCode": "AKVD",
    "VenueAddress": "Near HP Petrol Pump, PP Road, Beside Ambica Rice Merchants, Akividu, Andhra Pradesh 534235, India",
    "VenueCode": "GSVA",
    "VenueName": "G6 Sri Venkata Gangaratnam Theatre: Akividu"
  },
  "GTEE": {
    "AvailableFormats": "2D",
    "City": "Nagpur",
    "Latitude": "21.2155",
    "Longitude": "79.1947",
    "RegionCode": "NAGP",
    "State": "Maharashtra",
    "SubRegionCode": "NAGP",
    "VenueAddress": "Near Swank Agarbatti, Husainabad, Shiv Panchayat Nagar, Nagpur, Maharashtra 441001, India",
    "VenueCode": "GTEE",
    "VenueName": "Goyal Talkies: Kamptee"
  },
  "GTTS": {
    "AvailableFormats": "",
    "City": "Salem",
    "FirstTracked": "2026-07-14",
    "Latitude": "11.649974",
    "Longitude": "78.16141",
    "RegionCode": "SALM",
    "State": "Tamil Nadu",
    "SubRegionCode": "SALM",
    "VenueAddress": "24, Kitchipalayam Main Road, Sendarapatti, Gugai, Salem, Tamil Nadu 636015, India",
    "VenueCode": "GTTS",
    "VenueName": "ARRS Geethalaya Theatre: (SALEM OLD BUS STAND)"
  },
  "GXCK": {
    "AvailableFormats": "2D",
    "City": "Kollam",
    "Latitude": "8.88672",
    "Longitude": "76.5888",
    "RegionCode": "KOLM",
    "State": "Kerala",
    "SubRegionCode": "KOLM",
    "VenueAddress": "Bishop Jerome Nagar, 6th Avenue, 4th Floor, Chinnakkada, Kollam, Near State Bank of India, Kollam, Kerala 691001, India",
    "VenueCode": "GXCK",
    "VenueName": "Gmax Cinemas Jerome 3D 7.1 JBL: Kollam"
  },
  "HASV": {
    "AvailableFormats": "2D",
    "City": "Bengaluru",
    "Latitude": "12.6827",
    "Longitude": "77.4757",
    "RegionCode": "BANG",
    "State": "Karnataka",
    "SubRegionCode": "BANG",
    "VenueAddress": "Marasandra Main Road, Ranganath Badavane, Harohalli, Ramanagara, Bengaluru, Karnataka 562112, India",
    "VenueCode": "HASV",
    "VenueName": "Sri Vinayaka Theatre: Harohalli"
  },
  "HFSQ": {
    "AvailableFormats": "2D",
    "City": "Bicholim",
    "Latitude": "15.5878",
    "Longitude": "73.9441",
    "RegionCode": "GOA",
    "State": "Goa",
    "SubRegionCode": "BICG",
    "VenueAddress": "Bicholim Road, Bicholim, Near Dreams Bakery, Bicholim, Goa 403504, India",
    "VenueCode": "HFSQ",
    "VenueName": "Z Square Hira Talkies: Bicholim"
  },
  "HLWD": {
    "AvailableFormats": "",
    "City": "Guntur",
    "Latitude": "16.3083",
    "Longitude": "80.4344",
    "RegionCode": "GUNT",
    "State": "Andhra Pradesh",
    "SubRegionCode": "GUNT",
    "VenueAddress": "Lakshmipuram Main Road, Brodipet, Guntur, Andhra Pradesh 522002, India",
    "VenueCode": "HLWD",
    "VenueName": "Hollywood Bollywood Theaters: Guntur"
  },
  "HTAG": {
    "AvailableFormats": "2D",
    "City": "Agra",
    "Latitude": "27.2097",
    "Longitude": "78.0068",
    "RegionCode": "AGRA",
    "State": "Uttar Pradesh",
    "SubRegionCode": "AGRA",
    "VenueAddress": "Nehru Nagar, Civil Lines, Agra, Uttar Pradesh 282003, India",
    "VenueCode": "HTAG",
    "VenueName": "Heera Talkies: Agra"
  },
  "ICMG": {
    "AvailableFormats": "2D",
    "City": "Vizag (Visakhapatnam)",
    "Latitude": "17.683",
    "Longitude": "83.201",
    "RegionCode": "VIZA",
    "State": "Andhra Pradesh",
    "SubRegionCode": "VIZA",
    "VenueAddress": "INOX Leisure Limited, 3rd Floor, CMR Central, Chaitanya Nagar, NH 5, Gajuwaka, Vizag (Visakhapatnam), Andhra Pradesh 530026, India",
    "VenueCode": "ICMG",
    "VenueName": "INOX: CMR Central, Gajuwaka"
  },
  "IGCM": {
    "AvailableFormats": "2D|3D",
    "City": "Gorakhpur",
    "Latitude": "26.7536",
    "Longitude": "83.3753",
    "RegionCode": "GRKP",
    "State": "Uttar Pradesh",
    "SubRegionCode": "GRKP",
    "VenueAddress": "City Mall, 2nd Floor, 6 Civil Lines, Park Road, Golghar, Gorakhpur, Uttar Pradesh 273001, India",
    "VenueCode": "IGCM",
    "VenueName": "INOX: City Mall, Gorakhpur"
  },
  "IMCM": {
    "AvailableFormats": "2D|3D",
    "City": "Mumbai",
    "Latitude": "18.943",
    "Longitude": "72.8289",
    "RegionCode": "MUMBAI",
    "State": "Maharashtra",
    "SubRegionCode": "MCENT",
    "VenueAddress": "M.G.Road, Dhobitalao Junction, Mumbai, Maharashtra 400020, India",
    "VenueCode": "IMCM",
    "VenueName": "Metro INOX Cinemas: Marine Lines"
  },
  "IMXS": {
    "AvailableFormats": "2D",
    "City": "Surajpur",
    "Latitude": "23.3911",
    "Longitude": "82.8491",
    "RegionCode": "BSRM",
    "State": "Chhattisgarh",
    "SubRegionCode": "BSRM",
    "VenueAddress": "Bhaiyathan Road, In front of Sarnapara Chowk, Gram Parri, Surajpur, Chhattisgarh 497229, India",
    "VenueCode": "IMXS",
    "VenueName": "IMAXX Multiplex: Surajpur"
  },
  "INBG": {
    "AvailableFormats": "2D|3D",
    "City": "Bengaluru",
    "Latitude": "12.9705",
    "Longitude": "77.61",
    "RegionCode": "HOKT",
    "State": "Karnataka",
    "SubRegionCode": "HOKT",
    "VenueAddress": "4th Floor, Garuda Mall, Magrath Road, Bengaluru, Karnataka 560025, India",
    "VenueCode": "INBG",
    "VenueName": "INOX: Garuda Mall, Magrath Road"
  },
  "INCM": {
    "AvailableFormats": "2D",
    "City": "Vizag (Visakhapatnam)",
    "Latitude": "17.7341",
    "Longitude": "83.3182",
    "RegionCode": "SABB",
    "State": "Andhra Pradesh",
    "SubRegionCode": "SABB",
    "VenueAddress": "Survey No. 67, 3rd Floor, CMR Central, Maddilapalem, Dwaraka Nagar, Vizag, Andhra Pradesh 530013, India",
    "VenueCode": "INCM",
    "VenueName": "INOX: CMR Central, Maddilapalem"
  },
  "INGM": {
    "AvailableFormats": "2D|3D",
    "City": "Bhiwadi",
    "Latitude": "28.1915",
    "Longitude": "76.8137",
    "RegionCode": "REWA",
    "State": "Rajasthan",
    "SubRegionCode": "REWA",
    "VenueAddress": "3rd Floor, Genesis Mall, Alwar Bhiwadi Highway, Bhiwadi, Rajasthan 301019, India",
    "VenueCode": "INGM",
    "VenueName": "INOX: Bhiwadi Genesis Mall"
  },
  "INKM": {
    "AvailableFormats": "2D",
    "City": "Hyderabad",
    "Latitude": "17.3453",
    "Longitude": "78.5316",
    "RegionCode": "HYD",
    "State": "Telangana",
    "SubRegionCode": "HYD",
    "VenueAddress": "10-1-99/7A, Karmanghat Road, Thapovan Colony, Lingojiguda, Saroor Nagar East, Hyderabad, Telangana 500035, India",
    "VenueCode": "INKM",
    "VenueName": "Cine Town Indra Nagendra: Karmanghat"
  },
  "INNP": {
    "AvailableFormats": "3D|2D",
    "City": "Mumbai",
    "Latitude": "18.9266",
    "Longitude": "72.8229",
    "RegionCode": "MUMBAI",
    "State": "Maharashtra",
    "SubRegionCode": "MCENT",
    "VenueAddress": "CR 2 Mall, 2nd Floor, Barrister Rajni Patel Marg, Nariman Point, Opposite Bajaj Bhavan, Mumbai, Maharashtra 400021, India",
    "VenueCode": "INNP",
    "VenueName": "INOX Laserplex: CR2, Nariman Point"
  },
  "INPO": {
    "AvailableFormats": "2D|3D",
    "City": "Goa",
    "Latitude": "15.5259",
    "Longitude": "73.8269",
    "RegionCode": "GOA",
    "State": "Goa",
    "SubRegionCode": "GOA",
    "VenueAddress": "Mall De Goa,Edapally, Nova Cidade Commercial Complex, Alto Porvorim, Bardez, Goa, Goa 403521, India",
    "VenueCode": "INPO",
    "VenueName": "INOX: Porvorim, Goa"
  },
  "INRK": {
    "AvailableFormats": "2D|3D",
    "City": "Kolkata",
    "Latitude": "22.623",
    "Longitude": "88.4505",
    "RegionCode": "KOLK",
    "State": "West Bengal",
    "SubRegionCode": "KOLK",
    "VenueAddress": "3rd Floor,City Center 2 Mall, New Town, Rajarhat, Hatiara, Near Chinar Park, Kolkata, West Bengal 700157, India",
    "VenueCode": "INRK",
    "VenueName": "INOX: City Centre II, Rajarhat"
  },
  "INSO": {
    "AvailableFormats": "2D|3D",
    "City": "Siliguri",
    "Latitude": "26.7523",
    "Longitude": "88.4388",
    "RegionCode": "SILI",
    "State": "West Bengal",
    "SubRegionCode": "SILI",
    "VenueAddress": "Near Jai Service Petrol Pump, Near Bhakti Nagar Thana, Salugara, Sevoke Road, Orbit Mall, Siliguri, West Bengal 734001, India",
    "VenueCode": "INSO",
    "VenueName": "INOX: Vega Circle Mall, Siliguri"
  },
  "INVC": {
    "AvailableFormats": "2D",
    "City": "Vizag (Visakhapatnam)",
    "Latitude": "17.7125",
    "Longitude": "83.3013",
    "RegionCode": "VIZA",
    "State": "Andhra Pradesh",
    "SubRegionCode": "VIZA",
    "VenueAddress": "4th Floor, Chitralayaa, Suryabagh, Chitralaya Road, Vizag, Andhra Pradesh 530020, India",
    "VenueCode": "INVC",
    "VenueName": "INOX: Vizag Chitralaya Mall"
  },
  "INWM": {
    "AvailableFormats": "2D|3D",
    "City": "Gurugram (Gurgaon)",
    "Latitude": "28.3976",
    "Longitude": "77.0721",
    "RegionCode": "NCR",
    "State": "NCR",
    "SubRegionCode": "GURG",
    "VenueAddress": "INOX Leisure Ltd, Ground Floor, Tower 5, WorldMark, Maidawas Road, Sec-65, Gurugram (Gurgaon), NCR 122001, India",
    "VenueCode": "INWM",
    "VenueName": "INOX: World Mark, Gurugram"
  },
  "IOSE": {
    "AvailableFormats": "2D",
    "City": "Vellore",
    "Latitude": "12.9679",
    "Longitude": "79.1496",
    "RegionCode": "RANI",
    "State": "Tamil Nadu",
    "SubRegionCode": "RANI",
    "VenueAddress": "2nd Floor, Selvam Square, Selvam Nagar, Thiruvalam Road, Katpadi, Vellore, Tamil Nadu 632007, India",
    "VenueCode": "IOSE",
    "VenueName": "INOX: Selvam Square, Vellore"
  },
  "IPRS": {
    "AvailableFormats": "2D",
    "City": "Hyderabad",
    "Latitude": "17.4423",
    "Longitude": "78.3625",
    "RegionCode": "HYD",
    "State": "Telangana",
    "SubRegionCode": "HYD",
    "VenueAddress": "PVR INOX Limited, 3rd Floor, Prism Mall, Near Gachibowli Cross Roads, Hyderabad, Telangana 500032, India",
    "VenueCode": "IPRS",
    "VenueName": "INOX: Prism Mall, Hyderabad"
  },
  "ISMT": {
    "AvailableFormats": "2D|3D",
    "City": "Tumakuru (Tumkur)",
    "Latitude": "13.3582",
    "Longitude": "77.1031",
    "RegionCode": "TUMK",
    "State": "Karnataka",
    "SubRegionCode": "TUMK",
    "VenueAddress": "INOX Leisure Ltd, 2nd Floor, S Mall, Sira Road, Tumakuru (Tumkur), Karnataka 572106, India",
    "VenueCode": "ISMT",
    "VenueName": "INOX: S Mall, Tumakuru"
  },
  "IZOP": {
    "AvailableFormats": "IMAX 2D",
    "City": "Delhi",
    "Latitude": "28.5472",
    "Longitude": "77.2519",
    "RegionCode": "NCR",
    "State": "NCR",
    "SubRegionCode": "DELHI",
    "VenueAddress": "1st Floor, Paras Cinema Building, Nehru Place, Delhi, NCR 110019, India",
    "VenueCode": "IZOP",
    "VenueName": "INOX: COCA-COLA IMAX Paras, Nehru Place, Delhi"
  },
  "JBCS": {
    "AvailableFormats": "2D",
    "City": "Kollam",
    "Latitude": "8.92847",
    "Longitude": "76.7067",
    "RegionCode": "KOLM",
    "State": "Kerala",
    "SubRegionCode": "KOLM",
    "VenueAddress": "Almavu Mukku Road, Nallila, Puliyila, Near Nallila Post Office, Kollam, Kerala 691515, India",
    "VenueCode": "JBCS",
    "VenueName": "JB Cinemas 4K 3D: Nallila"
  },
  "JCMN": {
    "AvailableFormats": "2D",
    "City": "Bhopal",
    "Latitude": "23.2335",
    "Longitude": "77.434",
    "RegionCode": "BHOP",
    "State": "Madhya Pradesh",
    "SubRegionCode": "BHOP",
    "VenueAddress": "Service Rd, Zone-I, MP Nagar, Near MP Education Board Office, Bhopal, Madhya Pradesh 462023, India",
    "VenueCode": "JCMN",
    "VenueName": "Jyoti Cineplex (New Seats): Bhopal"
  },
  "JEMC": {
    "AvailableFormats": "2D",
    "City": "Chotila",
    "Latitude": "22.4669",
    "Longitude": "71.2678",
    "RegionCode": "CHOT",
    "State": "Gujarat",
    "SubRegionCode": "CHOT",
    "VenueAddress": "NH. 8, A Magharikhada, Near Bitter Beans Cafe and Food Zone, Chotila, Gujarat 363520, India",
    "VenueCode": "JEMC",
    "VenueName": "Jolly Enjoy Multiplex: Chotila"
  },
  "JJCK": {
    "AvailableFormats": "2D",
    "City": "Siddharthnagar",
    "Latitude": "27.2892",
    "Longitude": "83.0831",
    "RegionCode": "SIDZ",
    "State": "Uttar Pradesh",
    "SubRegionCode": "SIDZ",
    "VenueAddress": "Tetri Bazar Town, Tetari Bazar, Siddharthnagar, Uttar Pradesh 272207, India",
    "VenueCode": "JJCK",
    "VenueName": "Jyoti Cineplex: Siddharthnagar"
  },
  "JMAX": {
    "AvailableFormats": "2D",
    "City": "Kochi",
    "Latitude": "10.0231",
    "Longitude": "76.4502",
    "RegionCode": "KOCH",
    "State": "Kerala",
    "SubRegionCode": "KOCH",
    "VenueAddress": "Pattimattom PO,Pattimattom,Kerala, Near South Indian Bank, Kochi, Kerala 683562, India",
    "VenueCode": "JMAX",
    "VenueName": "J MAX  2K 3D Dolby 7.1: PATTIMATTOM"
  },
  "JOTG": {
    "AvailableFormats": "2D",
    "City": "Chennai",
    "Latitude": "13.0061",
    "Longitude": "80.2014",
    "RegionCode": "CHEN",
    "State": "Tamil Nadu",
    "SubRegionCode": "CHEN",
    "VenueAddress": "Alandur - Parangimalai, Parade Road, Near Kathipara Junction, Chennai, Tamil Nadu 600016, India",
    "VenueCode": "JOTG",
    "VenueName": "Jothi Theatre 4K A/c DTS: ST Thomas Mount"
  },
  "JSRS": {
    "AvailableFormats": "2D",
    "City": "Thrissur",
    "Latitude": "10.5224",
    "Longitude": "76.2155",
    "RegionCode": "THSR",
    "State": "Kerala",
    "SubRegionCode": "THSR",
    "VenueAddress": "Kuruppam, Round South, Near Municipal Stand, Thrissur, Kerala 680001, India",
    "VenueCode": "JSRS",
    "VenueName": "Jos Theatre 4K RGB Laser Atmos: Thrissur"
  },
  "JTGN": {
    "AvailableFormats": "2D",
    "City": "Amalapuram",
    "Latitude": "16.5786",
    "Longitude": "81.9984",
    "RegionCode": "AMAP",
    "State": "Andhra Pradesh",
    "SubRegionCode": "AMAP",
    "VenueAddress": "Amalapuram - Gannavaram Road, Next To Zeta Hotels, Near APSRTC Bus Stand, Amalapuram, Andhra Pradesh 533201, India",
    "VenueCode": "JTGN",
    "VenueName": "Sri Ganapathi Picture Palace: Amalapuram"
  },
  "JTMN": {
    "AvailableFormats": "2D",
    "City": "Jaipur",
    "Latitude": "26.8372",
    "Longitude": "75.8339",
    "RegionCode": "JAIP",
    "State": "Rajasthan",
    "SubRegionCode": "JAIP",
    "VenueAddress": "INOX Leisure Ltd, 4th Floor, JTM Mall, Model Town, Malviya Nagar, Jaipur, Rajasthan 302017, India",
    "VenueCode": "JTMN",
    "VenueName": "INOX: JTM Mall, Malviya Nagar"
  },
  "JTPP": {
    "AvailableFormats": "",
    "City": "Anakapalle",
    "FirstTracked": "2026-07-14",
    "Latitude": "17.68772",
    "Longitude": "83.01431",
    "RegionCode": "ANKP",
    "State": "Andhra Pradesh",
    "SubRegionCode": "ANKP",
    "VenueAddress": "No. 10-16-30, Niddanam Doddi, Anakapalle, Andhra Pradesh 531001, India",
    "VenueCode": "JTPP",
    "VenueName": "Sri Satyanarayana Picture Palace AC DTS: Anakapall"
  },
  "JTSN": {
    "AvailableFormats": "2D",
    "City": "Medarametla",
    "Latitude": "15.7221",
    "Longitude": "80.0159",
    "RegionCode": "MDRM",
    "State": "Andhra Pradesh",
    "SubRegionCode": "MDRM",
    "VenueAddress": "Main Road, Near Indian Bank, Medarametla, Andhra Pradesh 523212, India",
    "VenueCode": "JTSN",
    "VenueName": "Sri Narayana Chitralaya: Medarametla"
  },
  "JUGA": {
    "AvailableFormats": "2D",
    "City": "Kanpur",
    "Latitude": "26.4218",
    "Longitude": "80.3734",
    "RegionCode": "KANP",
    "State": "Uttar Pradesh",
    "SubRegionCode": "KANP",
    "VenueAddress": "GT Road, Krishna Nagar, Near State Bank, Kanpur, Uttar Pradesh 208010, India",
    "VenueCode": "JUGA",
    "VenueName": "Jugul Palace Cinema: Kanpur"
  },
  "JYOE": {
    "AvailableFormats": "2D",
    "City": "Dhule",
    "Latitude": "20.9061",
    "Longitude": "74.7762",
    "RegionCode": "DHLE",
    "State": "Maharashtra",
    "SubRegionCode": "DHLE",
    "VenueAddress": "City Survey No. 3488/3A, Kajwe Road, Dhule, Maharashtra 424001, India",
    "VenueCode": "JYOE",
    "VenueName": "Jyoti Chitra Mandir: Dhule"
  },
  "KALW": {
    "AvailableFormats": "",
    "City": "Jaunpur",
    "FirstTracked": "2026-07-14",
    "Latitude": "25.751034",
    "Longitude": "82.68727",
    "RegionCode": "JANP",
    "State": "Uttar Pradesh",
    "SubRegionCode": "JANP",
    "VenueAddress": "Rizwikhan, Near Bhaichara Bhojnalay, Jaunpur, Uttar Pradesh 222001, India",
    "VenueCode": "KALW",
    "VenueName": "Kewal DD Plex: Jaunpur"
  },
  "KAWS": {
    "AvailableFormats": "2D",
    "City": "Sonari",
    "Latitude": "27.028",
    "Longitude": "95.0312",
    "RegionCode": "SOYW",
    "State": "Assam",
    "SubRegionCode": "SOYW",
    "VenueAddress": "Kalpana Motors, Main Road, Sonari, Assam 785690, India",
    "VenueCode": "KAWS",
    "VenueName": "Kalpana Cine World: Sonari"
  },
  "KCJS": {
    "AvailableFormats": "2D",
    "City": "Jhansi",
    "Latitude": "25.4482",
    "Longitude": "78.5675",
    "RegionCode": "JNSI",
    "State": "Uttar Pradesh",
    "SubRegionCode": "JNSI",
    "VenueAddress": "Civil Lines-5, 165, Prathvipur, Jhansi Elite - Shivpuri Road, Behind HDFC Bank, Jhansi, Uttar Pradesh 284001, India",
    "VenueCode": "KCJS",
    "VenueName": "Khilona Cinema: Jhansi"
  },
  "KCPD": {
    "AvailableFormats": "",
    "City": "Kuchipudi",
    "FirstTracked": "2026-07-14",
    "Latitude": "16.255392",
    "Longitude": "80.9153",
    "RegionCode": "KCPD",
    "State": "Andhra Pradesh",
    "SubRegionCode": "KCPD",
    "VenueAddress": "Kopuri Street, Padapudi, Kuchipudi, Andhra Pradesh 521136, India",
    "VenueCode": "KCPD",
    "VenueName": "Satya Sai Theater: Kuchipudi"
  },
  "KDCG": {
    "AvailableFormats": "",
    "City": "Guwahati",
    "FirstTracked": "2026-07-14",
    "Latitude": "26.1789",
    "Longitude": "91.7423",
    "RegionCode": "GUW",
    "State": "Assam",
    "SubRegionCode": "GUW",
    "VenueAddress": "Shradhanjali Complex, A T Road, Fancy Bazaar, Near Railway Gate No. 3, Guwahati, Assam 781001, India",
    "VenueCode": "KDCG",
    "VenueName": "Kelvin Gold Cinema: Guwahati (Newly Opened)"
  },
  "KFVU": {
    "AvailableFormats": "",
    "City": "Vrindavan",
    "Latitude": "27.56726",
    "Longitude": "77.63679",
    "RegionCode": "VRIN",
    "State": "Uttar Pradesh",
    "SubRegionCode": "VRIN",
    "VenueAddress": "Fun Land Vrindavan, Allhepur, Vrindavan, Uttar Pradesh 281121, India",
    "VenueCode": "KFVU",
    "VenueName": "Krishna Funland Cinema: Vrindavan"
  },
  "KINO": {
    "AvailableFormats": "2D",
    "City": "Bengaluru",
    "Latitude": "13.0131",
    "Longitude": "77.7614",
    "RegionCode": "BANG",
    "State": "Karnataka",
    "SubRegionCode": "BANG",
    "VenueAddress": "Survey No. 84, Greenfield Hub, Block C, Seegehalli Road, Kadugodi, Bengaluru, Karnataka 560067, India",
    "VenueCode": "KINO",
    "VenueName": "Kino Cinemas: Seegehalli Kadugodi, Bengaluru"
  },
  "KKUI": {
    "AvailableFormats": "2D",
    "City": "Mumbai",
    "Latitude": "19.3785",
    "Longitude": "72.8287",
    "RegionCode": "MUMBAI",
    "State": "Maharashtra",
    "SubRegionCode": "MWEST",
    "VenueAddress": "Navghar Road, Anand Nagar, Opposite - West Panchal Nagar Walkway, Vasai West, Mumbai, Maharashtra 401202, India",
    "VenueCode": "KKUI",
    "VenueName": "KT Vision Cinema: Vasai(Screen 1)"
  },
  "KMLG": {
    "AvailableFormats": "",
    "City": "Ghaziabad",
    "FirstTracked": "2026-07-14",
    "Latitude": "28.71101",
    "Longitude": "77.29203",
    "RegionCode": "NCR",
    "State": "NCR",
    "SubRegionCode": "GHAZ",
    "VenueAddress": "Loni Border, Behta Hajipur, 201102, Ghaziabad, NCR 201102, India",
    "VenueCode": "KMLG",
    "VenueName": "Kavita Multiplex Loni: Ghaziabad"
  },
  "KOCI": {
    "AvailableFormats": "2D",
    "City": "Jaipur",
    "Latitude": "26.8127",
    "Longitude": "75.7783",
    "RegionCode": "JAIP",
    "State": "Rajasthan",
    "SubRegionCode": "JAIP",
    "VenueAddress": "Station Road, Sanganer, Bharave Colony, Dada Gurudev Nagar, Near Sri Laxmi, Mobile and Repairing, Jaipur, Rajasthan 302029, India",
    "VenueCode": "KOCI",
    "VenueName": "Kohinoor Cinema (Laser Dolby Atmos): Sanganer"
  },
  "KRCC": {
    "AvailableFormats": "2D",
    "City": "Coimbatore",
    "Latitude": "11.0345",
    "Longitude": "76.9274",
    "RegionCode": "COIM",
    "State": "Tamil Nadu",
    "SubRegionCode": "COIM",
    "VenueAddress": "11/52, Thadagam Road, Edayarpalayam, Koilmedu, Coimbatore, Tamil Nadu 641025, India",
    "VenueCode": "KRCC",
    "VenueName": "Krithika Cinemas A/C 4K Dolby : Coimbatore"
  },
  "KRRC": {
    "AvailableFormats": "2D",
    "City": "Palakonda",
    "Latitude": "18.603",
    "Longitude": "83.7585",
    "RegionCode": "PALK",
    "State": "Andhra Pradesh",
    "SubRegionCode": "PALK",
    "VenueAddress": "Government Hospital Road, Near Ramakalamandir Sachivalayam, Palakonda, Andhra Pradesh 532440, India",
    "VenueCode": "KRRC",
    "VenueName": "Sri Rama and Sai Kalamandir A/c DTS: Palakonda"
  },
  "KSES": {
    "AvailableFormats": "2D",
    "City": "Vasco Da Gama",
    "Latitude": "15.3971",
    "Longitude": "73.813",
    "RegionCode": "PANA",
    "State": "Goa",
    "SubRegionCode": "PANA",
    "VenueAddress": "1930 Vasco, Opposite The  HQ, Swatantra Path, Vasco Da Gama, Goa 403802, India",
    "VenueCode": "KSES",
    "VenueName": "1930 Vasco"
  },
  "KSTK": {
    "AvailableFormats": "2D",
    "City": "Chennai",
    "Latitude": "13.0316",
    "Longitude": "80.2065",
    "RegionCode": "CHEN",
    "State": "Tamil Nadu",
    "SubRegionCode": "CHEN",
    "VenueAddress": "No-4, Pillaiyar Koil St, Jafferkhanpet, Chennai, Tamil Nadu 600083, India",
    "VenueCode": "KSTK",
    "VenueName": "Kasi Talkies Dolby Atmos: Ashok Nagar"
  },
  "KTHV": {
    "AvailableFormats": "",
    "City": "Vizag (Visakhapatnam)",
    "Latitude": "17.8998",
    "Longitude": "83.1891",
    "RegionCode": "VIZA",
    "State": "Andhra Pradesh",
    "SubRegionCode": "VIZA",
    "VenueAddress": "Vizianagaram Road, Kothavalasa, Vizag (Visakhapatnam), Andhra Pradesh 535183, India",
    "VenueCode": "KTHV",
    "VenueName": "SLNT Theatre DTS: Kothavalasa"
  },
  "KUMM": {
    "AvailableFormats": "",
    "City": "Rajahmundry",
    "FirstTracked": "2026-07-14",
    "Latitude": "16.996145",
    "Longitude": "81.771095",
    "RegionCode": "RJMU",
    "State": "Andhra Pradesh",
    "SubRegionCode": "RJMU",
    "VenueAddress": "Tyagaraja Nagar, Nyapathi Vari Street, Rajahmundry, Andhra Pradesh 533101, India",
    "VenueCode": "KUMM",
    "VenueName": "Kumari Theatre A/C Dolby: Rajahmundry"
  },
  "LACM": {
    "AvailableFormats": "",
    "City": "Mayiladuthurai",
    "FirstTracked": "2026-07-14",
    "Latitude": "11.095507",
    "Longitude": "79.64919",
    "RegionCode": "MAYI",
    "State": "Tamil Nadu",
    "SubRegionCode": "MAYI",
    "VenueAddress": "Kamarajar Salai, Pasupathi Street, Koranad, Pattamangalam, Mayiladuthurai, Tamil Nadu 609001, India",
    "VenueCode": "LACM",
    "VenueName": "LA Cinemas Gomathi: Mayiladuthurai"
  },
  "LASM": {
    "AvailableFormats": "",
    "City": "Mannargudi",
    "FirstTracked": "2026-07-14",
    "Latitude": "10.66487",
    "Longitude": "79.44533",
    "RegionCode": "MANB",
    "State": "Tamil Nadu",
    "SubRegionCode": "MANB",
    "VenueAddress": "South Street, Mannargudi, Near Apple shopping mall, Mannargudi, Tamil Nadu 614001, India",
    "VenueCode": "LASM",
    "VenueName": "LA CINEMAS SHANTHI A/C DOLBY ATMOS"
  },
  "LCNK": {
    "AvailableFormats": "2D",
    "City": "Kalluru",
    "Latitude": "17.2008",
    "Longitude": "80.55",
    "RegionCode": "KALR",
    "State": "Telangana",
    "SubRegionCode": "KALR",
    "VenueAddress": "Khammam - Sathupally Road, Near Church of Christ, Kalluru, Telangana 507209, India",
    "VenueCode": "LCNK",
    "VenueName": "Lakshmi Cinesquare: Kallur"
  },
  "LEPV": {
    "AvailableFormats": "2D",
    "City": "Mumbai",
    "Latitude": "19.0562",
    "Longitude": "72.8339",
    "RegionCode": "MUMBAI",
    "State": "Maharashtra",
    "SubRegionCode": "MWEST",
    "VenueAddress": "Corner of Hill Road and Water Field Road, Bandra West, Mumbai, Maharashtra 400050, India",
    "VenueCode": "LEPV",
    "VenueName": "PVR: Le Reve-Globus Mall, Bandra West, Mumbai"
  },
  "LJWT": {
    "AvailableFormats": "2D",
    "City": "Ramgarhwa",
    "Latitude": "26.8775",
    "Longitude": "84.7875",
    "RegionCode": "RGHA",
    "State": "Bihar",
    "SubRegionCode": "RGHA",
    "VenueAddress": "Ground Floor, East Champaran, Ramgarhwa, Bihar 845433, India",
    "VenueCode": "LJWT",
    "VenueName": "Arjun Cineplex: Ramgarhwa"
  },
  "LKTO": {
    "AvailableFormats": "2D",
    "City": "Kosgi",
    "Latitude": "16.9886",
    "Longitude": "77.7157",
    "RegionCode": "KOSG",
    "State": "Telangana",
    "SubRegionCode": "KOSG",
    "VenueAddress": "Near Vegetable Market, Mahabubnagar Road, Kosgi, Telangana 509339, India",
    "VenueCode": "LKTO",
    "VenueName": "Lakshmi Theatre: Kosgi"
  },
  "LMTP": {
    "AvailableFormats": "2D",
    "City": "Metpally",
    "Latitude": "18.8512",
    "Longitude": "78.6311",
    "RegionCode": "METT",
    "State": "Telangana",
    "SubRegionCode": "METT",
    "VenueAddress": "Ambedkar Stadium Road, Chaitanya Nagar, Metpally, Telangana 505325, India",
    "VenueCode": "LMTP",
    "VenueName": "Laxmi AC Deluxe Theatre: Metpally"
  },
  "LSRS": {
    "AvailableFormats": "",
    "City": "Faridabad",
    "FirstTracked": "2026-07-14",
    "Latitude": "28.38653",
    "Longitude": "77.3167",
    "RegionCode": "NCR",
    "State": "NCR",
    "SubRegionCode": "FARI",
    "VenueAddress": "2nd Floor City Centre, Sector 12, Faridabad, NCR 121007, India",
    "VenueCode": "LSRS",
    "VenueName": "Legend SRS Cinemas: Faridabad"
  },
  "LXCY": {
    "AvailableFormats": "2D",
    "City": "Yeola",
    "Latitude": "20.0442",
    "Longitude": "74.4859",
    "RegionCode": "YEOL",
    "State": "Maharashtra",
    "SubRegionCode": "YEOL",
    "VenueAddress": "Pardeshi Complex, Shani Patangan, Near Bus Stand, Yeola, Maharashtra 423401, India",
    "VenueCode": "LXCY",
    "VenueName": "Laxmi Cineplex: Yeola"
  },
  "MABC": {
    "AvailableFormats": "2D|3D",
    "City": "Ahmedabad",
    "Latitude": "23.1202",
    "Longitude": "72.5704",
    "RegionCode": "AHD",
    "State": "Gujarat",
    "SubRegionCode": "AHD",
    "VenueAddress": "Near KB Royal Pheonix, Opposite AMC Garden Chandkheda, Ahmedabad, Gujarat 382424, India",
    "VenueCode": "MABC",
    "VenueName": "Mukta A2 Cinemas: Chandkheda"
  },
  "MACZ": {
    "AvailableFormats": "2D|3D",
    "City": "Ahmedabad",
    "Latitude": "22.9929",
    "Longitude": "72.5438",
    "RegionCode": "AHD",
    "State": "Gujarat",
    "SubRegionCode": "AHD",
    "VenueAddress": "Mukta A2 Cinema 7th Floor, Rajyash Rise, Behind Vishala Hotel, Rajyesh City, South Vasana Narol Round, Ahmedabad, Gujarat 380007, India",
    "VenueCode": "MACZ",
    "VenueName": "Mukta A2 Cinemas: Rajyash, South Vasna, Ahmedabad"
  },
  "MAJB": {
    "AvailableFormats": "3D|2D",
    "City": "Mumbai",
    "Latitude": "18.986",
    "Longitude": "72.8359",
    "RegionCode": "MUMBAI",
    "State": "Maharashtra",
    "SubRegionCode": "MCENT",
    "VenueAddress": "Lal Baug, Dr.B.R.Ambedkar Road, Near Voltas Building, Mumbai, Maharashtra 400033, India",
    "VenueCode": "MAJB",
    "VenueName": "Mukta A2 Cinemas: Jai Hind, Lalbaugh"
  },
  "MAPJ": {
    "AvailableFormats": "",
    "City": "Jhajha",
    "FirstTracked": "2026-07-14",
    "Latitude": "24.773512",
    "Longitude": "86.375114",
    "RegionCode": "JHAA",
    "State": "Bihar",
    "SubRegionCode": "JHAA",
    "VenueAddress": "No 827, Bus stand Road, Jhajha, Bihar 811308, India",
    "VenueCode": "MAPJ",
    "VenueName": "Maa Lakhi Cineplex (70mm, Dolby 5.1): Jhajha"
  },
  "MAVO": {
    "AvailableFormats": "2D|3D",
    "City": "Samastipur",
    "Latitude": "25.8496",
    "Longitude": "85.7733",
    "RegionCode": "SMST",
    "State": "Bihar",
    "SubRegionCode": "SMST",
    "VenueAddress": "Fourth Floor, Vinuss One Building, NH 322, Near Pantaloon, Mohanpur, Samastipur, Bihar 848101, India",
    "VenueCode": "MAVO",
    "VenueName": "Mukta A2 Cinemas: Vinuss One Mall, Samastipur"
  },
  "MBCR": {
    "AvailableFormats": "2D|3D",
    "City": "Jodhpur",
    "Latitude": "26.2837",
    "Longitude": "73.0383",
    "RegionCode": "JODH",
    "State": "Rajasthan",
    "SubRegionCode": "JODH",
    "VenueAddress": "Blue City Mall, 3rd Floor, Circuit House Road, Jodhpur, Rajasthan 342001, India",
    "VenueCode": "MBCR",
    "VenueName": "Miraj Cinemas: Blue City Mall, Jodhpur"
  },
  "MCAN": {
    "AvailableFormats": "3D|2D",
    "City": "Ulhasnagar",
    "Latitude": "19.2083",
    "Longitude": "73.1966",
    "RegionCode": "MUMBAI",
    "State": "Maharashtra",
    "SubRegionCode": "ULHA",
    "VenueAddress": "854, Kalyan - Badlapur Road, Wimco Naka Matoshree Nagar, Ambernath, Ulhasnagar, Maharashtra 421505, India",
    "VenueCode": "MCAN",
    "VenueName": "Miraj Cinemas, Star: Ambernath"
  },
  "MCCR": {
    "AvailableFormats": "3D|2D",
    "City": "Chandrapur",
    "Latitude": "19.9774",
    "Longitude": "79.2829",
    "RegionCode": "CHAN",
    "State": "Maharashtra",
    "SubRegionCode": "CHAN",
    "VenueAddress": "MDR Mall and Multiplex, Survey No.-59, Wadgaon Bapat Nagar, Chandrapur, Maharashtra 442401, India",
    "VenueCode": "MCCR",
    "VenueName": "Miraj Cinema: Chandrapur"
  },
  "MCFP": {
    "AvailableFormats": "",
    "City": "Fatehpur",
    "FirstTracked": "2026-07-14",
    "Latitude": "26.03003",
    "Longitude": "80.580124",
    "RegionCode": "FATE",
    "State": "Uttar Pradesh",
    "SubRegionCode": "FATE",
    "VenueAddress": "Kashi Complex, Mughal Road, Near Laluli Chauraha Bindki, Fatehpur, Uttar Pradesh 212635, India",
    "VenueCode": "MCFP",
    "VenueName": "Aryan M Cinemas: Bindki, Fatehpur"
  },
  "MCHP": {
    "AvailableFormats": "",
    "City": "Hoshiarpur",
    "FirstTracked": "2026-07-14",
    "Latitude": "31.528864",
    "Longitude": "75.907646",
    "RegionCode": "HOSH",
    "State": "Punjab",
    "SubRegionCode": "HOSH",
    "VenueAddress": "Js Eminent Mall, Sutheri Road, Manavta Nagar, Hoshiarpur, Punjab 146001, India",
    "VenueCode": "MCHP",
    "VenueName": "Miraj Cinemas: Hoshiarpur"
  },
  "MCKO": {
    "AvailableFormats": "2D",
    "City": "Kolkata",
    "Latitude": "22.5973",
    "Longitude": "88.3719",
    "RegionCode": "KOLK",
    "State": "West Bengal",
    "SubRegionCode": "KOLK",
    "VenueAddress": "136/2, Bidhan Sarani, Shyam Bazar, Sovabazar, Hati Bagan, Kolkata, West Bengal 700004, India",
    "VenueCode": "MCKO",
    "VenueName": "Minar Cinema: Kolkata"
  },
  "MCMP": {
    "AvailableFormats": "",
    "City": "Patna",
    "Latitude": "25.6178",
    "Longitude": "85.1488",
    "RegionCode": "PATN",
    "State": "Bihar",
    "SubRegionCode": "PATN",
    "VenueAddress": "Gandhi Maidan Road, Bakerganj, Patna, Bihar 800004, India",
    "VenueCode": "MCMP",
    "VenueName": "Mona: Christie 4K RGB Laser & Dolby Atmos"
  },
  "MCRL": {
    "AvailableFormats": "2D|3D",
    "City": "Kanpur",
    "Latitude": "26.4564",
    "Longitude": "80.3342",
    "RegionCode": "KANP",
    "State": "Uttar Pradesh",
    "SubRegionCode": "KANP",
    "VenueAddress": "Ratan Elegance, Afim Kothi Chauraha, 86/275, Rajpurwa, Kanpur, Uttar Pradesh 208012, India",
    "VenueCode": "MCRL",
    "VenueName": "Movietime Cinemas: Ratan Elegance, Kanpur"
  },
  "MCSR": {
    "AvailableFormats": "",
    "City": "Saharanpur",
    "FirstTracked": "2026-07-14",
    "Latitude": "29.92732",
    "Longitude": "77.52606",
    "RegionCode": "SAHA",
    "State": "Uttar Pradesh",
    "SubRegionCode": "SAHA",
    "VenueAddress": "GNG Mall, 91-93, 2nd floor, Mavikaala, Pant Vihar, South Saharanpur, Near Standard Chartered Bank, Saharanpur, Uttar Pradesh 247001, India",
    "VenueCode": "MCSR",
    "VenueName": "Miraj Cinemas: Saharanpur, Uttar Pradesh"
  },
  "MCVD": {
    "AvailableFormats": "2D",
    "City": "Vadodara",
    "Latitude": "22.3194",
    "Longitude": "73.1589",
    "RegionCode": "VAD",
    "State": "Gujarat",
    "SubRegionCode": "VAD",
    "VenueAddress": "3rd Floor, S-Square Complex, Above Dominos, Subhanpura, Beside Ganga Jamuna Hospital, Vadodara, Gujarat 390023, India",
    "VenueCode": "MCVD",
    "VenueName": "Movietime: S-Square Mall, Subhanpura, Vadodara"
  },
  "MDGJ": {
    "AvailableFormats": "2D",
    "City": "Daltonganj",
    "Latitude": "24.0411",
    "Longitude": "84.0651",
    "RegionCode": "DATG",
    "State": "Jharkhand",
    "SubRegionCode": "DATG",
    "VenueAddress": "Near Jalihata Bus Stand, Daltonganj Road, Pahari Muhalla, Medininagar, Daltonganj, Jharkhand 822101, India",
    "VenueCode": "MDGJ",
    "VenueName": "Mohan Cinema: Daltonganj"
  },
  "MEER": {
    "AvailableFormats": "2D",
    "City": "Rajapalayam",
    "Latitude": "9.4487",
    "Longitude": "77.5596",
    "RegionCode": "RAYM",
    "State": "Tamil Nadu",
    "SubRegionCode": "RAYM",
    "VenueAddress": "61,Ashok Talkies Road, Rajapalayam,Virudhunagar, Near Rajapalayam Railway Station, Rajapalayam, Tamil Nadu 626117, India",
    "VenueCode": "MEER",
    "VenueName": "Meenakshi Cinemas Dolby Atmos A/C 4K: Rajapalayam"
  },
  "METE": {
    "AvailableFormats": "2D",
    "City": "Erattupetta",
    "Latitude": "9.68921",
    "Longitude": "76.7768",
    "RegionCode": "ERAT",
    "State": "Kerala",
    "SubRegionCode": "ERAT",
    "VenueAddress": "Kaduvamuzhi, Erattupetta, Near Erattupetta Police Station, Erattupetta, Kerala 686121, India",
    "VenueCode": "METE",
    "VenueName": "Rajans Metro A/C: Erattupetta"
  },
  "MHCL": {
    "AvailableFormats": "2D",
    "City": "Siddhpur",
    "Latitude": "23.9244",
    "Longitude": "72.363",
    "RegionCode": "SIDD",
    "State": "Gujarat",
    "SubRegionCode": "SIDD",
    "VenueAddress": "Ground and 1st Floor, Samarth Complex, Tavadia Char Rasta, Siddhpur, Gujarat 384151, India",
    "VenueCode": "MHCL",
    "VenueName": "Movie Hub (City Light Cinema): Siddhpur"
  },
  "MIMU": {
    "AvailableFormats": "3D|2D",
    "City": "Ghaziabad",
    "Latitude": "28.6791",
    "Longitude": "77.3589",
    "RegionCode": "NCR",
    "State": "NCR",
    "SubRegionCode": "GHAZ",
    "VenueAddress": "Laxmi Plaza Block 7 Sector 5, Rajendra Nagar, Opposite To Central Bank Of India, Ghaziabad, NCR 201006, India",
    "VenueCode": "MIMU",
    "VenueName": "Miraj Cinemas: M4U, Sahibabad"
  },
  "MJMC": {
    "AvailableFormats": "2D",
    "City": "Jiaganj",
    "Latitude": "24.2375",
    "Longitude": "88.2642",
    "RegionCode": "JAGJ",
    "State": "West Bengal",
    "SubRegionCode": "JAGJ",
    "VenueAddress": "Old Laxmi Talkies, Chudipatti Road, Jiaganj, West Bengal 742123, India",
    "VenueCode": "MJMC",
    "VenueName": "Mahabir Jain Municipalty Cultural: Jiaganj"
  },
  "MKMP": {
    "AvailableFormats": "2D|3D",
    "City": "Chittorgarh",
    "Latitude": "24.8821",
    "Longitude": "74.6355",
    "RegionCode": "COTT",
    "State": "Rajasthan",
    "SubRegionCode": "COTT",
    "VenueAddress": "3rd Floor, Maharani Padmini Mall, Near Panna Dhay Bus Stand, Chittorgarh, Rajasthan 312001, India",
    "VenueCode": "MKMP",
    "VenueName": "Mukta A2 Cinema: Maharani Padmini Mall,Chittorgarh"
  },
  "MLDP": {
    "AvailableFormats": "",
    "City": "Dehradun",
    "FirstTracked": "2026-07-14",
    "Latitude": "30.289",
    "Longitude": "77.9991",
    "RegionCode": "DEH",
    "State": "Uttarakhand",
    "SubRegionCode": "DEH",
    "VenueAddress": "The City Junction, 2nd Floor, Adjoining ISBT Dehradun, Haridwar Byepass Road, Dehradun, Uttarakhand 248001, India",
    "VenueCode": "MLDP",
    "VenueName": "Microcineplex Cinema: Dehradun"
  },
  "MMCJ": {
    "AvailableFormats": "2D",
    "City": "Jasdan",
    "Latitude": "22.0243",
    "Longitude": "71.1793",
    "RegionCode": "JASD",
    "State": "Gujarat",
    "SubRegionCode": "JASD",
    "VenueAddress": "Ring Road, Atkot Road, Aanand Nagar, Jasdan, Gujarat 360050, India",
    "VenueCode": "MMCJ",
    "VenueName": "Miraj Cinemas: Citypride Multiplex, Jasdan"
  },
  "MMKC": {
    "AvailableFormats": "2D",
    "City": "Chennai",
    "Latitude": "12.9198",
    "Longitude": "80.1957",
    "RegionCode": "CHEN",
    "State": "Tamil Nadu",
    "SubRegionCode": "CHEN",
    "VenueAddress": "No. 4/347 Velachery Main Road, Medavakkam, Chennai, Tamil Nadu 600100, India",
    "VenueCode": "MMKC",
    "VenueName": "Medavakkam Kumaran Cinemas RGB LASER Dolby Atmos"
  },
  "MMOC": {
    "AvailableFormats": "2D",
    "City": "Ghaziabad",
    "Latitude": "28.7354",
    "Longitude": "77.285",
    "RegionCode": "NCR",
    "State": "NCR",
    "SubRegionCode": "GHAZ",
    "VenueAddress": "D-Block No. 2, Near Bus Stand, Loni, Ghaziabad, NCR 201102, India",
    "VenueCode": "MMOC",
    "VenueName": "Movie Magic Cinema: Ghaziabad"
  },
  "MMTR": {
    "AvailableFormats": "2D",
    "City": "Kottayam",
    "Latitude": "9.5866",
    "Longitude": "76.5213",
    "RegionCode": "ETTU",
    "State": "Kerala",
    "SubRegionCode": "ETTU",
    "VenueAddress": "Main Central Road, Kollam - Theni Highway, Near BSNL Bhavan, Kottayam, Kerala 686001, India",
    "VenueCode": "MMTR",
    "VenueName": "Dhanya Remya: Kottayam"
  },
  "MMZM": {
    "AvailableFormats": "2D",
    "City": "Indore",
    "Latitude": "22.7525",
    "Longitude": "75.8969",
    "RegionCode": "IND",
    "State": "Madhya Pradesh",
    "SubRegionCode": "IND",
    "VenueAddress": "Mangal City, Plot No.A-1, PU-4, Garipipliya Road Scheme No.54, Vijay Nagar, Indore, Madhya Pradesh 452010, India",
    "VenueCode": "MMZM",
    "VenueName": "Mangal Multiplex: Indore"
  },
  "MNRL": {
    "AvailableFormats": "2D",
    "City": "Kallur",
    "Latitude": "13.5572",
    "Longitude": "78.9892",
    "RegionCode": "KLUR",
    "State": "Andhra Pradesh",
    "SubRegionCode": "KLUR",
    "VenueAddress": "Kallur - Punganur Road, Near SRK gardens, Kallur, Andhra Pradesh 517113, India",
    "VenueCode": "MNRL",
    "VenueName": "MNR Cinemax - Prabhakar Picture Palace: Kallur(AP)"
  },
  "MPTT": {
    "AvailableFormats": "2D",
    "City": "Tirupati",
    "Latitude": "13.6302",
    "Longitude": "79.4239",
    "RegionCode": "TIRU",
    "State": "Andhra Pradesh",
    "SubRegionCode": "TIRU",
    "VenueAddress": "Jayasam Road, Tata Nagar, Tirupati, Andhra Pradesh 517501, India",
    "VenueCode": "MPTT",
    "VenueName": "Pratap Delux A/c 2k Dolby Atmos: Tirupati"
  },
  "MRGT": {
    "AvailableFormats": "3D|2D",
    "City": "Hyderabad",
    "Latitude": "17.4938",
    "Longitude": "78.3193",
    "RegionCode": "HYD",
    "State": "Telangana",
    "SubRegionCode": "HYD",
    "VenueAddress": "H.No 5 - 54, Manjeera Road, Chandanagar, Beside Andhra Bank, Hyderabad, Telangana 500050, India",
    "VenueCode": "MRGT",
    "VenueName": "Miraj Cinemas: Geeta, Chandanagar"
  },
  "MRSW": {
    "AvailableFormats": "2D|3D",
    "City": "Vadodara",
    "Latitude": "22.2803",
    "Longitude": "73.1497",
    "RegionCode": "VAD",
    "State": "Gujarat",
    "SubRegionCode": "VAD",
    "VenueAddress": "Plot No. 28, Ward No. 11, Next to Sun Pharma Research Center, Sun Pharma Road, Soudagar Park, Tandalja, Vadodara, Gujarat 390012, India",
    "VenueCode": "MRSW",
    "VenueName": "Miraj Cinemas: SWC Mall"
  },
  "MSKT": {
    "AvailableFormats": "2D",
    "City": "Deoria",
    "Latitude": "26.5923",
    "Longitude": "83.6668",
    "RegionCode": "DEEO",
    "State": "Uttar Pradesh",
    "SubRegionCode": "DEEO",
    "VenueAddress": "Paragna-Silhat Panankunda, Tappa Indupur, Near Gauri Bazar Tehsil, Deoria, Uttar Pradesh 274202, India",
    "VenueCode": "MSKT",
    "VenueName": "Krishna Talkies: Gauri Bazar, Deoria"
  },
  "MTBG": {
    "AvailableFormats": "",
    "City": "Bhuj",
    "FirstTracked": "2026-07-14",
    "Latitude": "23.25014",
    "Longitude": "69.67019",
    "RegionCode": "BHUJ",
    "State": "Gujarat",
    "SubRegionCode": "BHUJ",
    "VenueAddress": "Near, Bus Station Road, Old Dhatia Falia, Bhuj, Gujarat 370001, India",
    "VenueCode": "MTBG",
    "VenueName": "Modern Cinema: Bhuj"
  },
  "MTDK": {
    "AvailableFormats": "2D|3D",
    "City": "Davanagere",
    "Latitude": "14.4551",
    "Longitude": "75.9056",
    "RegionCode": "DAVA",
    "State": "Karnataka",
    "SubRegionCode": "DAVA",
    "VenueAddress": "3rd Floor, SS Gardenia Mall, SS Layout, A Block, Shamanur Road, Near Lakshmi Flour Mill, Davanagere, Karnataka 577004, India",
    "VenueCode": "MTDK",
    "VenueName": "Movietime Cinemas: Davanagere"
  },
  "MTKV": {
    "AvailableFormats": "",
    "City": "Kavali",
    "FirstTracked": "2026-07-14",
    "Latitude": "14.9202",
    "Longitude": "79.9899",
    "RegionCode": "KVLI",
    "State": "Andhra Pradesh",
    "SubRegionCode": "KVLI",
    "VenueAddress": "Vaddi Palem, Theatre Road, Kavali, Andhra Pradesh 524201, India",
    "VenueCode": "MTKV",
    "VenueName": "Manasa Cinemas 4k Dolby Atmos: Kavali,Nellore"
  },
  "MTRA": {
    "AvailableFormats": "2D",
    "City": "Mylavaram",
    "Latitude": "16.7576",
    "Longitude": "80.6416",
    "RegionCode": "MYLA",
    "State": "Andhra Pradesh",
    "SubRegionCode": "MYLA",
    "VenueAddress": "Badrachalam Road, Near Shriram City Union Finance, Mylavaram, Andhra Pradesh 521230, India",
    "VenueCode": "MTRA",
    "VenueName": "Sangamithra Theater A/C 2K Dolby: Mylavaram"
  },
  "MUCH": {
    "AvailableFormats": "2D",
    "City": "Champa",
    "Latitude": "22.0317",
    "Longitude": "82.6428",
    "RegionCode": "CHAM",
    "State": "Chhattisgarh",
    "SubRegionCode": "CHAM",
    "VenueAddress": "Near Post Office, Anicut Road, Champa Basti, Champa, Chhattisgarh 495671, India",
    "VenueCode": "MUCH",
    "VenueName": "Mukund`s Multiplex: Champa"
  },
  "MVKH": {
    "AvailableFormats": "2D",
    "City": "Pollachi",
    "Latitude": "10.6558",
    "Longitude": "77.0055",
    "RegionCode": "POLL",
    "State": "Tamil Nadu",
    "SubRegionCode": "POLL",
    "VenueAddress": "19/1, Market Road, Theppakulam St, Vinayagar Kovil, Pollachi, Tamil Nadu 642001, India",
    "VenueCode": "MVKH",
    "VenueName": "Murukalaya & Vishal Cinema 4K Dolby Atmos:Pollachi"
  },
  "MXCK": {
    "AvailableFormats": "2D",
    "City": "Mumbai",
    "Latitude": "19.2123",
    "Longitude": "72.8716",
    "RegionCode": "MUMBAI",
    "State": "Maharashtra",
    "SubRegionCode": "MWEST",
    "VenueAddress": "4th Floor, Vishnu Shivam Mall, Dattani Park, Thakur Village, Kandivali East, Mumbai, Maharashtra 400101, India",
    "VenueCode": "MXCK",
    "VenueName": "Maxus Cinemas: Kandivali (E) Newly Opened"
  },
  "MYCR": {
    "AvailableFormats": "2D",
    "City": "Kariyad",
    "Latitude": "10.1616",
    "Longitude": "76.3648",
    "RegionCode": "ANGA",
    "State": "Kerala",
    "SubRegionCode": "ANGA",
    "VenueAddress": "National Highway 47, Nedumbassery, Near Cochin Airport, Kariyad, Kerala 683589, India",
    "VenueCode": "MYCR",
    "VenueName": "MY Cinemas RedCarpet: Kariyad"
  },
  "MZHA": {
    "AvailableFormats": "2D",
    "City": "Haldwani",
    "Latitude": "29.1085",
    "Longitude": "79.5245",
    "RegionCode": "HALD",
    "State": "Uttarakhand",
    "SubRegionCode": "HALD",
    "VenueAddress": "Keshav Plaza Gola Road, Naya Bazar, Haldwani, Uttarakhand 263139, India",
    "VenueCode": "MZHA",
    "VenueName": "Movie Zone Cinema: Haldwani Halduchour Lalkuan"
  },
  "NATP": {
    "AvailableFormats": "2D",
    "City": "Palakkad",
    "Latitude": "10.7774",
    "Longitude": "76.6533",
    "RegionCode": "PLKK",
    "State": "Kerala",
    "SubRegionCode": "PLKK",
    "VenueAddress": "Priyadarshini Road, Sultanpet, Near Apex Residence, Palakkad, Kerala 678001, India",
    "VenueCode": "NATP",
    "VenueName": "New Aroma Theatre: Palakkad"
  },
  "NCIL": {
    "AvailableFormats": "2D|3D",
    "City": "Lucknow",
    "Latitude": "26.848",
    "Longitude": "80.9394",
    "RegionCode": "LUCK",
    "State": "Uttar Pradesh",
    "SubRegionCode": "LUCK",
    "VenueAddress": "Lalbagh Crossing, Near Dhyanidhan Park Road, Lucknow, Uttar Pradesh 226001, India",
    "VenueCode": "NCIL",
    "VenueName": "Novelty MGS Cinemas Dolby Atmos: Lalbagh"
  },
  "NCSQ": {
    "AvailableFormats": "3D|2D",
    "City": "Guwahati",
    "Latitude": "26.1584",
    "Longitude": "91.6804",
    "RegionCode": "GUW",
    "State": "Assam",
    "SubRegionCode": "GUW",
    "VenueAddress": "PVR Limited, NCS Square Mall, A.T Road, Adabari, Guwahati, Assam 781012, India",
    "VenueCode": "NCSQ",
    "VenueName": "INOX: NCS Square, Guwahati"
  },
  "NEEB": {
    "AvailableFormats": "",
    "City": "Balotra",
    "FirstTracked": "2026-07-14",
    "Latitude": "25.833633",
    "Longitude": "72.24896",
    "RegionCode": "BALO",
    "State": "Rajasthan",
    "SubRegionCode": "BALO",
    "VenueAddress": "Gobra Nawapara, Jhanwar-Balotra Road, Balotra Urban Co-operative Bank, Balotra, Rajasthan 344022, India",
    "VenueCode": "NEEB",
    "VenueName": "Neelam Cinema: Balotra"
  },
  "NJCT": {
    "AvailableFormats": "",
    "City": "Thiruvalla",
    "FirstTracked": "2026-07-14",
    "Latitude": "9.376705",
    "Longitude": "76.55658",
    "RegionCode": "THVL",
    "State": "Kerala",
    "SubRegionCode": "THVL",
    "VenueAddress": "State Highway 12, Manipuzha Peringara Road, Near Kavumbhagom Municipality Complex, Thiruvalla, Kerala 689102, India",
    "VenueCode": "NJCT",
    "VenueName": "New Jacobs Cinemas Enhanced 4K: Thiruvalla"
  },
  "NMHT": {
    "AvailableFormats": "2D",
    "City": "Thalayolaparambu",
    "Latitude": "9.78703",
    "Longitude": "76.4405",
    "RegionCode": "THAL",
    "State": "Kerala",
    "SubRegionCode": "THAL",
    "VenueAddress": "Vaikom Road, Thalayolaparambu, Kottayam, Near Medicity Cooperative Hospital, Thalayolaparambu, Kerala 686605, India",
    "VenueCode": "NMHT",
    "VenueName": "Nice Movie House: Thalayolaparambu"
  },