{
  "AACT": {
    "AvailableFormats": "",
    "City": "Tirur",
    "FirstTracked": "2026-07-14",
    "Latitude": "10.909439",
    "Longitude": "75.922585",
    "RegionCode": "ANDM",
    "State": "Kerala",
    "SubRegionCode": "ANDM",
    "VenueAddress": "Trikkandiyoor Road, Tirur, Near MDC BANK, Tirur, Kerala 676101, India",
    "VenueCode": "AACT",
    "VenueName": "Magic Frames Anoograha Cinemas: Tirur"
  },
  "AASH": {
    "AvailableFormats": "2D",
    "City": "Bhandara",
    "Latitude": "21.17",
    "Longitude": "79.6562",
    "RegionCode": "BHAA",
    "State": "Maharashtra",
    "SubRegionCode": "BHAA",
    "VenueAddress": "Gandhi Square, Gandhi Chowk, Santaji Nagar, Bhandara, Maharashtra 441904, India",
    "VenueCode": "AASH",
    "VenueName": "Adarsh Chitra Mandir: Bhandara"
  },
  "ABCS": {
    "AvailableFormats": "3D|2D",
    "City": "Hyderabad",
    "Latitude": "17.4005",
    "Longitude": "78.5548",
    "RegionCode": "HYD",
    "State": "Telangana",
    "SubRegionCode": "HYD",
    "VenueAddress": "DSL Virtue Mall, 3rd Floor, Plot No. B-1, B-2B and 2, Uppal Khlasa VRR, Near Indian Oil Petrol Pump, Hyderabad, Telangana 500039, India",
    "VenueCode": "ABCS",
    "VenueName": "Cinepolis: DSL Virtue Mall Uppal, Hyderabad"
  },
  "ACAI": {
    "AvailableFormats": "2D",
    "City": "Erode",
    "Latitude": "11.3606",
    "Longitude": "77.7149",
    "RegionCode": "EROD",
    "State": "Tamil Nadu",
    "SubRegionCode": "EROD",
    "VenueAddress": "Vairapalayam Road, Thasildhar thottam, Near Aavin milk agency 83, Erode, Tamil Nadu 638001, India",
    "VenueCode": "ACAI",
    "VenueName": "A Square Cinemas Annapoorani Dolby A/c 7.1 Sony 4K"
  },
  "ACDE": {
    "AvailableFormats": "2D",
    "City": "Dewas",
    "Latitude": "22.97",
    "Longitude": "76.0517",
    "RegionCode": "DEWAS",
    "State": "Madhya Pradesh",
    "SubRegionCode": "DEWAS",
    "VenueAddress": "Ujjain Road, Aashirwad Garden, Near Shivaji Nagar, Itawa, Dewas, Madhya Pradesh 455001, India",
    "VenueCode": "ACDE",
    "VenueName": "Abhinav And Sanghvi Cineplex: Dewas"
  },
  "ACJA": {
    "AvailableFormats": "2D",
    "City": "Surat",
    "Latitude": "21.2463",
    "Longitude": "72.7925",
    "RegionCode": "SURT",
    "State": "Gujarat",
    "SubRegionCode": "SURT",
    "VenueAddress": "6th Floor, Exxoniic Mall, Jahangirpura Variyaav Road, Near Iskon Temple, Jahangirpura, Surat, Gujarat 395005, India",
    "VenueCode": "ACJA",
    "VenueName": "Apple Cinema: Jahangirpura, Surat"
  },
  "ACMC": {
    "AvailableFormats": "2D",
    "City": "Mahabubabad",
    "Latitude": "17.5954",
    "Longitude": "80.0052",
    "RegionCode": "MAHA",
    "State": "Telangana",
    "SubRegionCode": "MAHA",
    "VenueAddress": "Gundal - Yellandu Road, Shikarkana Gadda, Near CSI Church, Mahabubabad, Telangana 506101, India",
    "VenueCode": "ACMC",
    "VenueName": "Asian Mukund: Mahabubabad"
  },
  "ACPK": {
    "AvailableFormats": "2D",
    "City": "Kochi",
    "Latitude": "10.1135",
    "Longitude": "76.4791",
    "RegionCode": "PALY",
    "State": "Kerala",
    "SubRegionCode": "PALY",
    "VenueAddress": "K.S.R.T.C Bus Stand Road, Perumbavoor, Eranakulam District, Near Marvel Aquarium, Kochi, Kerala 683549, India",
    "VenueCode": "ACPK",
    "VenueName": "Aashirvad Cineplexx: Perumbavoor"
  },
  "ACTN": {
    "AvailableFormats": "2D",
    "City": "Chennai",
    "Latitude": "13.0474",
    "Longitude": "80.2449",
    "RegionCode": "CHEN",
    "State": "Tamil Nadu",
    "SubRegionCode": "CHEN",
    "VenueAddress": "No: 24/1, GN Chetty Road, T. Nagar, Opposite Dr. M.G.R. Educational and Research Institute, Chennai, Tamil Nadu 600017, India",
    "VenueCode": "ACTN",
    "VenueName": "AGS Cinemas: T. Nagar"
  },
  "ACXL": {
    "AvailableFormats": "",
    "City": "Coimbatore",
    "FirstTracked": "2026-07-14",
    "Latitude": "11.01482",
    "Longitude": "76.96491",
    "RegionCode": "COIM",
    "State": "Tamil Nadu",
    "SubRegionCode": "COIM",
    "VenueAddress": "109, Senthil kumaran Theatre, Gokhale St, Peranaidu Layout, Ram Nagar, Coimbatore, Tamil Nadu 641009, India",
    "VenueCode": "ACXL",
    "VenueName": "Ambal Complex (Senthil Kumaran): Coimbatore"
  },
  "ADMB": {
    "AvailableFormats": "",
    "City": "Dhule",
    "FirstTracked": "2026-07-14",
    "Latitude": "20.89633",
    "Longitude": "74.775505",
    "RegionCode": "DHLE",
    "State": "Maharashtra",
    "SubRegionCode": "DHLE",
    "VenueAddress": "Opp. Shriram Petrol Pump, Agra Road, Dhule, Maharashtra 424001, India",
    "VenueCode": "ADMB",
    "VenueName": "BIG Cinemas: Manohar, Dhule"
  },
  "AGSM": {
    "AvailableFormats": "2D",
    "City": "Chennai",
    "Latitude": "13.0601",
    "Longitude": "80.1648",
    "RegionCode": "CHEN",
    "State": "Tamil Nadu",
    "SubRegionCode": "CHEN",
    "VenueAddress": "No 3/47, Alapakkam Main Road, Subramaniapuram, Pallavan Nagar, Chennai, Tamil Nadu 600095, India",
    "VenueCode": "AGSM",
    "VenueName": "AGS Cinemas: Maduravoyal"
  },
  "AKCH": {
    "AvailableFormats": "2D",
    "City": "Kollam",
    "Latitude": "8.81261",
    "Longitude": "76.6716",
    "RegionCode": "KOLM",
    "State": "Kerala",
    "SubRegionCode": "KOLM",
    "VenueAddress": "Paravur, North Paravur Road, Near ValluVally Juma Masjid, Kollam, Kerala 691301, India",
    "VenueCode": "AKCH",
    "VenueName": "Ashok Cine House: Paravur"
  },
  "AKTG": {
    "AvailableFormats": "2D",
    "City": "Gadarwara",
    "Latitude": "22.9202",
    "Longitude": "78.7821",
    "RegionCode": "GDWR",
    "State": "Madhya Pradesh",
    "SubRegionCode": "GDWR",
    "VenueAddress": "Alka Talkies Road, Vijay Colony, Bhabha Ward, Gadarwara, Madhya Pradesh 487551, India",
    "VenueCode": "AKTG",
    "VenueName": "Alka Talkies: Gadarwara"
  },
  "ALPC": {
    "AvailableFormats": "2D",
    "City": "Bhopal",
    "Latitude": "23.2648",
    "Longitude": "77.4101",
    "RegionCode": "BHOP",
    "State": "Madhya Pradesh",
    "SubRegionCode": "BHOP",
    "VenueAddress": "Hamidia Road, Railway Colony, Near Railway Station, Bhopal, Madhya Pradesh 460160, India",
    "VenueCode": "ALPC",
    "VenueName": "Alpana Air-Cooled Cineplex: Bhopal"
  },
  "AMCA": {
    "AvailableFormats": "2D",
    "City": "Hyderabad",
    "Latitude": "17.3717",
    "Longitude": "78.4302",
    "RegionCode": "HYD",
    "State": "Telangana",
    "SubRegionCode": "HYD",
    "VenueAddress": "1st Floor, MCube Mall, Attapur Ring Road, Somi Reddy Nagar, Rajendra Nagar,Attapur, Hyderabad, Telangana 500048, India",
    "VenueCode": "AMCA",
    "VenueName": "Asian M Cube Mall: Attapur"
  },
  "AMHR": {
    "AvailableFormats": "2D",
    "City": "Virudhunagar",
    "Latitude": "9.59045",
    "Longitude": "77.9527",
    "RegionCode": "VIRU",
    "State": "Tamil Nadu",
    "SubRegionCode": "VIRU",
    "VenueAddress": "RR Nagar, Sivagami Puram, Virudhunagar, Tamil Nadu 626001, India",
    "VenueCode": "AMHR",
    "VenueName": "Amirtharaj Theatre A/C 2K Dolby 7.1: Virudhunagar"
  },
  "AMRL": {
    "AvailableFormats": "2D",
    "City": "Amreli",
    "Latitude": "21.6013",
    "Longitude": "71.2198",
    "RegionCode": "AMRE",
    "State": "Gujarat",
    "SubRegionCode": "AMRE",
    "VenueAddress": "2nd Floor, Opera House, Station Road, Opposite - Krishna Petrol Pump, Amreli, Gujarat 365601, India",
    "VenueCode": "AMRL",
    "VenueName": "Redcorner Cinema: Amreli"
  },
  "ANAN": {
    "AvailableFormats": "2D",
    "City": "Khed",
    "Latitude": "17.7125",
    "Longitude": "73.4093",
    "RegionCode": "KHED",
    "State": "Maharashtra",
    "SubRegionCode": "KHED",
    "VenueAddress": "Near Nagarpalika, Khed Dapoli Road, Khed, Maharashtra 415709, India",
    "VenueCode": "ANAN",
    "VenueName": "City Pride: Annand"
  },
  "ANJR": {
    "AvailableFormats": "",
    "City": "Choutuppal",
    "FirstTracked": "2026-07-14",
    "Latitude": "17.253859",
    "Longitude": "78.893906",
    "RegionCode": "CHOU",
    "State": "Telangana",
    "SubRegionCode": "CHOU",
    "VenueAddress": "GM Complex, NH65, Choutuppal, Telangana 508252, India",
    "VenueCode": "ANJR",
    "VenueName": "Anji Reddy 70MM: Choutuppal"
  },
  "ANST": {
    "AvailableFormats": "2D",
    "City": "Sangareddy",
    "Latitude": "17.3712",
    "Longitude": "78.0502",
    "RegionCode": "SARE",
    "State": "Telangana",
    "SubRegionCode": "SARE",
    "VenueAddress": "Sitara Theatre Road, Veerabhadra Nagar, Near Bismilla Masjid, Sangareddy, Telangana 502001, India",
    "VenueCode": "ANST",
    "VenueName": "Asian Nithin Sitara: Sangareddy"
  },
  "APAP": {
    "AvailableFormats": "2D",
    "City": "Pattukkottai",
    "Latitude": "10.418",
    "Longitude": "79.3198",
    "RegionCode": "PATU",
    "State": "Tamil Nadu",
    "SubRegionCode": "PATU",
    "VenueAddress": "Nadimuthu Nagar, Pattukottai,Tamil Nadu, Near Komala vilas raju thirumana mahal, Pattukkottai, Tamil Nadu 614602, India",
    "VenueCode": "APAP",
    "VenueName": "Annapoorna Cinemas 4K Dolby 7.1: Pattukottai"
  },
  "APNS": {
    "AvailableFormats": "",
    "City": "Hyderabad",
    "FirstTracked": "2026-07-14",
    "Latitude": "17.2859",
    "Longitude": "78.4141",
    "RegionCode": "HYD",
    "State": "Telangana",
    "SubRegionCode": "HYD",
    "VenueAddress": "1/97/11, Sathamrai Village, Langerguda, Hyderabad, Telangana 500052, India",
    "VenueCode": "APNS",
    "VenueName": "Aparna Cinemas: Shamshabad"
  },
  "APSU": {
    "AvailableFormats": "2D",
    "City": "Hubli",
    "Latitude": "15.3481",
    "Longitude": "75.144",
    "RegionCode": "HUBL",
    "State": "Karnataka",
    "SubRegionCode": "HUBL",
    "VenueAddress": "Coen Road, New Hubli, Opposite Corporation Bank, Hubli, Karnataka 580020, India",
    "VenueCode": "APSU",
    "VenueName": "Apsara & Sudha Cinemas: Hubli"
  },
  "ARCC": {
    "AvailableFormats": "2D",
    "City": "Nandyal",
    "Latitude": "15.4742",
    "Longitude": "78.4866",
    "RegionCode": "NADY",
    "State": "Andhra Pradesh",
    "SubRegionCode": "NADY",
    "VenueAddress": "SBI Colony, Nandyal-Thimmanayunipeta Road, Nandyal, Andhra Pradesh 518501, India",
    "VenueCode": "ARCC",
    "VenueName": "Sri Rama Complex: Nandyal"
  },
  "ARRP": {
    "AvailableFormats": "",
    "City": "Narsapur",
    "FirstTracked": "2026-07-14",
    "Latitude": "16.44076",
    "Longitude": "81.70493",
    "RegionCode": "NARP",
    "State": "Andhra Pradesh",
    "SubRegionCode": "NARP",
    "VenueAddress": "Narsapur Road, West Godavari, Narsapur, Andhra Pradesh 534275, India",
    "VenueCode": "ARRP",
    "VenueName": "Sri Raja Rajeshwari Picture Palace: Narsapur"
  },
  "ASCC": {
    "AvailableFormats": "2D",
    "City": "Coimbatore",
    "Latitude": "10.9599",
    "Longitude": "76.9808",
    "RegionCode": "COIM",
    "State": "Tamil Nadu",
    "SubRegionCode": "COIM",
    "VenueAddress": "231, Sundarapuram,Podanur, Sarada Mill Road, Near Podanur Panchayat Office, Coimbatore, Tamil Nadu 641023, India",
    "VenueCode": "ASCC",
    "VenueName": "Arasan Cinemas A/C 4K Dolby: Coimbatore"
  },
  "ASHN": {
    "AvailableFormats": "2D",
    "City": "Hyderabad",
    "Latitude": "17.5107",
    "Longitude": "78.2952",
    "RegionCode": "HYD",
    "State": "Telangana",
    "SubRegionCode": "HYD",
    "VenueAddress": "Sy. No. 101AA, 101 E, 105 E, Ramchandra Puram, Hyderabad, Telangana 500133, India",
    "VenueCode": "ASHN",
    "VenueName": "Asian Cinemart: RC Puram"
  },
  "ASMR": {
    "AvailableFormats": "2D",
    "City": "Miryalaguda",
    "Latitude": "16.8703",
    "Longitude": "79.5631",
    "RegionCode": "MRGD",
    "State": "Telangana",
    "SubRegionCode": "MRGD",
    "VenueAddress": "Islampura Road, Beside Madhusudhan Reddy Hospital, Miryalaguda, Telangana 508207, India",
    "VenueCode": "ASMR",
    "VenueName": "Asian Srinivasa Theater: Miryalaguda"
  },
  "ASSA": {
    "AvailableFormats": "2D",
    "City": "Mancherial",
    "Latitude": "18.8705",
    "Longitude": "79.4472",
    "RegionCode": "MANC",
    "State": "Telangana",
    "SubRegionCode": "MANC",
    "VenueAddress": "Station Road, Mancherial, Mancherial, Telangana 504302, India",
    "VenueCode": "ASSA",
    "VenueName": "Asian Srinivasa: Mancherial"
  },
  "ASTS": {
    "AvailableFormats": "2D",
    "City": "Davanagere",
    "Latitude": "14.4673",
    "Longitude": "75.9249",
    "RegionCode": "DAVA",
    "State": "Karnataka",
    "SubRegionCode": "DAVA",
    "VenueAddress": "SH 65, Ashoka Road, KB Extension, Near Railway Gate, Davanagere, Karnataka 577001, India",
    "VenueCode": "ASTS",
    "VenueName": "Ashoka Talkies: Davanagere"
  },
  "ATCK": {
    "AvailableFormats": "3D|2D",
    "City": "Kolkata",
    "Latitude": "22.7641",
    "Longitude": "88.3696",
    "RegionCode": "BARR",
    "State": "West Bengal",
    "SubRegionCode": "BARR",
    "VenueAddress": "91-73, Ghosh Para Road, North 24Pgs, Barrackpore, Near Barrackpore Railway Station, Kolkata, West Bengal 700120, India",
    "VenueCode": "ATCK",
    "VenueName": "Atindra Cinema: Barrackpore"
  },
  "ATKY": {
    "AvailableFormats": "",
    "City": "Kottayam",
    "FirstTracked": "2026-07-14",
    "Latitude": "9.589517",
    "Longitude": "76.51791",
    "RegionCode": "KTYM",
    "State": "Kerala",
    "SubRegionCode": "KTYM",
    "VenueAddress": "Palace Road, Thirunakara, Behind Bharath Hospital Puthenangady, Kottayam, Kerala 686001, India",
    "VenueCode": "ATKY",
    "VenueName": "Anaswara Theatre 2K Triple Beam 3D: Kottayam"
  },
  "ATTS": {
    "AvailableFormats": "2D",
    "City": "Hoshiarpur",
    "Latitude": "31.5552",
    "Longitude": "75.8694",
    "RegionCode": "TNDA",
    "State": "Punjab",
    "SubRegionCode": "TNDA",
    "VenueAddress": "Tanda Road, Bharat Petroleum, Hoshiarpur, Hoshiarpur, Punjab 146001, India",
    "VenueCode": "ATTS",
    "VenueName": "AG Star Cinemaz Hoshiarpur (Near Amber Palace)"
  },
  "AVCH": {
    "AvailableFormats": "2D",
    "City": "Khandwa",
    "Latitude": "21.8169",
    "Longitude": "76.3434",
    "RegionCode": "KHDW",
    "State": "Madhya Pradesh",
    "SubRegionCode": "KHDW",
    "VenueAddress": "Burhanpur - Pandhana Road, Plot No.106, Kunbi, East Nimar, Khandwa, Madhya Pradesh 450001, India",
    "VenueCode": "AVCH",
    "VenueName": "Abhishek Veer Cinemas: Khandwa"
  },
  "AWCT": {
    "AvailableFormats": "2D",
    "City": "Thodupuzha",
    "Latitude": "9.90285",
    "Longitude": "76.7153",
    "RegionCode": "THOD",
    "State": "Kerala",
    "SubRegionCode": "THOD",
    "VenueAddress": "Silver Hills, Mount Sinai Road, Near Mount Senai Hospital, Thodupuzha, Kerala 685584, India",
    "VenueCode": "AWCT",
    "VenueName": "Silver Hills Naxa Cinemas 4K Dolby ATMOS"
  },
  "AYOU": {
    "AvailableFormats": "2D",
    "City": "Pithampur",
    "Latitude": "22.6153",
    "Longitude": "75.6509",
    "RegionCode": "PITH",
    "State": "Madhya Pradesh",
    "SubRegionCode": "PITH",
    "VenueAddress": "S 24 Mall, Mhow Neemuch Road, Bardari Gram, Pithampur, Madhya Pradesh 454775, India",
    "VenueCode": "AYOU",
    "VenueName": "AYOU Cinemas: Pithampur"
  },
  "BARA": {
    "AvailableFormats": "2D",
    "City": "Kolkata",
    "Latitude": "22.5794",
    "Longitude": "88.4595",
    "RegionCode": "KOLK",
    "State": "West Bengal",
    "SubRegionCode": "KOLK",
    "VenueAddress": "4TH Floor, Axis Mall, 1C, 11, CF Block(Newtown), Action Area 1C, CF-9 New Town, Rajarhat, Near Novotel Kolkata Hotel And Residences, Kolkata, West Bengal 700156, India",
    "VenueCode": "BARA",
    "VenueName": "Bioscope: Axis Mall, Rajarhat"
  },
  "BBTC": {
    "AvailableFormats": "2D",
    "City": "Channapatna",
    "Latitude": "12.6456",
    "Longitude": "77.1945",
    "RegionCode": "CPTN",
    "State": "Karnataka",
    "SubRegionCode": "CPTN",
    "VenueAddress": "16th Cross, Mangalavara Pete Road, Near Big Bazar, Channapatna, Karnataka 562160, India",
    "VenueCode": "BBTC",
    "VenueName": "Sri Balaji Talkies: Channapatna"
  },
  "BCWG": {
    "AvailableFormats": "2D|3D",
    "City": "Ghaziabad",
    "Latitude": "28.6797",
    "Longitude": "77.3819",
    "RegionCode": "NCR",
    "State": "NCR",
    "SubRegionCode": "GHAZ",
    "VenueAddress": "Bhutani City Centre, Ghaziabad T-Point, Mohan Nagar, Near Air Force Station Hindon, Ghaziabad, NCR 201007, India",
    "VenueCode": "BCWG",
    "VenueName": "B18 Cinemas (Bhutani Cineplex) City Center GZB"
  },
  "BHAC": {
    "AvailableFormats": "2D",
    "City": "Bengaluru",
    "Latitude": "13.0415",
    "Longitude": "77.5175",
    "RegionCode": "HOKT",
    "State": "Karnataka",
    "SubRegionCode": "HOKT",
    "VenueAddress": "Prashanth Nagar, T. Dasarahalli, Dasara Halli Cross, Next To Rockline Mall, Bengaluru, Karnataka 560057, India",
    "VenueCode": "BHAC",
    "VenueName": "Bharathi Theatre (Peenya) A/C 4K 7.1 Dolby Digital"
  },
  "BIJH": {
    "AvailableFormats": "2D",
    "City": "Jhabua",
    "Latitude": "22.7609",
    "Longitude": "74.5879",
    "RegionCode": "JHAB",
    "State": "Madhya Pradesh",
    "SubRegionCode": "JHAB",
    "VenueAddress": "Infront of College Ground, Ranapur Road, Jhabua, Madhya Pradesh 457661, India",
    "VenueCode": "BIJH",
    "VenueName": "B4 Cinema: Jhabua"
  },
  "BJTS": {
    "AvailableFormats": "2D",
    "City": "Chikkaballapur",
    "Latitude": "13.4311",
    "Longitude": "77.7307",
    "RegionCode": "CHIK",
    "State": "Karnataka",
    "SubRegionCode": "CHIK",
    "VenueAddress": "B B Road, Near Chikkaballapur Road, Chikkaballapur, Karnataka 562101, India",
    "VenueCode": "BJTS",
    "VenueName": "Balaji Talkies: Chikkaballapura"
  },
  "BLJI": {
    "AvailableFormats": "2D",
    "City": "Vijayawada",
    "Latitude": "16.4726",
    "Longitude": "80.7163",
    "RegionCode": "KADU",
    "State": "Andhra Pradesh",
    "SubRegionCode": "KADU",
    "VenueAddress": "Bundar Road, Poranki, Near Priya Foods, Vijayawada, Andhra Pradesh 521137, India",
    "VenueCode": "BLJI",
    "VenueName": "Balaji Cine Villa: Vijayawada"
  },
  "BMRV": {
    "AvailableFormats": "2D",
    "City": "Veeraghattam",
    "Latitude": "18.6896",
    "Longitude": "83.6086",
    "RegionCode": "VEER",
    "State": "Andhra Pradesh",
    "SubRegionCode": "VEER",
    "VenueAddress": "Jiyyammavalasa Road, Down street, Veeraghattam, Andhra Pradesh 532460, India",
    "VenueCode": "BMRV",
    "VenueName": "BMR CINEMAX: Veeraghattam"
  },
  "BPKC": {
    "AvailableFormats": "",
    "City": "Bhopal",
    "FirstTracked": "2026-07-14",
    "Latitude": "23.144285",
    "Longitude": "77.497505",
    "RegionCode": "BHOP",
    "State": "Madhya Pradesh",
    "SubRegionCode": "BHOP",
    "VenueAddress": "2nd Floor, British Park Minimall,11th Mile, Hoshanagabad Road, Opposite IPER College, Bhopal, Madhya Pradesh 462026, India",
    "VenueCode": "BPKC",
    "VenueName": "British Park Cineplex: Bhopal"
  },
  "BSMP": {
    "AvailableFormats": "2D",
    "City": "Ambikapur",
    "Latitude": "23.1147",
    "Longitude": "83.198",
    "RegionCode": "AMBI",
    "State": "Chhattisgarh",
    "SubRegionCode": "AMBI",
    "VenueAddress": "Kharsia Road, Beside Hotel Grand Basant, NH 78, Ambikapur, Chhattisgarh 497001, India",
    "VenueCode": "BSMP",
    "VenueName": "Basant Multiplex: Ambikapur"
  },
  "BTDA": {
    "AvailableFormats": "2D",
    "City": "Acharapakkam",
    "Latitude": "12.4071",
    "Longitude": "79.8161",
    "RegionCode": "ACHA",
    "State": "Tamil Nadu",
    "SubRegionCode": "ACHA",
    "VenueAddress": "Periyar Nagar, Acharapakam, Near Abhiram Honda Showroom, Acharapakkam, Tamil Nadu 603301, India",
    "VenueCode": "BTDA",
    "VenueName": "Balaji Theatre A/C Dolby 7.1: Acharapakkam"
  },
  "BWCM": {
    "AvailableFormats": "2D",
    "City": "Georai",
    "Latitude": "19.2639",
    "Longitude": "75.7489",
    "RegionCode": "GEOR",
    "State": "Maharashtra",
    "SubRegionCode": "GEOR",
    "VenueAddress": "S No. 59, Shivaji Complex, Georai Main Road, Shastri Chowk Bus Stand Road, Dist-Beed, Georai, Maharashtra 431127, India",
    "VenueCode": "BWCM",
    "VenueName": "Bhagwati Chitra Mandir: Georai"
  },
  "CAIS": {
    "AvailableFormats": "2D",
    "City": "Kochi",
    "Latitude": "10.1068",
    "Longitude": "76.3631",
    "RegionCode": "PALY",
    "State": "Kerala",
    "SubRegionCode": "PALY",
    "VenueAddress": "Little Flower Ln, Periyar Nagar, Perumbavoor Aluva Road, Near Passport Office, Kochi, Kerala 683101, India",
    "VenueCode": "CAIS",
    "VenueName": "Casino Talkies A/C Real Laser 3D DOLBY 7.1: Aluva"
  },
  "CCAD": {
    "AvailableFormats": "2D",
    "City": "Anand",
    "Latitude": "22.5673",
    "Longitude": "72.9433",
    "RegionCode": "AND",
    "State": "Gujarat",
    "SubRegionCode": "AND",
    "VenueAddress": "Lambhvel Road, Purushottam Nagar, Anand, Gujarat 388001, India",
    "VenueCode": "CCAD",
    "VenueName": "Connplex Cinemas: Anand"
  },
  "CCDU": {
    "AvailableFormats": "",
    "City": "Dehradun",
    "FirstTracked": "2026-07-14",
    "Latitude": "30.32804",
    "Longitude": "78.04471",
    "RegionCode": "DEH",
    "State": "Uttarakhand",
    "SubRegionCode": "DEH",
    "VenueAddress": "19, Rajpur Road, Chukkuwala, Near State Bank Of India, Dehradun, Uttarakhand 248001, India",
    "VenueCode": "CCDU",
    "VenueName": "Chhayadeep Cinema: Dehradun"
  },
  "CCKP": {
    "AvailableFormats": "2D",
    "City": "Kalol (Panchmahal)",
    "Latitude": "22.6112",
    "Longitude": "73.4662",
    "RegionCode": "PANH",
    "State": "Gujarat",
    "SubRegionCode": "PANH",
    "VenueAddress": "Cinema City, GJ SH 87, Near Lal Darwaja, Jantral, Kalol (Panchmahal), Gujarat 389330, India",
    "VenueCode": "CCKP",
    "VenueName": "FUN Cinemas Cinema City Multiplex: Kalol"
  },
  "CCMP": {
    "AvailableFormats": "3D|2D",
    "City": "Navi Mumbai",
    "Latitude": "18.9991",
    "Longitude": "73.123",
    "RegionCode": "MUMBAI",
    "State": "Maharashtra",
    "SubRegionCode": "THAN",
    "VenueAddress": "Plot 1/3 Shubham Commercial Complex, Sector 11 New Panvel, Near Punjab National Bank Near Ganaraj Auto Service And Petrol Pump, Navi Mumbai, Maharashtra 410206, India",
    "VenueCode": "CCMP",
    "VenueName": "Miraj Cineraj Cinemas: Panvel"
  },
  "CCPN": {
    "AvailableFormats": "2D",
    "City": "Pathalgaon",
    "Latitude": "22.5576",
    "Longitude": "83.4644",
    "RegionCode": "PAHT",
    "State": "Chhattisgarh",
    "SubRegionCode": "PAHT",
    "VenueAddress": "C2 Cinemas, 3rd Floor HM Tower, Jashpur Road, Pathalgaon, Chhattisgarh 496118, India",
    "VenueCode": "CCPN",
    "VenueName": "C2 Cinema: Pathalgaon"
  },
  "CCSP": {
    "AvailableFormats": "",
    "City": "Patna",
    "Latitude": "25.6188",
    "Longitude": "85.0483",
    "RegionCode": "PATN",
    "State": "Bihar",
    "SubRegionCode": "PATN",
    "VenueAddress": "Bailey Road, Shri Krishna Puram, Opposite RPS More, Patna, Bihar 801503, India",
    "VenueCode": "CCSP",
    "VenueName": "Cinema Cafe Max Western Mall, Opp RPS More: Patna"
  },
  "CDOK": {
    "AvailableFormats": "2D",
    "City": "Jajpur Road",
    "Latitude": "20.9518",
    "Longitude": "86.1306",
    "RegionCode": "JAJP",
    "State": "Odisha",
    "SubRegionCode": "JAJP",
    "VenueAddress": "Utkal Centre Point Mall, Chorda Bypass Square, Byasanagar Main Road, Jajpur Road, Odisha 755019, India",
    "VenueCode": "CDOK",
    "VenueName": "Connplex Cinemas (Signature): Utkal Centre Point"
  },
  "CEPO": {
    "AvailableFormats": "2D",
    "City": "Pune",
    "Latitude": "18.518",
    "Longitude": "73.8561",
    "RegionCode": "PUNE",
    "State": "Maharashtra",
    "SubRegionCode": "PUNE",
    "VenueAddress": "Near Nana Wada, Chhatrapati Shivaji Maharaj Road, Budhwar Peth, Pune, Maharashtra 411002, India",
    "VenueCode": "CEPO",
    "VenueName": "CinePRO: Vasant Cinema, Pune"
  },
  "CGCB": {
    "AvailableFormats": "",
    "City": "Bathinda",
    "Latitude": "30.1649",
    "Longitude": "74.9233",
    "RegionCode": "BHAT",
    "State": "Punjab",
    "SubRegionCode": "BHAT",
    "VenueAddress": "3rd Floor, Green city square, Near AIIMS hospital, Dabwali Road, Bathinda, Punjab 151001, India",
    "VenueCode": "CGCB",
    "VenueName": "Cinepolis: Green City Square, Bathinda"
  },
  "CGOS": {
    "AvailableFormats": "2D",
    "City": "Ahmedabad",
    "Latitude": "23.0157",
    "Longitude": "72.5294",
    "RegionCode": "AHD",
    "State": "Gujarat",
    "SubRegionCode": "AHD",
    "VenueAddress": "Near Shyamal, Cross Road, 132 Feet Ring Road, Ahmedabad, Gujarat 380015, India",
    "VenueCode": "CGOS",
    "VenueName": "City Gold Satellite: Ahmedabad"
  },
  "CHKM": {
    "AvailableFormats": "2D",
    "City": "Kadalundi",
    "Latitude": "11.1549",
    "Longitude": "75.8473",
    "RegionCode": "KOZH",
    "State": "Kerala",
    "SubRegionCode": "KOZH",
    "VenueAddress": "8/567, Mannur Valavu, Mannur Valavu, Kadalundi, Kadalundi, Kerala 673328, India",
    "VenueCode": "CHKM",
    "VenueName": "Chithra Cineplex 4K RGB Laser dtsX: Mannur Valavu"
  },
  "CIBA": {
    "AvailableFormats": "2D",
    "City": "Korba",
    "Latitude": "22.3513",
    "Longitude": "82.6993",
    "RegionCode": "KRBA",
    "State": "Chhattisgarh",
    "SubRegionCode": "KRBA",
    "VenueAddress": "City Center Mall, B-10, Purani Basti, Power House Road, Korba, Chhattisgarh 495678, India",
    "VenueCode": "CIBA",
    "VenueName": "Cinemood Multiplex (Dolby Atmos Sound): Korba"
  },
  "CIMN": {
    "AvailableFormats": "",
    "City": "Greater Noida",
    "FirstTracked": "2026-07-14",
    "Latitude": "28.457985",
    "Longitude": "77.52814",
    "RegionCode": "NCR",
    "State": "NCR",
    "SubRegionCode": "GRET",
    "VenueAddress": "MSX Mall, Sector Swarn Nagri, Plot No. K-4, 4th Avenue, Sector 18 Block F, Industrial Area, Greater Noida, NCR 201310, India",
    "VenueCode": "CIMN",
    "VenueName": "Cineport Cinemas: MSX Mall, Greater Noida"
  },
  "CKMC": {
    "AvailableFormats": "2D",
    "City": "Palakkad",
    "Latitude": "10.7566",
    "Longitude": "76.5009",
    "RegionCode": "PLKK",
    "State": "Kerala",
    "SubRegionCode": "PLKK",
    "VenueAddress": "Kuzhalmannam mankara Road, Pilappulli, Peringottukurissi, Near Peringottukurissi Service Cooperative Bank, Palakkad, Kerala 678573, India",
    "VenueCode": "CKMC",
    "VenueName": "CKM Victory Cinemas: Peringottukurissi"
  },
  "CLDR": {
    "AvailableFormats": "2D",
    "City": "Ramanathapuram",
    "Latitude": "9.35868",
    "Longitude": "78.8433",
    "RegionCode": "RAPU",
    "State": "Tamil Nadu",
    "SubRegionCode": "RAPU",
    "VenueAddress": "9R5V+F8C, Mandapam Road, Kadampa Nagar, Ramanathapuram, Tamil Nadu 623501, India",
    "VenueCode": "CLDR",
    "VenueName": "The Cine Lounge Dolby 7.1: GSM Mall Ramanathapuram"
  },
  "CLSB": {
    "AvailableFormats": "2D",
    "City": "Siwan",
    "Latitude": "26.2307",
    "Longitude": "84.3694",
    "RegionCode": "SWNB",
    "State": "Bihar",
    "SubRegionCode": "SWNB",
    "VenueAddress": "Chandrika Tower, Gaushala Road, Pakdi Bus Stand, Siwan, Bihar 841226, India",
    "VenueCode": "CLSB",
    "VenueName": "Connplex Cinemas (Luxuriance): Siwan"
  },
  "CMCT": {
    "AvailableFormats": "2D",
    "City": "Thamarassery",
    "Latitude": "11.4148",
    "Longitude": "75.9358",
    "RegionCode": "KOZH",
    "State": "Kerala",
    "SubRegionCode": "KOZH",
    "VenueAddress": "City Mall, Thamarassery, Kerala, Thamarassery, Kerala 673573, India",
    "VenueCode": "CMCT",
    "VenueName": "City Mall Cinemas: Thamarassery"
  },
  "CMMH": {
    "AvailableFormats": "2D",
    "City": "Bhandara",
    "Latitude": "21.0849",
    "Longitude": "79.782",
    "RegionCode": "BHAA",
    "State": "Maharashtra",
    "SubRegionCode": "BHAA",
    "VenueAddress": "Lakhani, Gadegaon, Opposite - Ashok Leyland, Bhandara, Maharashtra 441804, India",
    "VenueCode": "CMMH",
    "VenueName": "Chhotu Maharaj Cine Cafe: Lakhani"
  },
  "CMSA": {
    "AvailableFormats": "2D",
    "City": "Shrigonda",
    "Latitude": "18.6277",
    "Longitude": "74.6887",
    "RegionCode": "SHRI",
    "State": "Maharashtra",
    "SubRegionCode": "SHRI",
    "VenueAddress": "Pargaon, Ahmednagar Road, Shrigonda, Maharashtra 413701, India",
    "VenueCode": "CMSA",
    "VenueName": "Chhotu Maharaj Cine Cafe: Shrigonda"
  },
  "CMVB": {
    "AvailableFormats": "2D",
    "City": "Vikarabad",
    "Latitude": "17.3464",
    "Longitude": "77.9056",
    "RegionCode": "VKBD",
    "State": "Telangana",
    "SubRegionCode": "VKBD",
    "VenueAddress": "Vikarabad - Mominpet Road, Alampally, Near Petrol Pump, Opposite Fathe Garden Function Hall, Vikarabad, Telangana 501101, India",
    "VenueCode": "CMVB",
    "VenueName": "Cinemax: Vikarabad"
  },
  "CNAD": {
    "AvailableFormats": "",
    "City": "Ahmedabad",
    "FirstTracked": "2026-07-14",
    "Latitude": "23.163",
    "Longitude": "72.5399",
    "RegionCode": "AHD",
    "State": "Gujarat",
    "SubRegionCode": "AHD",
    "VenueAddress": "306-308, Center Point, Adani Shantigram Township, Khodiyar, Ahmedabad, Gujarat 382501, India",
    "VenueCode": "CNAD",
    "VenueName": "Connplex Cinemas (Luxuriance): Adani Shantigram"
  },
  "CNFX": {
    "AvailableFormats": "2D",
    "City": "Datia",
    "Latitude": "25.6653",
    "Longitude": "78.4609",
    "RegionCode": "DATI",
    "State": "Madhya Pradesh",
    "SubRegionCode": "DATI",
    "VenueAddress": "National Highway 44 Jhansi road, First floor Ratan mega mall, Near District and sessions court, Datia, Madhya Pradesh 475661, India",
    "VenueCode": "CNFX",
    "VenueName": "Cineflix Cinemas: Datia"
  },
  "CNPS": {
    "AvailableFormats": "3D|2D",
    "City": "Bilaspur",
    "Latitude": "22.071",
    "Longitude": "82.1504",
    "RegionCode": "BILA",
    "State": "Chhattisgarh",
    "SubRegionCode": "BILA",
    "VenueAddress": "4th Floor, Shri Krishna Central Mall, Vinoba Nagar, Bilaspur, Chhattisgarh 495001, India",
    "VenueCode": "CNPS",
    "VenueName": "Connplex Cinemas (Signature) : Bilaspur"
  },
  "CNVG": {
    "AvailableFormats": "2D",
    "City": "Gurugram (Gurgaon)",
    "Latitude": "28.4157",
    "Longitude": "77.1027",
    "RegionCode": "NCR",
    "State": "NCR",
    "SubRegionCode": "GURG",
    "VenueAddress": "Ireo Grand View High Street, Golf Course Extension Road, Sector 58, Gurugram (Gurgaon), NCR 122102, India",
    "VenueCode": "CNVG",
    "VenueName": "Cinepolis: Grand View High Street, Gurugram"
  },
  "CONX": {
    "AvailableFormats": "2D",
    "City": "Bettiah",
    "Latitude": "26.809",
    "Longitude": "84.516",
    "RegionCode": "BETA",
    "State": "Bihar",
    "SubRegionCode": "BETA",
    "VenueAddress": "Kishore Kunj, Sant Kabir Road, Banuchapara, West Champaran, Bettiah, Bihar 845438, India",
    "VenueCode": "CONX",
    "VenueName": "Connplex Cinemas (Signature): Bettiah"
  },
  "CPCK": {
    "AvailableFormats": "2D|IMAX 2D",
    "City": "Kochi",
    "Latitude": "9.97799",
    "Longitude": "76.2833",
    "RegionCode": "KOCH",
    "State": "Kerala",
    "SubRegionCode": "KOCH",
    "VenueAddress": "6th floor, M.G.Rroad, Ernakulam, Near Abad Plaza Hotel, Kochi, Kerala 682035, India",
    "VenueCode": "CPCK",
    "VenueName": "Cinepolis: Centre Square, Kochi"
  },
  "CPGV": {
    "AvailableFormats": "3D|2D",
    "City": "Greater Noida",
    "Latitude": "28.4529",
    "Longitude": "77.526",
    "RegionCode": "NCR",
    "State": "NCR",
    "SubRegionCode": "GRET",
    "VenueAddress": "Plot No SH 3, Site IV, Greater Noida, Near Pari Chowk, Greater Noida, NCR 201308, India",
    "VenueCode": "CPGV",
    "VenueName": "Cinepolis: Grand Venice Mall, Greater Noida"
  },
  "CPKT": {
    "AvailableFormats": "3D|2D",
    "City": "Pune",
    "Latitude": "18.4997",
    "Longitude": "73.821",
    "RegionCode": "PUNE",
    "State": "Maharashtra",
    "SubRegionCode": "PUNE",
    "VenueAddress": "Survey No.20/1,2, Kothrud, Near Tara Residency, Pune, Maharashtra 411038, India",
    "VenueCode": "CPKT",
    "VenueName": "City Pride: Kothrud"
  },
  "CPMX": {
    "AvailableFormats": "",
    "City": "Jasdan",
    "FirstTracked": "2026-07-14",
    "Latitude": "22.024336",
    "Longitude": "71.17932",
    "RegionCode": "JASD",
    "State": "Gujarat",
    "SubRegionCode": "JASD",
    "VenueAddress": "Ring Road, Atkot Road, Aanand Nagar, Jasdan, Gujarat 360050, India",
    "VenueCode": "CPMX",
    "VenueName": "City Pride Multiplex: Jasdan"
  },
  "CPRP": {
    "AvailableFormats": "2D|3D",
    "City": "Pune",
    "Latitude": "18.5933",
    "Longitude": "73.7864",
    "RegionCode": "PUNE",
    "State": "Maharashtra",
    "SubRegionCode": "PUNE",
    "VenueAddress": "Spot-18 Mall, 3rd Floor, Rahatani Rd, Pimpri Chinchwad, Pune, Maharashtra 411017, India",
    "VenueCode": "CPRP",
    "VenueName": "City Pride Royal Cinemas: Rahatani"
  },
  "CPUS": {
    "AvailableFormats": "2D",
    "City": "Surat",
    "Latitude": "21.1361",
    "Longitude": "72.7521",
    "RegionCode": "SURT",
    "State": "Gujarat",
    "SubRegionCode": "SURT",
    "VenueAddress": "Dumas Road, Opposite L and T Colony, Near Magdalla Circle, Surat, Gujarat 395007, India",
    "VenueCode": "CPUS",
    "VenueName": "City Plus Multiplex: Surat"
  },
  "CRJG": {
    "AvailableFormats": "2D",
    "City": "Jayamkondacholapuram",
    "Latitude": "11.2143",
    "Longitude": "79.3613",
    "RegionCode": "JYAM",
    "State": "Tamil Nadu",
    "SubRegionCode": "JYAM",
    "VenueAddress": "National Highway 227, Jayakondam, Near JK Plaza, Jayamkondacholapuram, Tamil Nadu 621802, India",
    "VenueCode": "CRJG",
    "VenueName": "CR Palace Theatre A/C 4K HD Dolby Digital 7.1"
  },
  "CSCV": {
    "AvailableFormats": "2D|3D",
    "City": "Vizag (Visakhapatnam)",
    "Latitude": "17.8083",
    "Longitude": "83.3751",
    "RegionCode": "VIZA",
    "State": "Andhra Pradesh",
    "SubRegionCode": "VIZA",
    "VenueAddress": "100 Feet Road, Madhurawada, Vizag (Visakhapatnam), Andhra Pradesh 530048, India",
    "VenueCode": "CSCV",
    "VenueName": "Cinepolis: Sreekanya Cineglitz, Madhurawada"
  },
  "CSSA": {
    "AvailableFormats": "2D|3D",
    "City": "Ahilyanagar (Ahmednagar)",
    "Latitude": "19.1192",
    "Longitude": "74.7289",
    "RegionCode": "AHMED",
    "State": "Maharashtra",
    "SubRegionCode": "AHMED",
    "VenueAddress": "3rd Floor, Kohinoor Mall, Premdan Chowk, Opposite Big Bazar, Ahilyanagar (Ahmednagar), Maharashtra 414003, India",
    "VenueCode": "CSSA",
    "VenueName": "Connplex Cinemas: Ahilyanagar"
  },
  "CSTR": {
    "AvailableFormats": "2D",
    "City": "Rajkot",
    "Latitude": "22.276",
    "Longitude": "70.7415",
    "RegionCode": "RAJK",
    "State": "Gujarat",
    "SubRegionCode": "RAJK",
    "VenueAddress": "2nd Ring Road, Serenity Garden Road, Near Valupani restaurant, Rajkot, Gujarat 360004, India",
    "VenueCode": "CSTR",
    "VenueName": "Connplex Cinemas: Rajkot"
  },
  "CTLC": {
    "AvailableFormats": "2D",
    "City": "Chapra",
    "Latitude": "25.7875",
    "Longitude": "84.7145",
    "RegionCode": "CHPR",
    "State": "Bihar",
    "SubRegionCode": "CHPR",
    "VenueAddress": "Ware House Colony, Main Road, Near Gudri Chowk, Chapra, Bihar 841301, India",
    "VenueCode": "CTLC",
    "VenueName": "Cinemaoo The Luxury: Chapra"
  },
  "CTNR": {
    "AvailableFormats": "",
    "City": "Hyderabad",
    "Latitude": "17.503",
    "Longitude": "78.4773",
    "RegionCode": "HYD",
    "State": "Telangana",
    "SubRegionCode": "HYD",
    "VenueAddress": "Cinepolis TNR North City, SY No 85 and 89, NH-44, 7, Suchitra Road, NH-44, 7, Suchitra Road, Hyderabad, Telangana 500055, India",
    "VenueCode": "CTNR",
    "VenueName": "Cinepolis: TNR North City, Suchitra, Hyderabad"
  },
  "CUJC": {
    "AvailableFormats": "2D",
    "City": "Hisar",
    "Latitude": "29.0998",
    "Longitude": "75.9068",
    "RegionCode": "HISR",
    "State": "Haryana",
    "SubRegionCode": "HISR",
    "VenueAddress": "Green Valley Lodge, Delhi Hisar Road, Indian Oil Petrol Pump, Hansi, Near Miyar Toll Plaza, Hisar, Haryana 125033, India",
    "VenueCode": "CUJC",
    "VenueName": "Chhotu Maharaj Cine Cafe: Hansi"
  },
  "CVRN": {
    "AvailableFormats": "3D|2D",
    "City": "Nagpur",
    "Latitude": "21.1327",
    "Longitude": "79.0957",
    "RegionCode": "NAGP",
    "State": "Maharashtra",
    "SubRegionCode": "NAGP",
    "VenueAddress": "City Survey No. 362/1, Ward No 90 (New), Mouza Jat - Tarodi, Near Medical Square, Rambagh Road, Nagpur, Maharashtra 440003, India",
    "VenueCode": "CVRN",
    "VenueName": "Cinepolis: VR Mall, Nagpur"
  },
  "CXKR": {
    "AvailableFormats": "2D",
    "City": "Rourkela",
    "Latitude": "22.2342",
    "Longitude": "84.8724",
    "RegionCode": "RKOR",
    "State": "Odisha",
    "SubRegionCode": "RKOR",
    "VenueAddress": "Railway Colony, Ring Road, Rourkela, Odisha 769001, India",
    "VenueCode": "CXKR",
    "VenueName": "Cineplexx: Beside Hotel Deepti, Rourkela"
  },
  "CZVX": {
    "AvailableFormats": "2D",
    "City": "Barshi",
    "Latitude": "18.2404",
    "Longitude": "75.6974",
    "RegionCode": "BRHI",
    "State": "Maharashtra",
    "SubRegionCode": "BRHI",
    "VenueAddress": "Chatrapati Cinema Hall, Chatrapati Bhavan, Latur Road, Barshi, Maharashtra 413401, India",
    "VenueCode": "CZVX",
    "VenueName": "Chatrapati Cinema: Barshi"
  },
  "DCAK": {
    "AvailableFormats": "2D",
    "City": "Kodungallur",
    "Latitude": "10.2315",
    "Longitude": "76.1974",
    "RegionCode": "KODU",
    "State": "Kerala",
    "SubRegionCode": "KODU",
    "VenueAddress": "Kalpaka Road, Star Nagar, Kodungallur, Kerala 680668, India",
    "VenueCode": "DCAK",
    "VenueName": "D CINEMAA: MUGHAL MALL BARCO 4K LASER, KODUNGALLUR"
  },
  "DCIN": {
    "AvailableFormats": "2D",
    "City": "Nagaon",
    "Latitude": "26.3528",
    "Longitude": "92.6713",
    "RegionCode": "NAAM",
    "State": "Assam",
    "SubRegionCode": "NAAM",
    "VenueAddress": "Divyajyoti Cinema Hall, Dhing Gate Flyover, Near Haibargaon Railway Station,Nagaon, Assam 782002, India",
    "VenueCode": "DCIN",
    "VenueName": "Divyajyoti Cinema: Nagaon"
  },
  "DCRP": {
    "AvailableFormats": "2D",
    "City": "Ramanathapuram",
    "Latitude": "9.36634",
    "Longitude": "78.8362",
    "RegionCode": "RAPU",
    "State": "Tamil Nadu",
    "SubRegionCode": "RAPU",
    "VenueAddress": "41, East Coast Road, Chalai Bazar, Ramanathapuram, Near om sakthi temple, Ramanathapuram, Tamil Nadu 623504, India",
    "VenueCode": "DCRP",
    "VenueName": "D Cinema A/C Sony 4K 3D: Ramanathapuram"
  },
  "DDXB": {
    "AvailableFormats": "2D|3D",
    "City": "Bhopal",
    "Latitude": "23.1876",
    "Longitude": "77.4174",
    "RegionCode": "BHOP",
    "State": "Madhya Pradesh",
    "SubRegionCode": "BHOP",
    "VenueAddress": "Kolar Road, Mandakini Colony, Near Vishal Maega Mart, Bhopal, Madhya Pradesh 462042, India",
    "VenueCode": "DDXB",
    "VenueName": "DDX Cinema Kolar: Bhopal"
  },
  "DFCH": {
    "AvailableFormats": "2D",
    "City": "Dhemaji",
    "Latitude": "27.4716",
    "Longitude": "94.5575",
    "RegionCode": "DHEM",
    "State": "Assam",
    "SubRegionCode": "DHEM",
    "VenueAddress": "Ward No 3, Dhemaji Chariali, Chariali, Near Indian Oil Petrol Pump Rupanti Borgohain Path, Dhemaji, Assam 787057, India",
    "VenueCode": "DFCH",
    "VenueName": "Dhemaji Cinema & Cafe"
  },
  "DIKT": {
    "AvailableFormats": "2D",
    "City": "Madurai",
    "Latitude": "9.88169",
    "Longitude": "78.0556",
    "RegionCode": "MADU",
    "State": "Tamil Nadu",
    "SubRegionCode": "MADU",
    "VenueAddress": "National Highway 7, Thirunagar, Thanakkankulam, Near LIC of India, Branch Office, Madurai, Tamil Nadu 625006, India",
    "VenueCode": "DIKT",
    "VenueName": "Dhevi Kalaivani Theatre A/C DTS: Madurai"
  },
  "DLMT": {
    "AvailableFormats": "2D",
    "City": "Akaltara",
    "Latitude": "22.0352",
    "Longitude": "82.4273",
    "RegionCode": "AKAL",
    "State": "Chhattisgarh",
    "SubRegionCode": "AKAL",
    "VenueAddress": "Baloda Road, Beside DL Fuels, Akaltara, Chhattisgarh 495552, India",
    "VenueCode": "DLMT",
    "VenueName": "DL Multiplex: Akaltara"
  },
  "DNCY": {
    "AvailableFormats": "2D",
    "City": "Changanassery",
    "Latitude": "9.44182",
    "Longitude": "76.5444",
    "RegionCode": "CNSY",
    "State": "Kerala",
    "SubRegionCode": "CNSY",
    "VenueAddress": "Dhanya Complex, Main Central Road, Perunna, Near NSS College, Changanassery, Kerala 686101, India",
    "VenueCode": "DNCY",
    "VenueName": "Dhanya Remya: Changanassery"
  },
  "DRCD": {
    "AvailableFormats": "2D",
    "City": "Itanagar",
    "Latitude": "27.0874",
    "Longitude": "93.6113",
    "RegionCode": "ITNG",
    "State": "Arunachal Pradesh",
    "SubRegionCode": "ITNG",
    "VenueAddress": "Ganga Market, Highway No 415, Itanagar, Arunachal Pradesh 791113, India",
    "VenueCode": "DRCD",
    "VenueName": "Drodel Cineworld, Akashdeep: Itanagar"
  },
  "DSTA": {
    "AvailableFormats": "2D",
    "City": "Trivandrum",
    "Latitude": "8.68464",
    "Longitude": "76.8232",
    "RegionCode": "VKAL",
    "State": "Kerala",
    "SubRegionCode": "VKAL",
    "VenueAddress": "Kanyakumari Highway, Panvel Kochi, Near Reliance trends, Trivandrum, Kerala 695103, India",
    "VenueCode": "DSTA",
    "VenueName": "Dreams: Attingal"
  },
  "DTYN": {
    "AvailableFormats": "2D|3D|4DX|IMAX 2D",
    "City": "Noida",
    "Latitude": "28.5673",
    "Longitude": "77.3207",
    "RegionCode": "NCR",
    "State": "NCR",
    "SubRegionCode": "NOIDA",
    "VenueAddress": "DLF Mall of India, 4th floor, C-502, Plot No.3, M-Block, Sector - 18, Noida, NCR 201301, India",
    "VenueCode": "DTYN",
    "VenueName": "PVR: Superplex Mall Of India, Noida"
  },
  "DVRR": {
    "AvailableFormats": "2D",
    "City": "Hyderabad",
    "Latitude": "17.4062",
    "Longitude": "78.4949",
    "RegionCode": "HYD",
    "State": "Telangana",
    "SubRegionCode": "HYD",
    "VenueAddress": "RTC Cross Road, Chikkadpally, Himayatnagar, Near Labour Department, Hyderabad, Telangana 500020, India",
    "VenueCode": "DVRR",
    "VenueName": "Devi 70MM 4K Laser & Dolby Atmos: RTC X Roads"
  },
  "ECMR": {
    "AvailableFormats": "2D",
    "City": "Muzaffarpur",
    "Latitude": "26.1201",
    "Longitude": "85.3888",
    "RegionCode": "MUZA",
    "State": "Bihar",
    "SubRegionCode": "MUZA",
    "VenueAddress": "DRB Palace Mall, 4th Floor, BB Collegiate Lane, Motijheel, Muzaffarpur, Bihar 842001, India",
    "VenueCode": "ECMR",
    "VenueName": "Eylex Cinema: Muzaffarpur"
  },
  "EGCA": {
    "AvailableFormats": "2D",
    "City": "Alappuzha",
    "Latitude": "9.70779",
    "Longitude": "76.3178",
    "RegionCode": "CRTL",
    "State": "Kerala",
    "SubRegionCode": "CRTL",
    "VenueAddress": "Kalavamcodam, Cherthala, Kerala, Near Kulakkattu Temple, Alappuzha, Kerala 688524, India",
    "VenueCode": "EGCA",
    "VenueName": "EVM GRAND RGB Laser 4K 3D DOLBY: Cherthala"
  },
  "EMNC": {
    "AvailableFormats": "IMAX 2D",
    "City": "Mumbai",
    "Latitude": "18.9323",
    "Longitude": "72.8279",
    "RegionCode": "MUMBAI",
    "State": "Maharashtra",
    "SubRegionCode": "MCENT",
    "VenueAddress": "Cambata Building, 42, Maharshi Karve Road, Churchgate, Mumbai, Maharashtra 400020, India",
    "VenueCode": "EMNC",
    "VenueName": "EROS INOX IMAX Cinema: Churchgate"
  },
  "ESAP": {
    "AvailableFormats": "",
    "City": "Parbhani",
    "FirstTracked": "2026-07-14",
    "Latitude": "19.257425",
    "Longitude": "76.764496",
    "RegionCode": "PARB",
    "State": "Maharashtra",
    "SubRegionCode": "PARB",
    "VenueAddress": "Anusaya, Gangakhed Road, Parbhani - Gangakhed State Highway, Near Flyover, Parbhani, Maharashtra 431401, India",
    "VenueCode": "ESAP",
    "VenueName": "E-SQUARE Anusaya: Parbhani"
  },
  "ESSM": {
    "AvailableFormats": "2D",
    "City": "Rajnandgaon",
    "Latitude": "21.0836",
    "Longitude": "81.0286",
    "RegionCode": "RAJA",
    "State": "Chhattisgarh",
    "SubRegionCode": "RAJA",
    "VenueAddress": "Ground Floor, Sumeet Mandi Mall, Basantpur Road, Basantpur, Near Shukla Hospital, Rajnandgaon, Chhattisgarh 491441, India",
    "VenueCode": "ESSM",
    "VenueName": "Silver Screen Miniplex: Rajnandgaon"
  },
  "EVMM": {
    "AvailableFormats": "2D",
    "City": "Adimali",
    "Latitude": "10.014",
    "Longitude": "76.9541",
    "RegionCode": "ADIM",
    "State": "Kerala",
    "SubRegionCode": "ADIM",
    "VenueAddress": "National Highway 85, Adimaly, Near Thaluk Hospital, Adimali, Kerala 685561, India",
    "VenueCode": "EVMM",
    "VenueName": "EVM Matha Cinema: Adimali"
  },
  "FCDH": {
    "AvailableFormats": "2D|3D",
    "City": "Dhanbad(Jharkhand)",
    "Latitude": "23.8206",
    "Longitude": "86.4703",
    "RegionCode": "DHAN",
    "State": "Jharkhand",
    "SubRegionCode": "DHAN",
    "VenueAddress": "Ozone Galleria Mall, Saraidhela, Kolakusma, Above Big Bazaar, Dhanbad(Jharkhand), Jharkhand 828127, India",
    "VenueCode": "FCDH",
    "VenueName": "INOX Cinemas: Dhanbad"
  },
  "FCSM": {
    "AvailableFormats": "",
    "City": "Bharuch",
    "FirstTracked": "2026-07-14",
    "Latitude": "21.718481",
    "Longitude": "72.97833",
    "RegionCode": "BHAR",
    "State": "Gujarat",
    "SubRegionCode": "BHAR",
    "VenueAddress": "1st floor, Shilpi Multiplex Building, Shilpi Square Dahej Bypass Road, Near Shab`s Cafe, Bharuch, Gujarat 392001, India",
    "VenueCode": "FCSM",
    "VenueName": "Fun Cinemas: Shilpi Multiplex"
  },
  "FMDR": {
    "AvailableFormats": "3D|2D",
    "City": "Mumbai",
    "Latitude": "19.0199",
    "Longitude": "72.8413",
    "RegionCode": "MUMBAI",
    "State": "Maharashtra",
    "SubRegionCode": "MCENT",
    "VenueAddress": "2nd Floor, Nakshatra Cine Shoppe, Ranade Road, Dadar West, Near Railway Station, Mumbai, Maharashtra 400028, India",
    "VenueCode": "FMDR",
    "VenueName": "INOX: Nakshatra Mall, Dadar (W)"
  },
  "FMRL": {
    "AvailableFormats": "2D|3D",
    "City": "Mumbai",
    "Latitude": "19.2132",
    "Longitude": "72.8492",
    "RegionCode": "MUMBAI",
    "State": "Maharashtra",
    "SubRegionCode": "MWEST",
    "VenueAddress": "Off S.V. Road, Kandivali West, Behind Poisar Bus Depot, Mumbai, Maharashtra 400067, India",
    "VenueCode": "FMRL",
    "VenueName": "INOX: Raghuleela Mall, Kandivali (W)"
  },
  "FNCM": {
    "AvailableFormats": "2D|3D",
    "City": "Mumbai",
    "Latitude": "19.0524",
    "Longitude": "72.9017",
    "RegionCode": "MUMBAI",
    "State": "Maharashtra",
    "SubRegionCode": "MCENT",
    "VenueAddress": "K Star Mall, 4th Floor, V.N.Purav Road, Chembur(E), Next to Diamond Garden, Mumbai, Maharashtra 400071, India",
    "VenueCode": "FNCM",
    "VenueName": "Fun Cinemas: K Star Mall, Chembur"
  },
  "FNPN": {
    "AvailableFormats": "2D|3D",
    "City": "Panipat",
    "Latitude": "29.3762",
    "Longitude": "76.984",
    "RegionCode": "PAN",
    "State": "Haryana",
    "SubRegionCode": "PAN",
    "VenueAddress": "Mittal`s Mega Mall, Sector 25-2, Panipat, Haryana 132103, India",
    "VenueCode": "FNPN",
    "VenueName": "Fun Cinemas: Mittal Mega Mall, Panipat"
  },
  "FRTS": {
    "AvailableFormats": "2D|3D",
    "City": "Ichalkaranji",
    "Latitude": "16.6922",
    "Longitude": "74.4754",
    "RegionCode": "ICHL",
    "State": "Maharashtra",
    "SubRegionCode": "ICHL",
    "VenueAddress": "Fortune Plaza Mall, 2nd Floor, Sangli Road, Ichalkaranji, Maharashtra 416115, India",
    "VenueCode": "FRTS",
    "VenueName": "Fortune Cineplex: Ichalkaranji"
  },
  "FXDR": {
    "AvailableFormats": "2D",
    "City": "Razole",
    "Latitude": "16.4775",
    "Longitude": "81.8433",
    "RegionCode": "RAZO",
    "State": "Andhra Pradesh",
    "SubRegionCode": "RAZO",
    "VenueAddress": "4 Shows Road, LIC Office Backside, Razole, Andhra Pradesh 533242, India",
    "VenueCode": "FXDR",
    "VenueName": "Four Shows Cineplex Dolby Atmos: Razole"
  },
  "GALX": {
    "AvailableFormats": "2D|3D",
    "City": "Raigarh",
    "Latitude": "21.8949",
    "Longitude": "83.3954",
    "RegionCode": "RAIG",
    "State": "Chhattisgarh",
    "SubRegionCode": "RAIG",
    "VenueAddress": "3rd Floor, Galaxy Mall, Gauri Shankar Mandir Road, Raigarh, Chhattisgarh 496001, India",
    "VenueCode": "GALX",
    "VenueName": "Galaxy Cinemas (Dolby Atmos): Raigarh"
  },
  "GBCT": {
    "AvailableFormats": "2D",
    "City": "Nalbari",
    "Latitude": "26.4765",
    "Longitude": "91.2709",
    "RegionCode": "NALB",
    "State": "Assam",
    "SubRegionCode": "NALB",
    "VenueAddress": "Gandhi Bhavan Road, Tihu, Nalbari, Nalbari, Assam 781371, India",
    "VenueCode": "GBCT",
    "VenueName": "Gandhi Bhawan Cinema Hall: Tihu"
  },
  "GCCP": {
    "AvailableFormats": "2D",
    "City": "Dharpur",
    "Latitude": "23.8439",
    "Longitude": "72.1881",
    "RegionCode": "DUUU",
    "State": "Gujarat",
    "SubRegionCode": "DUUU",
    "VenueAddress": "Ahmedabad - Patan Highway Road, Near Civil Hospital, Near GMRS,Patan, Dharpur, Gujarat 384265, India",
    "VenueCode": "GCCP",
    "VenueName": "Grandex Cinemas: Patan"
  },
  "GCGA": {
    "AvailableFormats": "3D|2D",
    "City": "Gondia",
    "Latitude": "21.4534",
    "Longitude": "80.2038",
    "RegionCode": "AMGN",
    "State": "Maharashtra",
    "SubRegionCode": "AMGN",
    "VenueAddress": "P. A. Mills Compound, Govindpur Road, Bajaj Nagar, Gondia, Maharashtra 441601, India",
    "VenueCode": "GCGA",
    "VenueName": "Gold Cinema, Govindpur Road: Gondia"
  },
  "GCMC": {
    "AvailableFormats": "2D",
    "City": "Nedumkandam",
    "Latitude": "9.83834",
    "Longitude": "77.1577",
    "RegionCode": "NEDU",
    "State": "Kerala",
    "SubRegionCode": "NEDU",
    "VenueAddress": "Munnar Kumily Highway, Nedumkandam, Near State Bank of India, Nedumkandam, Kerala 685553, India",
    "VenueCode": "GCMC",
    "VenueName": "G Cinemax Multiplex"
  },
  "GCRT": {
    "AvailableFormats": "2D|3D",
    "City": "Ratlam",
    "Latitude": "23.3301",
    "Longitude": "75.0371",
    "RegionCode": "KHCU",
    "State": "Madhya Pradesh",
    "SubRegionCode": "KHCU",
    "VenueAddress": "2nd Floor, Gayatri Cinema Campus, Mission Hospital Road, Fun Buzz, Ratlam, Madhya Pradesh 457001, India",
    "VenueCode": "GCRT",
    "VenueName": "Gayatri Cinemas: Ratlam"
  },
  "GDAK": {
    "AvailableFormats": "2D",
    "City": "Attibele",
    "Latitude": "12.779",
    "Longitude": "77.7734",
    "RegionCode": "ATTO",
    "State": "Karnataka",
    "SubRegionCode": "ATTO",
    "VenueAddress": "Hosur Main Road, Next to Ganesh Temple, Attibele, Karnataka 562107, India",
    "VenueCode": "GDAK",
    "VenueName": "Gowrishankar DOLBY 7.1 RGB Laser: Attibele"
  },
  "GDCS": {
    "AvailableFormats": "2D",
    "City": "Silchar",
    "Latitude": "24.8284",
    "Longitude": "92.8033",
    "RegionCode": "SIL",
    "State": "Assam",
    "SubRegionCode": "SIL",
    "VenueAddress": "Entertainment Plaza, Barak Cha Sramik Union Building Complex, Sadarghat Road, Waris Industries, Silchar, Assam 788001, India",
    "VenueCode": "GDCS",
    "VenueName": "Gold Cinema, Sadarghat Road: Silchar"
  },
  "GDPG": {
    "AvailableFormats": "2D",
    "City": "Palghar",
    "Latitude": "19.6934",
    "Longitude": "72.7739",
    "RegionCode": "PALG",
    "State": "Maharashtra",
    "SubRegionCode": "PALG",
    "VenueAddress": "Mahim Road Palghar, Old Ice factory, Near Sales Tax Office, Palghar, Maharashtra 401404, India",
    "VenueCode": "GDPG",
    "VenueName": "Gold Cinema: Palghar"
  },
  "GGCB": {
    "AvailableFormats": "2D|3D",
    "City": "Burhanpur",
    "Latitude": "21.3138",
    "Longitude": "76.2223",
    "RegionCode": "BRHP",
    "State": "Madhya Pradesh",
    "SubRegionCode": "BRHP",
    "VenueAddress": "Gursikh Mall, New Market, Sanwara, Road, Sindhi Basti, Burhanpur, Madhya Pradesh 450331, India",
    "VenueCode": "GGCB",
    "VenueName": "Gursikh Goldmark Cinemas (Dolby Atmos): Burhanpur"
  },
  "GHTE": {
    "AvailableFormats": "2D",
    "City": "Tirupur",
    "Latitude": "11.1402",
    "Longitude": "77.3235",
    "RegionCode": "TIRP",
    "State": "Tamil Nadu",
    "SubRegionCode": "TIRP",
    "VenueAddress": "Periyar Colony, Anupparpalayam Pudur, Tirupur, Tamil Nadu 641603, India",
    "VenueCode": "GHTE",
    "VenueName": "Ganesh Theatre A/C RGB Laser Dolby Atmos: Tirupur"
  },
  "GKGM": {
    "AvailableFormats": "2D",
    "City": "Chennai",
    "Latitude": "12.5131",
    "Longitude": "79.8845",
    "RegionCode": "CHEN",
    "State": "Tamil Nadu",
    "SubRegionCode": "CHEN",
    "VenueAddress": "Chennai - Theni Highway, Maduranthakam, Chennai, Tamil Nadu 603306, India",
    "VenueCode": "GKGM",
    "VenueName": "Gayathiri Cinemas A/C Dolby Atmos: Maduranthakam"
  },
  "GMDH": {
    "AvailableFormats": "2D",
    "City": "Dharmapuri",
    "Latitude": "12.1229",
    "Longitude": "78.1593",
    "RegionCode": "DMPI",
    "State": "Tamil Nadu",
    "SubRegionCode": "DMPI",
    "VenueAddress": "Dharmapuri-Harur Road, Indhira Nagar, Dharmapuri, Tamil Nadu 636701, India",
    "VenueCode": "GMDH",
    "VenueName": "GM Theatre: Dharmapuri"
  },
  "GODH": {
    "AvailableFormats": "2D",
    "City": "Dharamsala",
    "Latitude": "32.2143",
    "Longitude": "76.3171",
    "RegionCode": "DMSL",
    "State": "Himachal Pradesh",
    "SubRegionCode": "DMSL",
    "VenueAddress": "Maximus Mall, Mann Filling Station, Kotwali Bazar, Dharamsala, Himachal Pradesh 176215, India",
    "VenueCode": "GODH",
    "VenueName": "Gold Cinema: Dharamsala"
  },
  "GPGM": {
    "AvailableFormats": "2D",
    "City": "Bengaluru",
    "Latitude": "12.9935",
    "Longitude": "77.664",
    "RegionCode": "HOKT",
    "State": "Karnataka",
    "SubRegionCode": "HOKT",
    "VenueAddress": "Nagavar Palaya, Old Madras Road, Above More Supermarket, Bengaluru, Karnataka 560016, India",
    "VenueCode": "GPGM",
    "VenueName": "Gopalan Grand Mall: Old Madras Road"
  },
  "GRCR": {
    "AvailableFormats": "2D",
    "City": "Rajkot",
    "Latitude": "22.356",
    "Longitude": "70.715",
    "RegionCode": "RAJK",
    "State": "Gujarat",
    "SubRegionCode": "RAJK",
    "VenueAddress": "Rajkot Highway, Jamnagar, Near Saurashtra Cricket Stadium, Rajkot, Gujarat 360006, India",
    "VenueCode": "GRCR",
    "VenueName": "Garden Cinema: Rajkot"
  },
  "GSTV": {
    "AvailableFormats": "2D",
    "City": "Vizag (Visakhapatnam)",
    "Latitude": "17.9308",
    "Longitude": "83.429",
    "RegionCode": "SABB",
    "State": "Andhra Pradesh",
    "SubRegionCode": "SABB",
    "VenueAddress": "Ganesh Theatre Road, Chittivalasa, Thagarapuvalasa, Vizag, Andhra Pradesh 531162, India",
    "VenueCode": "GSTV",
    "VenueName": "Ganesh A/C 2K Dolby: Tagarapuvalasa"
  },
  "GTDN": {
    "AvailableFormats": "2D",
    "City": "Davanagere",
    "Latitude": "14.4664",
    "Longitude": "75.9254",
    "RegionCode": "DAVA",
    "State": "Karnataka",
    "SubRegionCode": "DAVA",
    "VenueAddress": "KB Extension, Near Lingeshwara Temple, Davanagere, Karnataka 577001, India",
    "VenueCode": "GTDN",
    "VenueName": "Geetanjali Theatre: Davangere"
  },
  "GTTG": {
    "AvailableFormats": "2D",
    "City": "Talcher",
    "Latitude": "20.9469",
    "Longitude": "85.2157",
    "RegionCode": "TALC",
    "State": "Odisha",
    "SubRegionCode": "TALC",
    "VenueAddress": "Angul Talcher Road, Next to Hingula Jewellers, Talcher, Odisha 759100, India",
    "VenueCode": "GTTG",
    "VenueName": "Ganesh Talkies: Talcher"
  },
  "GWEK": {
    "AvailableFormats": "2D",
    "City": "Kallara",
    "Latitude": "9.70018",
    "Longitude": "76.4759",
    "RegionCode": "ETTU",
    "State": "Kerala",
    "SubRegionCode": "ETTU",
    "VenueAddress": "Kallara - Neendoor - Pravattom Road, Neendoor, Kallara, Kerala 686611, India",
    "VenueCode": "GWEK",
    "VenueName": "Goodwill Cinemas 4K RGB LASER Atmos 3D: Kallara"
  },
  "HARK": {
    "AvailableFormats": "2D",
    "City": "Jalalabad",
    "Latitude": "30.6096",
    "Longitude": "74.2555",
    "RegionCode": "JLAB",
    "State": "Punjab",
    "SubRegionCode": "JLAB",
    "VenueAddress": "Fazilka  Ferozpur Road, Aman Nagar, Near Bus Stand, Jalalabad, Punjab 152024, India",
    "VenueCode": "HARK",
    "VenueName": "Harkishan Cinema: Jalalabad"
  },
  "HFSA": {
    "AvailableFormats": "2D",
    "City": "Panaji",
    "Latitude": "15.497",
    "Longitude": "73.8239",
    "RegionCode": "PANA",
    "State": "Goa",
    "SubRegionCode": "PANA",
    "VenueAddress": "Samrat Ashok Theatre Complex, 2nd Floor, 18th June Road, Hotel Ashok Plaza, Panaji, Goa 403001, India",
    "VenueCode": "HFSA",
    "VenueName": "Z Square Cine Samrat Ashok: Panaji"
  },
  "HKCP": {
    "AvailableFormats": "",
    "City": "Trivandrum",
    "Latitude": "8.62134",
    "Longitude": "76.8995",
    "RegionCode": "ATTI",
    "State": "Kerala",
    "SubRegionCode": "ATTI",
    "VenueAddress": "Kazhakoottam, Kilimanoor Road, Near State Bank of India, Trivandrum, Kerala 695584, India",
    "VenueCode": "HKCP",
    "VenueName": "HK Cinemas 4K 3D Dolby Atmos: Pothencode"
  },
  "HSTK": {
    "AvailableFormats": "2D",
    "City": "Trivandrum",
    "Latitude": "8.58223",
    "Longitude": "76.8612",
    "RegionCode": "VKAL",
    "State": "Kerala",
    "SubRegionCode": "VKAL",
    "VenueAddress": "Vettur Road, Kazhakootam, Trivandrum, Kerala 695301, India",
    "VenueCode": "HSTK",
    "VenueName": "Harisree Theatre 4K 3D Dolby 7.1: Kazhakkoottam"
  },
  "ICCM": {
    "AvailableFormats": "2D|3D",
    "City": "Mysuru (Mysore)",
    "Latitude": "12.3098",
    "Longitude": "76.6585",
    "RegionCode": "MYS",
    "State": "Karnataka",
    "SubRegionCode": "MYS",
    "VenueAddress": "INOX Leisure Ltd, 3rd Floor, Centro, Bangalore-Nilgiri Road, Mysuru (Mysore), Karnataka 570001, India",
    "VenueCode": "ICCM",
    "VenueName": "INOX: Centro, Mysore"
  },
  "IGAM": {
    "AvailableFormats": "2D|3D",
    "City": "Gurugram (Gurgaon)",
    "Latitude": "28.4453",
    "Longitude": "77.0811",
    "RegionCode": "NCR",
    "State": "NCR",
    "SubRegionCode": "GURG",
    "VenueAddress": "4th Floor, Ardee Mall, Ardee City, Sector 52, Gurugram, Haryana, Gurugram (Gurgaon), NCR 122003, India",
    "VenueCode": "IGAM",
    "VenueName": "INOX: Ardee Mall, Gurugram"
  },
  "IMCH": {
    "AvailableFormats": "2D",
    "City": "Namchi",
    "Latitude": "27.164",
    "Longitude": "88.3619",
    "RegionCode": "NAMI",
    "State": "Sikkim",
    "SubRegionCode": "NAMI",
    "VenueAddress": "NMC Museum Building, Singithang, Shaheed Sanjog Chettri Marg, Namchi, Sikkim 737126, India",
    "VenueCode": "IMCH",
    "VenueName": "Imperial Talkies: Namchi"
  },
  "IMSH": {
    "AvailableFormats": "3D|2D",
    "City": "Shajapur",
    "Latitude": "23.4188",
    "Longitude": "76.2637",
    "RegionCode": "SJUR",
    "State": "Madhya Pradesh",
    "SubRegionCode": "SJUR",
    "VenueAddress": "1st floor, Seva Shree Mall, Dupada Road, Near Vyas Hospital, Shajapur, Madhya Pradesh 465001, India",
    "VenueCode": "IMSH",
    "VenueName": "Imusica Cinema: Shajapur"
  },
  "INBC": {
    "AvailableFormats": "2D",
    "City": "Bengaluru",
    "Latitude": "12.9166",
    "Longitude": "77.5923",
    "RegionCode": "HOKT",
    "State": "Karnataka",
    "SubRegionCode": "HOKT",
    "VenueAddress": "5th Floor Central, 45th Cross, J P Nagar 2nd Phase, Marenhalli Road, Bengaluru, Karnataka 560069, India",
    "VenueCode": "INBC",
    "VenueName": "INOX: Central, JP Nagar, Mantri Junction"
  },
  "INCH": {
    "AvailableFormats": "2D",
    "City": "Chennai",
    "Latitude": "13.0432",
    "Longitude": "80.2738",
    "RegionCode": "CHEN",
    "State": "Tamil Nadu",
    "SubRegionCode": "CHEN",
    "VenueAddress": "3rd Floor, Chennai Citi Center, Doctor Radha Krishnan Salai, Chennai, Tamil Nadu 600004, India",
    "VenueCode": "INCH",
    "VenueName": "INOX: Chennai Citi Centre, Dr. RK Salai"
  },
  "INGA": {
    "AvailableFormats": "2D",
    "City": "Gandhinagar",
    "Latitude": "23.1803",
    "Longitude": "72.5653",
    "RegionCode": "GNAGAR",
    "State": "Gujarat",
    "SubRegionCode": "GNAGAR",
    "VenueAddress": "Near Adalaj, Gandhinagar Sarkhej Highway, Near Tri Mandir, Gandhinagar, Gujarat 380055, India",
    "VenueCode": "INGA",
    "VenueName": "INOX: Gandhinagar, Adalaj"
  },
  "INJV": {
    "AvailableFormats": "3D|2D",
    "City": "Jaipur",
    "Latitude": "26.9128",
    "Longitude": "75.7435",
    "RegionCode": "JAIP",
    "State": "Rajasthan",
    "SubRegionCode": "JAIP",
    "VenueAddress": "Vaibhav Complex, C-1 C Block, Amrapali Circle, Vaishali Nagar, Near Vaishali Hospital, Jaipur, Rajasthan 302021, India",
    "VenueCode": "INJV",
    "VenueName": "INOX: Vaibhav, Amarapali Circle"
  },
  "INMT": {
    "AvailableFormats": "2D",
    "City": "Kakinada",
    "Latitude": "16.9979",
    "Longitude": "82.2434",
    "RegionCode": "KAKI",
    "State": "Andhra Pradesh",
    "SubRegionCode": "KAKI",
    "VenueAddress": "3rd Floor, 82-EAST, SRMT Mall, Lalitha Nagar, Ramanayyapeta, Pithapuram Road, Sarpavaram Junction, Kakinada, Andhra Pradesh 533005, India",
    "VenueCode": "INMT",
    "VenueName": "INOX: SRMT Mall, Kakinada"
  },
  "INPN": {
    "AvailableFormats": "2D|3D",
    "City": "Pune",
    "Latitude": "18.527",
    "Longitude": "73.8777",
    "RegionCode": "PUNE",
    "State": "Maharashtra",
    "SubRegionCode": "PUNE",
    "VenueAddress": "Plot No.D, Bund Garden Road, Agarkar Nagar, Near Central Park Hotel, Pune, Maharashtra 411001, India",
    "VenueCode": "INPN",
    "VenueName": "INOX: Bund Garden Road"
  },
  "INRJ": {
    "AvailableFormats": "2D|3D",
    "City": "Jalandhar",
    "Latitude": "31.307",
    "Longitude": "75.5926",
    "RegionCode": "JALA",
    "State": "Punjab",
    "SubRegionCode": "JALA",
    "VenueAddress": "INOX Leisure Ltd., 3rd Floor, Reliance Mall, Chotti Baradari Part-2, Puda, Jalandhar, Punjab 144001, India",
    "VenueCode": "INRJ",
    "VenueName": "INOX: Reliance Mall, Jalandhar"
  },
  "INSL": {
    "AvailableFormats": "2D|3D",
    "City": "Kolkata",
    "Latitude": "22.589",
    "Longitude": "88.4082",
    "RegionCode": "BARR",
    "State": "West Bengal",
    "SubRegionCode": "BARR",
    "VenueAddress": "City Centre, DC Block I, Sector-1, City Center Mall, Kolkata, West Bengal 700020, India",
    "VenueCode": "INSL",
    "VenueName": "INOX: City Center, Salt Lake"
  },
  "INVB": {
    "AvailableFormats": "2D|3D",
    "City": "Vizag (Visakhapatnam)",
    "Latitude": "17.7111",
    "Longitude": "83.3167",
    "RegionCode": "SABB",
    "State": "Andhra Pradesh",
    "SubRegionCode": "SABB",
    "VenueAddress": "Survey No.120 and 121, Varun Beach, 3rd Floor, R K Beach Road, Maharani Pet, Vizag, Andhra Pradesh 530003, India",
    "VenueCode": "INVB",
    "VenueName": "INOX: Varun Beach, Beach Road"
  },
  "INVZ": {
    "AvailableFormats": "",
    "City": "Vizianagaram",
    "FirstTracked": "2026-07-14",
    "Latitude": "18.107111",
    "Longitude": "83.39902",
    "RegionCode": "VIZI",
    "State": "Andhra Pradesh",
    "SubRegionCode": "VIZI",
    "VenueAddress": "3rd Floor, NCS Mall, Bochu Peta, Beside Thotapalem Road, Opposite RTC Complex, Vizianagaram, Andhra Pradesh 535002, India",
    "VenueCode": "INVZ",
    "VenueName": "INOX: NCS Mall, Vizianagaram"
  },
  "IOMM": {
    "AvailableFormats": "2D|3D",
    "City": "Gorakhpur",
    "Latitude": "26.7498",
    "Longitude": "83.4007",
    "RegionCode": "GRKP",
    "State": "Uttar Pradesh",
    "SubRegionCode": "GRKP",
    "VenueAddress": "INOX Leisure Ltd, 4th Floor, Orion Mall, Mohaddipur, Gorakhpur, Uttar Pradesh 273010, India",
    "VenueCode": "IOMM",
    "VenueName": "INOX: Orion Mall, Gorakhpur"
  },
  "IPPL": {
    "AvailableFormats": "2D|MX4D|IMAX 2D|3D|MX4D 3D",
    "City": "Lucknow",
    "Latitude": "26.8085",
    "Longitude": "81.0123",
    "RegionCode": "LUCK",
    "State": "Uttar Pradesh",
    "SubRegionCode": "LUCK",
    "VenueAddress": "INOX Leisure Ltd., 3rd Floor, Phoenix Palassio Mall Amar Saheed Path, Gomti Nagar Extension, Lucknow, Uttar Pradesh 226010, India",
    "VenueCode": "IPPL",
    "VenueName": "INOX: Megaplex Phoenix Palassio Mall"
  },
  "ISMR": {
    "AvailableFormats": "2D",
    "City": "Dharwad",
    "Latitude": "15.4452",
    "Longitude": "75.0136",
    "RegionCode": "DHAW",
    "State": "Karnataka",
    "SubRegionCode": "DHAW",
    "VenueAddress": "2nd Floor, Smart City Mall, Lakamanahalli, P B Road, Dharwad, Karnataka 580001, India",
    "VenueCode": "ISMR",
    "VenueName": "INOX: Smartcity Mall, Dharwad"
  },
  "IXIM": {
    "AvailableFormats": "2D",
    "City": "Jodhpur",
    "Latitude": "26.2195",
    "Longitude": "73.0422",
    "RegionCode": "JODH",
    "State": "Rajasthan",
    "SubRegionCode": "JODH",
    "VenueAddress": "1st Floor, Indiabulls Mega Mall, Vijayrajey Nagar, NH-65, Pali Road, Jodhpur, Rajasthan 342005, India",
    "VenueCode": "IXIM",
    "VenueName": "INOX: Indiabulls Mall, Jodhpur"
  },
  "JBCA": {
    "AvailableFormats": "2D",
    "City": "Trivandrum",
    "Latitude": "8.71232",
    "Longitude": "76.813",
    "RegionCode": "VKAL",
    "State": "Kerala",
    "SubRegionCode": "VKAL",
    "VenueAddress": "Alamcode, Near - Vazhiyorakkada Restaurant, Trivandrum, Kerala 695102, India",
    "VenueCode": "JBCA",
    "VenueName": "Thapasya Cine House: Attingal"
  },
  "JCMA": {
    "AvailableFormats": "2D|3D",
    "City": "Ambikapur",
    "Latitude": "23.1266",
    "Longitude": "83.1916",
    "RegionCode": "AMBI",
    "State": "Chhattisgarh",
    "SubRegionCode": "AMBI",
    "VenueAddress": "Devigang Road, Near Mahamaya Chowk, Ambikapur, Chhattisgarh 497001, India",
    "VenueCode": "JCMA",
    "VenueName": "JCM Multiplex: Ambikapur"
  },
  "JDDG": {
    "AvailableFormats": "",
    "City": "Gauriganj",
    "FirstTracked": "2026-07-14",
    "Latitude": "26.210785",
    "Longitude": "81.71261",
    "RegionCode": "GNGJ",
    "State": "Uttar Pradesh",
    "SubRegionCode": "GNGJ",
    "VenueAddress": "Jamo Shopping Centre, Near Bank of Baraoda-V mart, Gauriganj, Uttar Pradesh 227409, India",
    "VenueCode": "JDDG",
    "VenueName": "Jamo DD Cinema: Gauriganj"
  },
  "JHVN": {
    "AvailableFormats": "2D",
    "City": "Varanasi",
    "Latitude": "25.3358",
    "Longitude": "82.9773",
    "RegionCode": "VAR",
    "State": "Uttar Pradesh",
    "SubRegionCode": "VAR",
    "VenueAddress": "JHV Mall, The Mall Road, Cantonment, Varanasi Cantt, Near Nehru Park, Varanasi, Uttar Pradesh 221001, India",
    "VenueCode": "JHVN",
    "VenueName": "JHV Cinemas: Varanasi"
  },
  "JLSL": {
    "AvailableFormats": "2D",
    "City": "Peddapuram",
    "Latitude": "17.0801",
    "Longitude": "82.1326",
    "RegionCode": "PEDP",
    "State": "Andhra Pradesh",
    "SubRegionCode": "PEDP",
    "VenueAddress": "7, Peddapuram Rajahmundry Main Road, Chadalada, Near Main Mosque, Peddapuram, Andhra Pradesh 533437, India",
    "VenueCode": "JLSL",
    "VenueName": "Lalitha Sri Lalitha Theatre: Peddapuram"
  },
  "JMRC": {
    "AvailableFormats": "2D",
    "City": "Vellampalli",
    "Latitude": "15.6382",
    "Longitude": "80.0137",
    "RegionCode": "VMPL",
    "State": "Andhra Pradesh",
    "SubRegionCode": "VMPL",
    "VenueAddress": "Vellampalli - Tallur Road, Near Panchayathi Office, Vellampalli, Andhra Pradesh 523211, India",
    "VenueCode": "JMRC",
    "VenueName": "JMR Cinemas: Vellampalli"
  },
  "JSCH": {
    "AvailableFormats": "",
    "City": "Haldwani",
    "FirstTracked": "2026-07-14",
    "Latitude": "29.2267",
    "Longitude": "79.4217",
    "RegionCode": "HALD",
    "State": "Uttarakhand",
    "SubRegionCode": "HALD",
    "VenueAddress": "JAGS City Mall, Naripur, Lamachaur Khas, Near Amrapali University, Haldwani, Uttarakhand 263139, India",
    "VenueCode": "JSCH",
    "VenueName": "Jags Cinema: Haldwani"
  },
  "JTGA": {
    "AvailableFormats": "",
    "City": "Lucknow",
    "FirstTracked": "2026-07-14",
    "Latitude": "26.84866",
    "Longitude": "80.92571",
    "RegionCode": "LUCK",
    "State": "Uttar Pradesh",
    "SubRegionCode": "LUCK",
    "VenueAddress": "Central Hotal, Khayali Ganj, Aminabad, Near Ameeruddaula Jhande Wala Park, Lucknow, Uttar Pradesh 226018, India",
    "VenueCode": "JTGA",
    "VenueName": "Jagat Cinema: Lucknow"
  },
  "JTME": {
    "AvailableFormats": "",
    "City": "Maheshwar",
    "FirstTracked": "2026-07-14",
    "Latitude": "22.178774",
    "Longitude": "75.58646",
    "RegionCode": "MAHE",
    "State": "Madhya Pradesh",
    "SubRegionCode": "MAHE",
    "VenueAddress": "Near Ajanta Lodge, Dhamnod Road, Maheshwar, Madhya Pradesh 451224, India",
    "VenueCode": "JTME",
    "VenueName": "Janata Talkies: Maheshwar"
  },
  "JTPL": {
    "AvailableFormats": "2D",
    "City": "Chennai",
    "Latitude": "12.9697",
    "Longitude": "80.1494",
    "RegionCode": "CHEN",
    "State": "Tamil Nadu",
    "SubRegionCode": "CHEN",
    "VenueAddress": "Srinivasa Perumal Koil, Rajendra Nagar, Pallavaram, Behind Pallavaram Bus Stop, Chennai, Tamil Nadu 600043, India",
    "VenueCode": "JTPL",
    "VenueName": "Janatha Theatre 4K AC DTS (JBL AUDIO): Pallavaram"
  },
  "JTSM": {
    "AvailableFormats": "2D",
    "City": "Nellore",
    "Latitude": "14.4561",
    "Longitude": "79.9816",
    "RegionCode": "NELL",
    "State": "Andhra Pradesh",
    "SubRegionCode": "NELL",
    "VenueAddress": "Ramji Nagar, ., Nellore, Andhra Pradesh 524001, India",
    "VenueCode": "JTSM",
    "VenueName": "Siri Multiplex: Nellore"
  },
  "JTYS": {
    "AvailableFormats": "2D",
    "City": "Vizag (Visakhapatnam)",
    "Latitude": "17.7255",
    "Longitude": "83.3025",
    "RegionCode": "SABB",
    "State": "Andhra Pradesh",
    "SubRegionCode": "SABB",
    "VenueAddress": "Station Road, Dondaparthy, Dwaraka Nagar, Vizag, Andhra Pradesh 530016, India",
    "VenueCode": "JTYS",
    "VenueName": "Sangam Theatre 4K Dolby Atmos: Vizag"
  },
  "JYKL": {
    "AvailableFormats": "3D|2D",
    "City": "Kolkata",
    "Latitude": "22.7609",
    "Longitude": "88.3668",
    "RegionCode": "KOLK",
    "State": "West Bengal",
    "SubRegionCode": "KOLK",
    "VenueAddress": "2, B.T Road, Barrackpore Chiriamore, North 24 Parganas, Near Samanta Automobiles and SBI Railway Station Branch, Kolkata, West Bengal 700120, India",
    "VenueCode": "JYKL",
    "VenueName": "Jayanti Cinema: Barrackpore"
  },
  "KAGY": {
    "AvailableFormats": "",
    "City": "Jaggayyapeta",
    "FirstTracked": "2026-07-14",
    "Latitude": "16.8928",
    "Longitude": "80.1012",
    "RegionCode": "JGGY",
    "State": "Andhra Pradesh",
    "SubRegionCode": "JGGY",
    "VenueAddress": "JRC College Road, Y.Y. Colony, Jaggayyapeta, Andhra Pradesh 521175, India",
    "VenueCode": "KAGY",
    "VenueName": "Kamala Theater: Jaggayyapeta"
  },
  "KAVE": {
    "AvailableFormats": "2D",
    "City": "Coimbatore",
    "Latitude": "11.0192",
    "Longitude": "76.9639",
    "RegionCode": "COIM",
    "State": "Tamil Nadu",
    "SubRegionCode": "COIM",
    "VenueAddress": "No 167, Dr Rajendraprasad Road (100 ft road), Karpagam Cine Complex, Gandhipuram, Coimbatore, Tamil Nadu 641012, India",
    "VenueCode": "KAVE",
    "VenueName": "Kaveri Cinema: Coimbatore"
  },
  "KCCG": {
    "AvailableFormats": "2D",
    "City": "Gwalior",
    "Latitude": "26.2045",
    "Longitude": "78.1555",
    "RegionCode": "GWAL",
    "State": "Madhya Pradesh",
    "SubRegionCode": "GWAL",
    "VenueAddress": "Lashkar, Gangwal Bhawan Marg, Gwalior, Madhya Pradesh 474001, India",
    "VenueCode": "KCCG",
    "VenueName": "Kailash Cineplex Dolby Digital: Gwalior"
  },
  "KCMW": {
    "AvailableFormats": "2D",
    "City": "Mawana",
    "Latitude": "29.1007",
    "Longitude": "77.9156",
    "RegionCode": "MERT",
    "State": "Uttar Pradesh",
    "SubRegionCode": "MERT",
    "VenueAddress": "Mill Road, Mohalla Kalyan Singh, Mawana, Uttar Pradesh 250401, India",
    "VenueCode": "KCMW",
    "VenueName": "Kapil Cinema: Mawana"
  },
  "KDCA": {
    "AvailableFormats": "",
    "City": "Akbarpur",
    "FirstTracked": "2026-07-14",
    "Latitude": "26.417946",
    "Longitude": "82.53027",
    "RegionCode": "AKBR",
    "State": "Uttar Pradesh",
    "SubRegionCode": "AKBR",
    "VenueAddress": "Indralok Colony, Shahzad Pur, Akbarpur, Uttar Pradesh 224122, India",
    "VenueCode": "KDCA",
    "VenueName": "Kapoor DD Cinemas: Akbarpur"
  },
  "KFMT": {
    "AvailableFormats": "2D",
    "City": "Thalikulam",
    "Latitude": "10.4413",
    "Longitude": "76.0938",
    "RegionCode": "THAI",
    "State": "Kerala",
    "SubRegionCode": "THAI",
    "VenueAddress": "Karthika Movies, National Highway 66, Thalikulam, Kerala 680569, India",
    "VenueCode": "KFMT",
    "VenueName": "Karthika Fun Movies Thalikulam RGB 4K Laser Atmos"
  },
  "KIGH": {
    "AvailableFormats": "2D",
    "City": "Mandla",
    "Latitude": "22.5624",
    "Longitude": "80.3518",
    "RegionCode": "MADL",
    "State": "Madhya Pradesh",
    "SubRegionCode": "MADL",
    "VenueAddress": "Maharajpur, Kolpewadi, Mandla Road, Rangoli Restaurant, Mandla, Madhya Pradesh 481665, India",
    "VenueCode": "KIGH",
    "VenueName": "Kingfisher Multiplex: Mandla"
  },
  "KKTJ": {
    "AvailableFormats": "2D",
    "City": "Jeypore",
    "Latitude": "18.8573",
    "Longitude": "82.5722",
    "RegionCode": "JEYP",
    "State": "Odisha",
    "SubRegionCode": "JEYP",
    "VenueAddress": "Bidyadhar Market Road, Mill Street, Jeypore, Odisha 764001, India",
    "VenueCode": "KKTJ",
    "VenueName": "Korosudha Kalamandir Theatre: Jeypore"
  },
  "KMJR": {
    "AvailableFormats": "2D",
    "City": "Jintur",
    "Latitude": "19.5956",
    "Longitude": "76.6741",
    "RegionCode": "PARB",
    "State": "Maharashtra",
    "SubRegionCode": "PARB",
    "VenueAddress": "Jalna, Jintur Road, Jintur, Maharashtra 431509, India",
    "VenueCode": "KMJR",
    "VenueName": "Khushi Multiplex: Jintur"
  },
  "KNOX": {
    "AvailableFormats": "2D",
    "City": "Keonjhar",
    "Latitude": "21.6354",
    "Longitude": "85.616",
    "RegionCode": "KNJH",
    "State": "Odisha",
    "SubRegionCode": "KNJH",
    "VenueAddress": "Kashvi Mall, Mining Road, Opposite Keonjhar Law College, Keonjhar, Odisha 758001, India",
    "VenueCode": "KNOX",
    "VenueName": "KNOX Cinema: Keonjhar"
  },
  "KRBC": {
    "AvailableFormats": "2D|3D",
    "City": "Bahadurgarh",
    "Latitude": "28.6779",
    "Longitude": "76.8975",
    "RegionCode": "BAHD",
    "State": "Haryana",
    "SubRegionCode": "BAHD",
    "VenueAddress": "2nd Floor, Minervas West Side Mall, Sector 14, Jhajjar Road, Jhajjar, Bahadurgarh, Haryana 124507, India",
    "VenueCode": "KRBC",
    "VenueName": "KRB Cineplex: Bahadurgarh"
  },
  "KRPM": {
    "AvailableFormats": "2D",
    "City": "Kurumaseri",
    "Latitude": "10.180087",
    "Longitude": "76.331202",
    "RegionCode": "KURY",
    "State": "Kerala",
    "SubRegionCode": "KURY",
    "VenueAddress": "N Poovathusssery - Meladoor Road, Nearby Kaitharan Build Ware, Kurumaseri, Kerala 683579, India",
    "VenueCode": "KRPM",
    "VenueName": "Kripa Movies 4K Dolby: Kurumassery"
  },
  "KSDE": {
    "AvailableFormats": "",
    "City": "Deoli (Rajasthan)",
    "FirstTracked": "2026-07-14",
    "Latitude": "25.76135",
    "Longitude": "75.37665",
    "RegionCode": "DEOY",
    "State": "Rajasthan",
    "SubRegionCode": "DEOY",
    "VenueAddress": "National Highway 52, Tonk Road, Narayani Nagar, Deoli (Rajasthan), Rajasthan 304804, India",
    "VenueCode": "KSDE",
    "VenueName": "Kisan Talkies: Deoli"
  },
  "KSTC": {
    "AvailableFormats": "2D",
    "City": "Alappuzha",
    "Latitude": "9.68907",
    "Longitude": "76.3428",
    "RegionCode": "CRTL",
    "State": "Kerala",
    "SubRegionCode": "CRTL",
    "VenueAddress": "Cherthala Road, Kodathikavala, Cherthala, Near State Bank of India, Cherthala Branch, Alappuzha, Kerala 688524, India",
    "VenueCode": "KSTC",
    "VenueName": "Cherthala: Kairali Sree Theatre"
  },
  "KTEK": {
    "AvailableFormats": "2D",
    "City": "Kochi",
    "Latitude": "9.97858",
    "Longitude": "76.2826",
    "RegionCode": "PALY",
    "State": "Kerala",
    "SubRegionCode": "PALY",
    "VenueAddress": "Paza Hotel, Mahatma Gandhi Road, Shenoys - Ernakulam, Near Abad, Kochi, Kerala 682011, India",
    "VenueCode": "KTEK",
    "VenueName": "Kavitha Theatre 4K 3D Dolby 7.1: Ernakulam"
  },
  "KTTT": {
    "AvailableFormats": "",
    "City": "Tonk",
    "FirstTracked": "2026-07-14",
    "Latitude": "26.173922",
    "Longitude": "75.794624",
    "RegionCode": "TONK",
    "State": "Rajasthan",
    "SubRegionCode": "TONK",
    "VenueAddress": "Rooi Panch ka Maidan, Ambika Colony, Near Janki Bai Guest House, Tonk, Rajasthan 304001, India",
    "VenueCode": "KTTT",
    "VenueName": "Kiran Talkies: Tonk"
  },
  "LACK": {
    "AvailableFormats": "",
    "City": "Chanpatia",
    "FirstTracked": "2026-07-14",
    "Latitude": "26.948313",
    "Longitude": "84.53663",
    "RegionCode": "CHAT",
    "State": "Bihar",
    "SubRegionCode": "CHAT",
    "VenueAddress": "Chanpatia Station Road, Near Chanpatia Police Station, Chanpatia, Bihar 845449, India",
    "VenueCode": "LACK",
    "VenueName": "Lal Talkies(AC, Dolby 7.1): Chanpatia"
  },
  "LASK": {
    "AvailableFormats": "",
    "City": "Karaikal",
    "FirstTracked": "2026-07-14",
    "Latitude": "10.936586",
    "Longitude": "79.830025",
    "RegionCode": "KARA",
    "State": "Tamil Nadu",
    "SubRegionCode": "KARA",
    "VenueAddress": "National Highway 45A, Viola Garden, Nehrunagar, Karaikal, Puducherry, Near Pondicherry University, Karaikal, Tamil Nadu 609605, India",
    "VenueCode": "LASK",
    "VenueName": "LA Cinema Shamina A/C Dolby Atmos: Karaikal"
  },
  "LCMV": {
    "AvailableFormats": "2D",
    "City": "Kankavli",
    "Latitude": "16.2655",
    "Longitude": "73.7061",
    "RegionCode": "KNKS",
    "State": "Maharashtra",
    "SubRegionCode": "KNKS",
    "VenueAddress": "Achara Road, Near - Police Station, Kalmath, Kankavli, Maharashtra 416602, India",
    "VenueCode": "LCMV",
    "VenueName": "Laxmi Chitramandir: Kankavli"
  },
  "LCZP": {
    "AvailableFormats": "2D",
    "City": "Zirakpur",
    "Latitude": "30.6599",
    "Longitude": "76.8218",
    "RegionCode": "CHD",
    "State": "Punjab",
    "SubRegionCode": "ZRIK",
    "VenueAddress": "Paras Down Town Square Mall, The Golden Plaza Hotel, Ambala Chandigarh Express Way, Zirakpur, Zirakpur, Punjab 140603, India",
    "VenueCode": "LCZP",
    "VenueName": "Legend Cinemas: Paras Downtown Square, Zirakpur"
  },
  "LITH": {
    "AvailableFormats": "2D",
    "City": "Hinganghat",
    "Latitude": "20.5505",
    "Longitude": "78.8364",
    "RegionCode": "HINA",
    "State": "Maharashtra",
    "SubRegionCode": "HINA",
    "VenueAddress": "Civil Lines Road, Dag Borkhedi, Hinganghat, Maharashtra 442301, India",
    "VenueCode": "LITH",
    "VenueName": "Laxmi Talkies: Hinganghat"
  },
  "LKTK": {
    "AvailableFormats": "2D",
    "City": "Karur",
    "Latitude": "10.9587",
    "Longitude": "78.0829",
    "RegionCode": "KARU",
    "State": "Tamil Nadu",
    "SubRegionCode": "KARU",
    "VenueAddress": "No 61, Dindigul Road, Opposite Bombay sweets and Bakery, Karur, Tamil Nadu 639001, India",
    "VenueCode": "LKTK",
    "VenueName": "Lakshmi Raam Theatre: Karur"
  },
  "LMSR": {
    "AvailableFormats": "2D",
    "City": "Sehore",
    "Latitude": "23.2016",
    "Longitude": "77.0796",
    "RegionCode": "SEHO",
    "State": "Madhya Pradesh",
    "SubRegionCode": "SEHO",
    "VenueAddress": "42, Sindhi Colony, Main Road, Near State bank of India, Next to City Post Office, Sehore, Madhya Pradesh 466001, India",
    "VenueCode": "LMSR",
    "VenueName": "Lisa Multiplex Screen 2: Sehore"
  },
  "LSCM": {
    "AvailableFormats": "2D",
    "City": "Gurugram (Gurgaon)",
    "Latitude": "28.4347",
    "Longitude": "77.0681",
    "RegionCode": "NCR",
    "State": "NCR",
    "SubRegionCode": "GURG",
    "VenueAddress": "Mall Fifty One 104, Sector 51, Gurugram (Gurgaon), NCR 122003, India",
    "VenueCode": "LSCM",
    "VenueName": "Legend Cinema Lounges: Mall Fifty One, Gurgaon"
  },
  "LXCM": {
    "AvailableFormats": "",
    "City": "Navsari",
    "FirstTracked": "2026-07-14",
    "Latitude": "20.954329",
    "Longitude": "72.922935",
    "RegionCode": "NVSR",
    "State": "Gujarat",
    "SubRegionCode": "NVSR",
    "VenueAddress": "Karwad Road, Fuwara, Navsari, Gujarat 396445, India",
    "VenueCode": "LXCM",
    "VenueName": "Laxmi Cine Magic Multiplex: Navsari"
  },
  "MAAM": {
    "AvailableFormats": "",
    "City": "Ahmedabad",
    "FirstTracked": "2026-07-14",
    "Latitude": "22.9973",
    "Longitude": "72.5927",
    "RegionCode": "AHD",
    "State": "Gujarat",
    "SubRegionCode": "AHD",
    "VenueAddress": "Mira Cinema BRTS Bus Stop, Bhairavnath Road, Maninagar, Ahmedabad, Gujarat 380008, India",
    "VenueCode": "MAAM",
    "VenueName": "Mira Cinema: Ahmedabad"
  },
  "MACX": {
    "AvailableFormats": "2D",
    "City": "Shajapur",
    "Latitude": "23.4169",
    "Longitude": "76.2898",
    "RegionCode": "SJUR",
    "State": "Madhya Pradesh",
    "SubRegionCode": "SJUR",
    "VenueAddress": "Near Hotel Manorama Garden, Bercha Road, Shajapur, Madhya Pradesh 465001, India",
    "VenueCode": "MACX",
    "VenueName": "Manorama Cineplex: Shajapur"
  },
  "MAHT": {
    "AvailableFormats": "2D",
    "City": "Dakshin Barasat",
    "Latitude": "22.2236",
    "Longitude": "88.4478",
    "RegionCode": "DAKS",
    "State": "West Bengal",
    "SubRegionCode": "DAKS",
    "VenueAddress": "P/S Joynagar, Dist: 24 Parganas (South), Baruipur-Kulpi Road, Dakshin Barasat, West Bengal 743372, India",
    "VenueCode": "MAHT",
    "VenueName": "Mahamaya Talkies: Dakshin Barasat"
  },
  "MAOU": {
    "AvailableFormats": "2D",
    "City": "Routhulapudi",
    "Latitude": "17.3789",
    "Longitude": "82.3691",
    "RegionCode": "ROUT",
    "State": "Andhra Pradesh",
    "SubRegionCode": "ROUT",
    "VenueAddress": "Tuni Kathipudi Road, Nearby Lakshami Durga atoz Emporeya, Routhulapudi, Andhra Pradesh 533446, India",
    "VenueCode": "MAOU",
    "VenueName": "Maha Lakshmi Theatre: Routhulapudi"
  },
  "MAVC": {
    "AvailableFormats": "3D|2D",
    "City": "Vizag (Visakhapatnam)",
    "Latitude": "17.7088",
    "Longitude": "83.3002",
    "RegionCode": "SABB",
    "State": "Andhra Pradesh",
    "SubRegionCode": "SABB",
    "VenueAddress": "4th Floor,Town Main Road, Next Super Bazaar, Vizag, Andhra Pradesh 530002, India",
    "VenueCode": "MAVC",
    "VenueName": "Mukta A2 Cinemas: Vizag (ONLY RECLINERS AND SOFAS)"
  },
  "MBBT": {
    "AvailableFormats": "2D",
    "City": "Kasaragod",
    "Latitude": "12.5024",
    "Longitude": "74.9892",
    "RegionCode": "KASA",
    "State": "Kerala",
    "SubRegionCode": "KASA",
    "VenueAddress": "KPR Rao Road, Kasaragod, Kasaragod, Kerala 671121, India",
    "VenueCode": "MBBT",
    "VenueName": "Magic Frames Mehboob Theatre Complex 4K: Kasaragod"
  },
  "MCAJ": {
    "AvailableFormats": "",
    "City": "Anjar",
    "FirstTracked": "2026-07-14",
    "Latitude": "23.101154",
    "Longitude": "70.035416",
    "RegionCode": "ANJR",
    "State": "Gujarat",
    "SubRegionCode": "ANJR",
    "VenueAddress": "Vaishali Enclave, Chitrakut Circle, Shiv Shakti Society, Vir Bhaghat Singh Nagar, Anjar, Gujarat 370110, India",
    "VenueCode": "MCAJ",
    "VenueName": "FUN Cinemas Modern Cineplex: Anjar"
  },
  "MCCP": {
    "AvailableFormats": "",
    "City": "Ahmedabad",
    "Latitude": "23.0535",
    "Longitude": "72.6421",
    "RegionCode": "AHD",
    "State": "Gujarat",
    "SubRegionCode": "AHD",
    "VenueAddress": "Krishna Nagar, Naroda-Narol BRTS Road, Vijaya Bank, Ahmedabad, Gujarat 382346, India",
    "VenueCode": "MCCP",
    "VenueName": "Miraj Cinemas: Cinepride, Krishna Nagar"
  },
  "MCFF": {
    "AvailableFormats": "3D|2D",
    "City": "Mumbai",
    "Latitude": "19.4246",
    "Longitude": "72.8119",
    "RegionCode": "MUMBAI",
    "State": "Maharashtra",
    "SubRegionCode": "MWEST",
    "VenueAddress": "Sri Swastik Mega City, Sri Prastha Complex, Zero Road, Opposite Poonam Complex, Nalasopara (West), Near Mother Mary English High School, Mumbai, Maharashtra 401203, India",
    "VenueCode": "MCFF",
    "VenueName": "Miraj Fun Fiesta Cinemas: Nalasopara"
  },
  "MCHL": {
    "AvailableFormats": "",
    "City": "Ludhiana",
    "FirstTracked": "2026-07-14",
    "Latitude": "30.925505",
    "Longitude": "75.847305",
    "RegionCode": "LUDH",
    "State": "Punjab",
    "SubRegionCode": "LUDH",
    "VenueAddress": "Clock Tower Road, Fatehgarh Mohalla, Near Bhagvan Valmiki Park, Ludhiana, Punjab 141008, India",
    "VenueCode": "MCHL",
    "VenueName": "Mini Chand Cinema: Ludhiana"
  },
  "MCKK": {
    "AvailableFormats": "2D|3D",
    "City": "Kolkata",
    "Latitude": "22.5816",
    "Longitude": "88.4627",
    "RegionCode": "KOLK",
    "State": "West Bengal",
    "SubRegionCode": "KOLK",
    "VenueAddress": "The Terminus Bulding, Plot No. BG/12, AA-1B, New Town, Rajarhat, Kolkata, West Bengal 700156, India",
    "VenueCode": "MCKK",
    "VenueName": "Miraj Cinemas: Newtown, Kolkata"
  },
  "MCMN": {
    "AvailableFormats": "",
    "City": "Malegaon",
    "FirstTracked": "2026-07-14",
    "Latitude": "20.557009",
    "Longitude": "74.52555",
    "RegionCode": "MALE",
    "State": "Maharashtra",
    "SubRegionCode": "MALE",
    "VenueAddress": "Shreeram Nagar Road, Vardhaman Nagar, Malegaon, Maharashtra 423105, India",
    "VenueCode": "MCMN",
    "VenueName": "Mohan Cinema: Malegaon"
  },
  "MCRC": {
    "AvailableFormats": "2D|3D",
    "City": "Mumbai",
    "Latitude": "18.9543",
    "Longitude": "72.8166",
    "RegionCode": "MUMBAI",
    "State": "Maharashtra",
    "SubRegionCode": "MCENT",
    "VenueAddress": "5th Floor, Jewel Building, 23-27 New Queens Road, Opera House, Girgaon, Mumbai, Maharashtra 400004, India",
    "VenueCode": "MCRC",
    "VenueName": "Roxy Mukta A2 Cinemas: Charni Road"
  },
  "MCSO": {
    "AvailableFormats": "3D|2D",
    "City": "Vadodara",
    "Latitude": "22.2922",
    "Longitude": "73.1357",
    "RegionCode": "VAD",
    "State": "Gujarat",
    "SubRegionCode": "VAD",
    "VenueAddress": "The Emperor Mall, 2nd Floor, Beside VCA Ground, Vasna-Bhayli Road, Opposite Shakti Green Party Plot, Vadodara, Gujarat 391410, India",
    "VenueCode": "MCSO",
    "VenueName": "Mukta A2 Cinemas (Opulence): The Emperor Mall"
  },
  "MCUS": {
    "AvailableFormats": "",
    "City": "Alwar",
    "FirstTracked": "2026-07-16",
    "Latitude": "27.6024",
    "Longitude": "76.6314",
    "RegionCode": "ALWR",
    "State": "Rajasthan",
    "SubRegionCode": "ALWR",
    "VenueAddress": "Urban Square Galleria Mall, 4th Floor, Shalimar Apna Ghar, Gate No. 1, Near Telco Chowk, Alwar, Rajasthan 301001, India",
    "VenueCode": "MCUS",
    "VenueName": "Miraj Cinemas: USG Mall, Alwar"
  },
  "MDGD": {
    "AvailableFormats": "",
    "City": "Gurugram (Gurgaon)",
    "FirstTracked": "2026-07-14",
    "Latitude": "28.424637",
    "Longitude": "76.93061",
    "RegionCode": "NCR",
    "State": "NCR",
    "SubRegionCode": "GURG",
    "VenueAddress": "Newtown Square, Sector 95A Gurgaon, Sector 95A, Gurugram (Gurgaon), NCR 122505, India",
    "VenueCode": "MDGD",
    "VenueName": "Mad Cinemas: Gurgaon"
  },
  "MEEN": {
    "AvailableFormats": "2D",
    "City": "Coimbatore",
    "Latitude": "11.0831",
    "Longitude": "77.186",
    "RegionCode": "COIM",
    "State": "Tamil Nadu",
    "SubRegionCode": "COIM",
    "VenueAddress": "Somanur Rd,Bharathiyar Nagar, Somanur,Tamil Nadu, Coimbatore, Tamil Nadu 641668, India",
    "VenueCode": "MEEN",
    "VenueName": "Meenambiga Cinemas A/C 2K DOLBY ATMOS: Somanur"
  },
  "MERM": {
    "AvailableFormats": "2D",
    "City": "Noida",
    "Latitude": "28.5608",
    "Longitude": "77.3565",
    "RegionCode": "NCR",
    "State": "NCR",
    "SubRegionCode": "NOIDA",
    "VenueAddress": "4th Floor, R Cube Monad Mall, Block A, Sector 43, Noida, NCR 201303, India",
    "VenueCode": "MERM",
    "VenueName": "MovieMax Edition (Luxe): Rcube Monad Mall, Noida"
  },
  "MHCK": {
    "AvailableFormats": "2D|3D",
    "City": "Koraput",
    "Latitude": "18.8263",
    "Longitude": "82.7004",
    "RegionCode": "KOPT",
    "State": "Odisha",
    "SubRegionCode": "KOPT",
    "VenueAddress": "Megha Township, Manabar, Unnamed Road, Koraput, Odisha 764020, India",
    "VenueCode": "MHCK",
    "VenueName": "Meghraj Cinemaz: Koraput"
  },
  "MIFU": {
    "AvailableFormats": "3D|2D",
    "City": "Ulhasnagar",
    "Latitude": "19.226",
    "Longitude": "73.1657",
    "RegionCode": "MUMBAI",
    "State": "Maharashtra",
    "SubRegionCode": "ULHA",
    "VenueAddress": "Plot no.93, Sector 6A Ambarnath Road, Victory Ice Factory Compound, Press Bazaar, Ulhasnagar, Maharashtra 421003, India",
    "VenueCode": "MIFU",
    "VenueName": "Funcity Big Cinemas: Ulhasnagar"
  },
  "MJDG": {
    "AvailableFormats": "2D",
    "City": "Shivamogga",
    "Latitude": "13.9239",
    "Longitude": "75.5756",
    "RegionCode": "SHIA",
    "State": "Karnataka",
    "SubRegionCode": "SHIA",
    "VenueAddress": "K.R.Puram, Mahakavi Kalidasa Road, Gandhi Bazar, Shivamogga, Karnataka 577202, India",
    "VenueCode": "MJDG",
    "VenueName": "Manjunatha Digital 2K Cinema: Shivamogga"
  },
  "MKML": {
    "AvailableFormats": "2D",
    "City": "Pune",
    "Latitude": "18.5437",
    "Longitude": "73.9088",
    "RegionCode": "PUNE",
    "State": "Maharashtra",
    "SubRegionCode": "PUNE",
    "VenueAddress": "Marigold Complex, Kalyani Nagar, Pune, Maharashtra 411006, India",
    "VenueCode": "MKML",
    "VenueName": "MovieMax Gold: Mariplex Mall, Kalyani Nagar"
  },
  "MLCK": {
    "AvailableFormats": "2D",
    "City": "Shoranur",
    "Latitude": "10.7603",
    "Longitude": "76.2736",
    "RegionCode": "SHNR",
    "State": "Kerala",
    "SubRegionCode": "SHNR",
    "VenueAddress": "Shoranur Ring Road, Railway Station Junction, Shoranur, Kerala 679121, India",
    "VenueCode": "MLCK",
    "VenueName": "M Lal, Aashirvad Cineplexx: Shoranur"
  },
  "MMCA": {
    "AvailableFormats": "3D|2D",
    "City": "Hyderabad",
    "Latitude": "17.4956",
    "Longitude": "78.3533",
    "RegionCode": "HYD",
    "State": "Telangana",
    "SubRegionCode": "HYD",
    "VenueAddress": "Cinetown, Survey No. 71, Miyapur Village Ranga Reddy, Hyderabad, Telangana 500049, India",
    "VenueCode": "MMCA",
    "VenueName": "Miraj Cinemas: CineTown, Miyapur"
  },
  "MMHA": {
    "AvailableFormats": "3D|2D",
    "City": "Mumbai",
    "Latitude": "19.1287",
    "Longitude": "72.926",
    "RegionCode": "MUMBAI",
    "State": "Maharashtra",
    "SubRegionCode": "MCENT",
    "VenueAddress": "Huma Mall, LBS Road, Kanjurmarg (W), Near Kanjurmarg Railway Station, Mumbai, Maharashtra 400078, India",
    "VenueCode": "MMHA",
    "VenueName": "MovieMax: Huma, Kanjurmarg"
  },
  "MMMZ": {
    "AvailableFormats": "",
    "City": "Chickmagaluru",
    "FirstTracked": "2026-07-14",
    "Latitude": "13.3173",
    "Longitude": "75.7707",
    "RegionCode": "CHKA",
    "State": "Karnataka",
    "SubRegionCode": "CHKA",
    "VenueAddress": "KM Road, Next to bus stand, Kadur, Chickmagaluru, Karnataka 577101, India",
    "VenueCode": "MMMZ",
    "VenueName": "Milan Theatre: Chickmagaluru"
  },
  "MMTA": {
    "AvailableFormats": "2D",
    "City": "Kochi",
    "Latitude": "10.1072",
    "Longitude": "76.3603",
    "RegionCode": "PALY",
    "State": "Kerala",
    "SubRegionCode": "PALY",
    "VenueAddress": "Periyar Nagar, T2/10, Perumbavoor Aluva Road, Near ICICI Bank, Kochi, Kerala 683101, India",
    "VenueCode": "MMTA",
    "VenueName": "Matha Madhurya RGB Laser 3D Dolby Atmos: Aluva"
  },
  "MMZG": {
    "AvailableFormats": "",
    "City": "Ghaziabad",
    "FirstTracked": "2026-07-14",
    "Latitude": "28.6466",
    "Longitude": "77.3201",
    "RegionCode": "NCR",
    "State": "NCR",
    "SubRegionCode": "GHAZ",
    "VenueAddress": "MovieMax, Pacific Mall, Site 4 Sahibabad Industrial Area, Ghaziabad, NCR 201010, India",
    "VenueCode": "MMZG",
    "VenueName": "MovieMax: Pacific Mall Ghaziabad"
  },
  "MNPP": {
    "AvailableFormats": "2D",
    "City": "Hospet",
    "Latitude": "15.2721",
    "Longitude": "76.3926",
    "RegionCode": "HOSP",
    "State": "Karnataka",
    "SubRegionCode": "HOSP",
    "VenueAddress": "Takka Street, Bukka Road, Opposite New Rexine House, Hospet, Karnataka 583201, India",
    "VenueCode": "MNPP",
    "VenueName": "Meeralam Nawaz Picture Palace: Hospet"
  },
  "MPTN": {
    "AvailableFormats": "2D",
    "City": "Nandyal",
    "Latitude": "15.4857",
    "Longitude": "78.4871",
    "RegionCode": "NADY",
    "State": "Andhra Pradesh",
    "SubRegionCode": "NADY",
    "VenueAddress": "Atmakur Road, Telugu Peta, Near NTR Shopping Complex, Nandyal, Andhra Pradesh 518501, India",
    "VenueCode": "MPTN",
    "VenueName": "Mini Prathap A/C DTS: Nandyal"
  },
  "MRGK": {
    "AvailableFormats": "2D",
    "City": "Karwar",
    "Latitude": "14.8083",
    "Longitude": "74.1314",
    "RegionCode": "KWAR",
    "State": "Karnataka",
    "SubRegionCode": "KWAR",
    "VenueAddress": "Kaikini Road, Konekar Wada, Next to Bolas The Factory Outlet, Karwar, Karnataka 581301, India",
    "VenueCode": "MRGK",
    "VenueName": "Miraj Cinemas: Geetanjali, Karwar"
  },
  "MRSS": {
    "AvailableFormats": "2D",
    "City": "Changaramkulam",
    "Latitude": "10.7363",
    "Longitude": "76.029",
    "RegionCode": "EDPL",
    "State": "Kerala",
    "SubRegionCode": "EDPL",
    "VenueAddress": "Kunnamkulam Road, Changaramkulam, Opposite essar pterol pump, Changaramkulam, Kerala 679591, India",
    "VenueCode": "MRSS",
    "VenueName": "Mars Cinemas 4K Dolby Atmos: Changaramkulam"
  },
  "MSCN": {
    "AvailableFormats": "3D|2D",
    "City": "Pen",
    "Latitude": "18.7349",
    "Longitude": "73.0919",
    "RegionCode": "PEN",
    "State": "Maharashtra",
    "SubRegionCode": "PEN",
    "VenueAddress": "M.G.Road, Khopoli Road, Chincpada, Raigad, Pen, Near S.T. Bus Depot, Near L.I.C Office, Pen, Maharashtra 402107, India",
    "VenueCode": "MSCN",
    "VenueName": "Moreshwar Chitramandir: Pen"
  },
  "MSTW": {
    "AvailableFormats": "",
    "City": "Gwalior",
    "FirstTracked": "2026-07-14",
    "Latitude": "26.20944",
    "Longitude": "78.16645",
    "RegionCode": "GWAL",
    "State": "Madhya Pradesh",
    "SubRegionCode": "GWAL",
    "VenueAddress": "3rd Floor, Dindayal City Mall, Maharani Laxmibai Marg, Phool Bagh, Lashkar, Gwalior, Madhya Pradesh 474009, India",
    "VenueCode": "MSTW",
    "VenueName": "7D Masti: DD Mall, Gwalior"
  },
  "MTCR": {
    "AvailableFormats": "2D|3D",
    "City": "Mumbai",
    "Latitude": "19.0455",
    "Longitude": "72.9031",
    "RegionCode": "MUMBAI",
    "State": "Maharashtra",
    "SubRegionCode": "MCENT",
    "VenueAddress": "Old Basant Cinema, Wadavali Village, Vasant Vihar Complex Road, Vasant Vihar Complex, Chembur, Mumbai, Maharashtra 400074, India",
    "VenueCode": "MTCR",
    "VenueName": "Movietime Cubic Mall: Chembur"
  },
  "MTKR": {
    "AvailableFormats": "2D|3D",
    "City": "Karnal",
    "Latitude": "29.6969",
    "Longitude": "77.0014",
    "RegionCode": "KARN",
    "State": "Haryana",
    "SubRegionCode": "KARN",
    "VenueAddress": "Plot No 1, 4th Floor, Super Mall, Sector 12, Part 1, Karnal, Haryana 132001, India",
    "VenueCode": "MTKR",
    "VenueName": "Movietime Cinemas: Karnal"
  },
  "MTPK": {
    "AvailableFormats": "2D",
    "City": "Palakollu",
    "Latitude": "16.514",
    "Longitude": "81.731",
    "RegionCode": "PLKL",
    "State": "Andhra Pradesh",
    "SubRegionCode": "PLKL",
    "VenueAddress": "Penumadam Road, Near Market Yard, Palakollu, Andhra Pradesh 534260, India",
    "VenueCode": "MTPK",
    "VenueName": "Maruthi Theatre: Palakollu"
  },
  "MTZH": {
    "AvailableFormats": "2D",
    "City": "Zaheerabad",
    "Latitude": "17.6818",
    "Longitude": "77.6163",
    "RegionCode": "ZAGE",
    "State": "Telangana",
    "SubRegionCode": "ZAGE",
    "VenueAddress": "Main Road, Market Yard, Next to Andhra Bank, Near Zaheerabad Bus Depot, Zaheerabad, Telangana 502220, India",
    "VenueCode": "MTZH",
    "VenueName": "Asian Maheshwari 70MM A/C DTS: Zaheerabad"
  },
  "MUTJ": {
    "AvailableFormats": "2D",
    "City": "Jammikunta",
    "Latitude": "18.2907",
    "Longitude": "79.47",
    "RegionCode": "JMKN",
    "State": "Telangana",
    "SubRegionCode": "JMKN",
    "VenueAddress": "Girls High School Road, Near Vasavi Kanyaka Parameswari, Jammikunta, Telangana 505122, India",
    "VenueCode": "MUTJ",
    "VenueName": "Murali Deluxe Theatre: Jammikunta"
  },
  "MXBY": {
    "AvailableFormats": "2D",
    "City": "Mumbai",
    "Latitude": "19.2967",
    "Longitude": "72.8479",
    "RegionCode": "MUMBAI",
    "State": "Maharashtra",
    "SubRegionCode": "MWEST",
    "VenueAddress": "Maxus Mall, 3rd Floor, 150 Feet Road, Near Railway Flyover, Opposite Salasar Bridge Bhoomi, Mumbai, Maharashtra 401101, India",
    "VenueCode": "MXBY",
    "VenueName": "Maxus Cinemas: Bhayander"
  },
  "MYCA": {
    "AvailableFormats": "2D",
    "City": "Angamaly",
    "Latitude": "10.1953",
    "Longitude": "76.3864",
    "RegionCode": "ANGA",
    "State": "Kerala",
    "SubRegionCode": "ANGA",
    "VenueAddress": "Mycinemas, 5th Floor, KSRTC Complex, Angamaly, Kerala 683572, India",
    "VenueCode": "MYCA",
    "VenueName": "MY Cinemas, KSRT Complex, Angamaly: Kerala"
  },
  "MYTH": {
    "AvailableFormats": "2D",
    "City": "Kovur (Nellore)",
    "Latitude": "14.505",
    "Longitude": "79.9859",
    "RegionCode": "KOVR",
    "State": "Andhra Pradesh",
    "SubRegionCode": "KOVR",
    "VenueAddress": "Mythili Imax Cinemas Road, Near ICICI Bank ATM, Kovur (Nellore), Andhra Pradesh 524137, India",
    "VenueCode": "MYTH",
    "VenueName": "Mythili Theatre: Kovur"
  },
  "NAKM": {
    "AvailableFormats": "",
    "City": "Macherla",
    "FirstTracked": "2026-07-14",
    "Latitude": "16.471432",
    "Longitude": "79.43325",
    "RegionCode": "MACH",
    "State": "Andhra Pradesh",
    "SubRegionCode": "MACH",
    "VenueAddress": "NH 21, Hyderabad Guntur Road, Macherla, Andhra Pradesh 522426, India",
    "VenueCode": "NAKM",
    "VenueName": "Nagarjuna Kalamandir: Macherla"
  },
  "NCDA": {
    "AvailableFormats": "2D",
    "City": "Dhekiajuli",
    "Latitude": "26.7041",
    "Longitude": "92.5013",
    "RegionCode": "DEKJ",
    "State": "Assam",
    "SubRegionCode": "DEKJ",
    "VenueAddress": "National Highway 15, Ratan Juli Gaon, Dhekiajuli, Assam 784110, India",
    "VenueCode": "NCDA",
    "VenueName": "Nakshatra Cinemas: Dhekiajuli, Assam"
  },
  "NCMN": {
    "AvailableFormats": "",
    "City": "Surathkal",
    "FirstTracked": "2026-07-14",
    "Latitude": "12.987411",
    "Longitude": "74.800575",
    "RegionCode": "SRTK",
    "State": "Karnataka",
    "SubRegionCode": "SRTK",
    "VenueAddress": "Suratkal Main Highway, Near Hitha Collection, Surathkal, Karnataka 575014, India",
    "VenueCode": "NCMN",
    "VenueName": "Natraj Theatre: Surathkal"
  },
  "NECF": {
    "AvailableFormats": "2D",
    "City": "Jhansi",
    "Latitude": "25.4482",
    "Longitude": "78.5695",
    "RegionCode": "JNSI",
    "State": "Uttar Pradesh",
    "SubRegionCode": "JNSI",
    "VenueAddress": "Rani Jhansi Road, Prathvipur, Civil Lines, Jhansi, Uttar Pradesh 284001, India",
    "VenueCode": "NECF",
    "VenueName": "Elite Cinema: Jhansi"
  },
  "NICJ": {
    "AvailableFormats": "2D|3D",
    "City": "Jodhpur",
    "Latitude": "26.2824",
    "Longitude": "73.0112",
    "RegionCode": "JODH",
    "State": "Rajasthan",
    "SubRegionCode": "JODH",
    "VenueAddress": "Chopasani Road, Sardarpura, Near Sanichar Ji Ka Than, Jodhpur, Rajasthan 342003, India",
    "VenueCode": "NICJ",
    "VenueName": "Nasrani Cinema: Jodhpur"
  },
  "NLTC": {
    "AvailableFormats": "2D",
    "City": "Chennai",
    "Latitude": "12.9291",
    "Longitude": "80.1147",
    "RegionCode": "CHEN",
    "State": "Tamil Nadu",
    "SubRegionCode": "CHEN",
    "VenueAddress": "Rajaji Road, West Tambaram, Near Lenovo Store, Chennai, Tamil Nadu 600045, India",
    "VenueCode": "NLTC",
    "VenueName": "National Theatre 4K Dolby Atmos: Tambaram"
  },